TimeUS,Roll,Pitch,Yaw,VN,VE,VD
16895542,-1.26,1.5,0.06,-0.02450549,0.07988796,0.01529
16915687,-1.26,1.51,0.06,-0.02472917,0.08057808,0.01546299
16935554,-1.26,1.51,0.06,-0.02489725,0.08137269,0.01528359
16955598,-1.26,1.51,0.06,-0.02522851,0.08203363,0.01522212
16975584,-1.25,1.51,0.06,-0.02536513,0.08263967,0.01559204
16995554,-1.25,1.5,0.06,-0.02520442,0.08333181,0.01620418
17015572,-1.25,1.5,0.06,-0.02555738,0.08396842,0.01616705
17035558,-1.25,1.5,0.06,-0.02600644,0.08443573,0.01602659
17055598,-1.25,1.5,0.06,-0.02624428,0.08540427,0.01638729
17075540,-1.25,1.5,0.06,-0.026707,0.08617402,0.01683066
17095554,-1.25,1.5,0.06,-0.02651271,0.08654059,0.0172176
17115605,-1.25,1.5,0.06,-0.02690251,0.08731379,0.01724862
17135554,-1.25,1.51,0.06,-0.02731794,0.08824322,0.01777888
17155574,-1.25,1.5,0.06,-0.02775835,0.08911262,0.01774499
17175539,-1.25,1.51,0.06,-0.02805116,0.08970156,0.018027
17195605,-1.25,1.5,0.06,-0.02803483,0.09033241,0.01807082
17215591,-1.25,1.5,0.06,-0.02820113,0.09135201,0.01825684
17235555,-1.25,1.5,0.06,-0.02826142,0.09218309,0.0183128
17255575,-1.25,1.5,0.06,-0.02872181,0.09268167,0.01836446
17275554,-1.24,1.5,0.06,-0.02909074,0.09346567,0.0184885
17295604,-1.24,1.5,0.06,-0.02939167,0.09455844,0.01833625
17315573,-1.24,1.5,0.06,-0.02934816,0.09529807,0.01898895
17335559,-1.24,1.49,0.06,-0.02967696,0.09614256,0.01901418
17355579,-1.24,1.49,0.06,-0.02980096,0.09686869,0.01902134
17375565,-1.24,1.49,0.06,-0.03016873,0.09780353,0.01922672
17395555,-1.24,1.5,0.06,-0.03003853,0.09877581,0.01954365
17415581,-1.23,1.49,0.06,-0.02983035,0.09958387,0.01987369
17435579,-1.23,1.49,0.06,-0.03007779,0.1003729,0.01982834
17455613,-1.23,1.49,0.06,-0.03057024,0.1014233,0.01954964
17475539,-1.23,1.49,0.06,-0.03122628,0.1020781,0.01983918
17495560,-1.23,1.49,0.06,-0.03130801,0.1030326,0.02026417
17515647,-1.23,1.49,0.06,-0.03148215,0.1041904,0.02066944
17535577,-1.22,1.49,0.06,-0.03160225,0.1050183,0.02068025
17555558,-1.22,1.5,0.06,-0.03156499,0.1059019,0.02074474
17575554,-1.22,1.5,0.06,-0.03167935,0.1067542,0.02110428
17595568,-1.22,1.5,0.06,-0.03208755,0.1074605,0.0210064
17615647,-1.22,1.5,0.06,-0.03242717,0.1083343,0.02077764
17635560,-1.22,1.5,0.06,-0.03263557,0.1095486,0.02065475
17655568,-1.22,1.5,0.06,-0.03285212,0.1107447,0.02069599
17675582,-1.21,1.5,0.06,-0.03269685,0.1119316,0.02091468
17695556,-1.21,1.5,0.06,-0.03110524,0.1076565,0.02090603
17715581,-1.22,1.49,0.06,-0.02987558,0.1035417,0.02100411
17735540,-1.22,1.49,0.06,-0.02904004,0.09958652,0.02130654
17755591,-1.23,1.49,0.06,-0.02804142,0.09610277,0.0214816
17775571,-1.23,1.49,0.06,-0.02730735,0.09251256,0.02129876
17795541,-1.24,1.49,0.06,-0.02539689,0.0887743,0.02108832
17815581,-1.24,1.49,0.06,-0.02346863,0.08507608,0.02105196
17835587,-1.25,1.49,0.06,-0.02233519,0.08144978,0.02136152
17855611,-1.26,1.49,0.06,-0.02111743,0.07800945,0.02132851
17875557,-1.27,1.49,0.06,-0.01968476,0.07513209,0.02132589
17895586,-1.27,1.48,0.06,-0.01833577,0.0715249,0.02166447
17915611,-1.28,1.48,0.06,-0.01722966,0.06812099,0.02173141
17935546,-1.28,1.48,0.06,-0.01629512,0.06491946,0.02179563
17955578,-1.29,1.47,0.07,-0.01554455,0.06228034,0.02180443
17975587,-1.29,1.47,0.07,-0.01456713,0.05976531,0.02165005
17995583,-1.3,1.47,0.07,-0.01315317,0.05743453,0.02132132
18015581,-1.3,1.47,0.08,-0.01235133,0.05484809,0.02145006
18035541,-1.3,1.47,0.08,-0.01134876,0.05187798,0.02143532
18055581,-1.3,1.47,0.08,-0.01063765,0.05023625,0.02072378
18075581,-1.31,1.46,0.08,-0.009702004,0.04981367,0.02054332
18095558,-1.31,1.46,0.07,-0.009540721,0.04872095,0.02015058
18115634,-1.31,1.46,0.07,-0.01019097,0.04483675,0.0205428
18135555,-1.31,1.46,0.08,-0.01046378,0.0422225,0.02046506
18155573,-1.31,1.46,0.08,-0.01006464,0.0419505,0.02011686
18175556,-1.32,1.46,0.07,-0.008834715,0.04233645,0.02007804
18195558,-1.32,1.46,0.07,-0.007681919,0.03883648,0.02017177
18215623,-1.32,1.46,0.07,-0.005693549,0.03735295,0.02019027
18235541,-1.32,1.46,0.07,-0.00506124,0.0374218,0.01945762
18255612,-1.32,1.46,0.07,-0.006118969,0.03573025,0.01928183
18275558,-1.32,1.46,0.07,-0.007311808,0.03412772,0.01966001
18295559,-1.32,1.46,0.08,-0.006902601,0.03408856,0.01944616
18315580,-1.32,1.46,0.07,-0.005015285,0.03361465,0.01942568
18335553,-1.32,1.47,0.08,-0.003862936,0.03226257,0.01966671
18355602,-1.32,1.46,0.08,-0.0027832,0.03151381,0.01949972
18375557,-1.32,1.46,0.07,-0.002785073,0.03096416,0.01934442
18395562,-1.32,1.46,0.07,-0.003948435,0.03011923,0.01942648
18415596,-1.32,1.46,0.07,-0.00463867,0.0293353,0.01965366
18435567,-1.32,1.46,0.07,-0.0038713,0.02918122,0.01977536
18455587,-1.33,1.46,0.07,-0.00313935,0.02852053,0.0196874
18475565,-1.33,1.46,0.07,-0.002597963,0.0274365,0.0194557
18495577,-1.33,1.47,0.07,-0.002197507,0.02710873,0.01966653
18515640,-1.33,1.47,0.07,-0.002542999,0.02664178,0.02010112
18535544,-1.33,1.47,0.07,-0.003016296,0.02617891,0.02023076
18555579,-1.33,1.47,0.07,-0.003055299,0.02574355,0.02045997
18575556,-1.33,1.47,0.08,-0.00251473,0.02566679,0.02015281
18595576,-1.33,1.47,0.07,-0.002140659,0.02552146,0.02028993
18615599,-1.32,1.47,0.07,-0.002062329,0.02512843,0.02050547
18635555,-1.32,1.47,0.07,-0.001800594,0.02528957,0.02041721
18655576,-1.32,1.47,0.07,-0.001651353,0.02533148,0.0207487
18675572,-1.33,1.47,0.08,-0.001701957,0.02482152,0.02088026
18695580,-1.33,1.47,0.08,-0.001432943,0.02453945,0.02082046
18715611,-1.33,1.48,0.08,-0.001341498,0.02485027,0.02041795
18735559,-1.33,1.47,0.07,-0.001803932,0.02439863,0.02018316
18755610,-1.33,1.47,0.08,-0.001994319,0.02449877,0.01980304
18775558,-1.33,1.48,0.08,-0.001965687,0.02442768,0.01986926
18795541,-1.33,1.48,0.08,-0.001782142,0.02452846,0.01934537
18815575,-1.33,1.48,0.08,-0.002138533,0.02409566,0.01937977
18835590,-1.33,1.48,0.08,-0.001933658,0.02412173,0.0188691
18855583,-1.33,1.48,0.08,-0.00161992,0.02410351,0.01870862
18875555,-1.33,1.48,0.08,-0.001520713,0.02380207,0.01875551
18895543,-1.33,1.47,0.08,-0.001462979,0.02327443,0.01842128
18915627,-1.33,1.47,0.08,-0.001060085,0.02351339,0.01824547
18935558,-1.33,1.47,0.08,-0.0007230995,0.02331844,0.01849142
18955575,-1.33,1.47,0.08,-0.0008721535,0.02335807,0.01791787
18975562,-1.33,1.47,0.08,-0.001061756,0.02331379,0.01800345
18995578,-1.33,1.47,0.08,-0.001231655,0.02373752,0.01778115
19015576,-1.33,1.47,0.08,-0.001756795,0.02368991,0.01771948
19035558,-1.33,1.47,0.08,-0.002243655,0.02368421,0.01726018
19055591,-1.33,1.47,0.08,-0.00186445,0.02364215,0.01733001
19075582,-1.33,1.47,0.08,-0.001764668,0.02377255,0.01693855
19095542,-1.33,1.47,0.08,-0.001842644,0.02394939,0.01663831
19115649,-1.32,1.47,0.08,-0.002138012,0.02360458,0.01660674
19135559,-1.32,1.47,0.08,-0.002436705,0.02374483,0.0161222
19155623,-1.32,1.47,0.08,-0.002348278,0.02411976,0.01565393
19175556,-1.32,1.46,0.08,-0.00213176,0.02431123,0.01578046
19195556,-1.32,1.47,0.08,-0.00174475,0.02464521,0.01561466
19215612,-1.32,1.47,0.08,-0.001757821,0.02474036,0.01562414
19235559,-1.32,1.47,0.08,-0.001674555,0.02473827,0.01541387
19255574,-1.32,1.47,0.08,-0.00135828,0.02553275,0.01521562
19275542,-1.32,1.47,0.08,-0.001464098,0.02586592,0.01502211
19295588,-1.32,1.47,0.08,-0.001727778,0.02606373,0.01500309
19315605,-1.32,1.47,0.08,-0.001717779,0.02608984,0.0146923
19335565,-1.32,1.48,0.08,-0.0009941063,0.02578282,0.01432982
19355565,-1.33,1.48,0.08,-0.000599016,0.02600609,0.01360843
19375556,-1.32,1.48,0.08,0.0001101972,0.02570612,0.01338194
19395556,-1.32,1.48,0.08,0.0002226917,0.02621923,0.01307262
19415595,-1.33,1.48,0.08,-0.000125616,0.0268303,0.01264561
19435555,-1.32,1.48,0.08,-0.0004918981,0.0264423,0.01230091
19455574,-1.33,1.48,0.08,-0.0007662557,0.02670114,0.01168404
19475541,-1.33,1.48,0.08,-0.001065265,0.0269149,0.01104824
19495586,-1.33,1.47,0.08,-0.001013931,0.0270755,0.01030898
19515589,-1.33,1.47,0.08,-0.001026693,0.02757627,0.009669906
19535543,-1.33,1.47,0.08,-0.001017495,0.02785882,0.009566067
19555581,-1.33,1.47,0.08,-0.001116795,0.02773132,0.009078819
19575574,-1.33,1.47,0.08,-0.0008809069,0.02755875,0.009135389
19595590,-1.33,1.47,0.08,-0.000699322,0.02750958,0.008496004
19615562,-1.33,1.47,0.08,-0.000655176,0.02762582,0.008118318
19635563,-1.33,1.48,0.08,-0.0003330703,0.02794766,0.00813641
19655576,-1.33,1.48,0.08,-0.0006814613,0.02841572,0.007960971
19675555,-1.33,1.48,0.08,-0.0009035136,0.02839595,0.008554908
19695556,-1.33,1.48,0.08,-0.0005882375,0.02846516,0.008404561
19715579,-1.33,1.47,0.08,-0.0001408709,0.0285075,0.008664062
19735559,-1.33,1.47,0.08,-0.0002059094,0.02873973,0.008495404
19755592,-1.33,1.47,0.08,-0.0005228266,0.02889703,0.008738905
19775560,-1.33,1.47,0.08,-0.0009524243,0.02897382,0.008775512
19795556,-1.33,1.47,0.07,-0.001268544,0.02895509,0.008312902
19815575,-1.33,1.47,0.08,-0.0007695772,0.02897571,0.008031322
19835558,-1.32,1.47,0.07,-0.0004757151,0.02911906,0.007605494
19855599,-1.33,1.47,0.07,-0.0004592874,0.02900523,0.007505967
19875558,-1.32,1.47,0.08,-0.0007058213,0.02925278,0.007502226
19895564,-1.33,1.47,0.07,-0.0009197812,0.0295712,0.006965423
19915649,-1.33,1.47,0.07,-0.001577647,0.0298692,0.006537847
19935580,-1.33,1.47,0.07,-0.001589911,0.02978864,0.006647551
19955567,-1.33,1.47,0.07,-0.00165199,0.03006735,0.006356377
19975559,-1.33,1.47,0.07,-0.001441671,0.03038179,0.006376611
19995574,-1.33,1.47,0.08,-0.001308749,0.03040504,0.006100656
20015620,-1.33,1.47,0.08,-0.0008753077,0.03057943,0.006210909
20035556,-1.33,1.47,0.08,-0.0006785201,0.03047591,0.00597784
20055558,-1.33,1.47,0.08,-0.0008321973,0.03083847,0.005767914
20075572,-1.33,1.47,0.07,-0.001463018,0.03096839,0.005812747
20095581,-1.33,1.47,0.07,-0.001703731,0.03106532,0.005638307
20115596,-1.33,1.47,0.07,-0.001814386,0.0310224,0.005505761
20135556,-1.33,1.47,0.07,-0.001602857,0.03074008,0.00518777
20155560,-1.34,1.46,0.07,-0.001374277,0.03086015,0.005030531
20175578,-1.34,1.47,0.07,-0.001693261,0.03139929,0.004870653
20195581,-1.34,1.46,0.07,-0.002233136,0.03165882,0.004686811
20215582,-1.29,1.44,0.07,-0.00188129,0.03241586,0.004819368
20235541,-1.24,1.39,0.07,-0.001776013,0.03266477,0.005594232
20255573,-1.2,1.37,0.06,-0.002318507,0.03280895,0.004904339
20275583,-1.16,1.33,0.06,-0.002258,0.0330831,0.004798078
20295557,-1.11,1.3,0.06,-0.002159065,0.03306518,0.004824401
20315561,-1.07,1.27,0.06,-0.002225604,0.0330783,0.004871963
20335557,-1.04,1.25,0.05,-0.002317818,0.03312832,0.004831305
20355624,-1.01,1.23,0.05,-0.0027247,0.03321581,0.005104188
20375541,-0.98,1.2,0.05,-0.002439312,0.03344957,0.0052448
20395561,-0.93,1.17,0.05,-0.002071181,0.03377464,0.005159143
20415579,-0.94,1.17,0.05,-0.002347772,0.03339588,0.004548515
20435566,-0.92,1.16,0.05,-0.002333073,0.03370457,0.004583291
20455577,-0.93,1.16,0.05,-0.002055403,0.03319561,0.004592124
20475559,-0.92,1.15,0.05,-0.002644813,0.03319817,0.004025598
20495579,-0.92,1.15,0.05,-0.003385455,0.03356169,0.004474268
20515566,-0.91,1.15,0.04,-0.004892619,0.03344507,0.004103493
20535558,-0.92,1.15,0.05,-0.005191104,0.03362875,0.00457025
20555574,-0.92,1.15,0.04,-0.004794688,0.03364898,0.003783547
20575573,-0.92,1.15,0.05,-0.004077793,0.03386794,0.00448963
20595591,-0.92,1.15,0.05,-0.003562687,0.03377783,0.004404537
20615564,-0.92,1.15,0.05,-0.003795498,0.03398842,0.004446239
20635561,-0.93,1.15,0.05,-0.004960096,0.03420631,0.00430015
20655576,-0.94,1.15,0.05,-0.006710162,0.03387531,0.003683175
20675573,-0.97,1.17,0.05,-0.007708923,0.03380858,0.003221589
20695582,-1.01,1.2,0.05,-0.007590395,0.0337233,0.003573768
20715576,-1.01,1.2,0.05,-0.006663868,0.03417978,0.00456647
20735555,-0.98,1.18,0.05,-0.006017261,0.0345123,0.00547561
20755591,-0.96,1.16,0.05,-0.006299122,0.03442293,0.004996921
20775588,-0.97,1.17,0.05,-0.007267335,0.03406983,0.004369099
20795555,-0.99,1.18,0.05,-0.008542092,0.03400964,0.004733033
20815576,-1.0,1.18,0.05,-0.008960242,0.03406217,0.005250824
20835558,-0.99,1.17,0.05,-0.008450489,0.03432923,0.00502682
20855618,-0.99,1.17,0.05,-0.008226843,0.03391331,0.004844009
20875556,-0.98,1.16,0.05,-0.007883622,0.03402421,0.004732488
20895558,-0.99,1.17,0.05,-0.008314595,0.03395288,0.004927576
20915593,-0.99,1.17,0.05,-0.008583472,0.03332805,0.00528036
20935582,-0.99,1.17,0.05,-0.008517672,0.03316814,0.005406861
20955574,-0.98,1.17,0.05,-0.008674243,0.033142,0.005807589
20975556,-0.98,1.16,0.05,-0.008288232,0.03305592,0.006028137
20995573,-0.99,1.17,0.05,-0.008586558,0.03268109,0.005838749
21015590,-0.99,1.17,0.05,-0.009022152,0.03279408,0.006087612
21035563,-0.99,1.17,0.05,-0.009419499,0.03279664,0.006433679
21055593,-0.97,1.15,0.05,-0.008988513,0.03370837,0.008587115
21075581,-0.93,1.12,0.05,-0.01059528,0.03274256,0.004369412
21095555,-0.92,1.12,0.05,-0.01014937,0.03321726,0.005672107
21115572,-0.93,1.12,0.05,-0.009595991,0.03285543,0.006515623
21135556,-0.94,1.12,0.05,-0.01033651,0.03309281,0.006442164
21155605,-0.93,1.12,0.05,-0.01047794,0.03243856,0.006382101
21175557,-0.93,1.12,0.05,-0.01114369,0.03209053,0.006419474
21195542,-0.93,1.11,0.05,-0.01150706,0.03176788,0.006044855
21215583,-0.93,1.11,0.05,-0.01144386,0.03200138,0.005830346
21235583,-0.92,1.11,0.05,-0.0110301,0.03189926,0.005864644
21255580,-0.92,1.1,0.05,-0.0102545,0.03092136,0.005838966
21275541,-0.93,1.1,0.05,-0.01015722,0.03051855,0.005502564
21295555,-0.93,1.1,0.05,-0.01017831,0.03027443,0.005337799
21315595,-0.93,1.1,0.05,-0.01062181,0.03025746,0.005720568
21335556,-0.93,1.1,0.04,-0.0110307,0.03001673,0.005750314
21355576,-0.93,1.1,0.04,-0.01098063,0.0297927,0.005667172
21375543,-0.93,1.1,0.05,-0.01102246,0.02947902,0.005529577
21395556,-0.93,1.1,0.05,-0.01100113,0.02911453,0.005013862
21415604,-0.93,1.1,0.05,-0.01075245,0.02918708,0.004538727
21435556,-0.93,1.1,0.05,-0.01069654,0.02914754,0.004807032
21455577,-0.93,1.1,0.05,-0.01100111,0.02855383,0.004504368
21475551,-0.93,1.1,0.05,-0.01101985,0.02846985,0.00390561
21495586,-0.93,1.1,0.05,-0.01069954,0.02806712,0.003663066
21515610,-0.94,1.1,0.05,-0.01049032,0.02762545,0.002998338
21535560,-0.94,1.1,0.05,-0.01038044,0.02728753,0.003078004
21555577,-0.94,1.1,0.05,-0.01071453,0.02721394,0.002849191
21575547,-0.94,1.09,0.05,-0.01104444,0.02684098,0.002551136
21595585,-0.94,1.09,0.05,-0.01111397,0.0261613,0.002917089
21615575,-0.94,1.1,0.05,-0.01086755,0.02616015,0.002955756
21635571,-0.93,1.1,0.05,-0.01100373,0.02599867,0.002784536
21655593,-0.94,1.1,0.05,-0.01037668,0.02600585,0.002915132
21675566,-0.94,1.1,0.05,-0.009375188,0.02601611,0.002891387
21695576,-0.94,1.1,0.05,-0.008639218,0.02533001,0.002990721
21715577,-0.94,1.1,0.05,-0.008546417,0.02491224,0.003081542
21735562,-0.94,1.1,0.05,-0.009609651,0.02451425,0.003128635
21755576,-0.94,1.1,0.05,-0.0102764,0.02448544,0.003279231
21775553,-0.94,1.1,0.05,-0.0102561,0.02395713,0.003149228
21795581,-0.93,1.09,0.05,-0.009961556,0.02369037,0.003261924
21815608,-0.93,1.09,0.05,-0.009541555,0.02284835,0.003298964
21835563,-0.93,1.09,0.05,-0.009776475,0.02221703,0.003444354
21855610,-0.93,1.09,0.05,-0.01095325,0.02221887,0.003238162
21875567,-0.94,1.08,0.06,-0.01137759,0.02172955,0.003567071
21895577,-0.94,1.09,0.06,-0.01154201,0.0212822,0.003842866
21915582,-0.94,1.08,0.06,-0.01156935,0.02045194,0.004077911
21935556,-0.94,1.08,0.06,-0.01137506,0.02017618,0.004090617
21955579,-0.94,1.08,0.06,-0.01010241,0.01982794,0.004502081
21975562,-0.94,1.08,0.06,-0.009107315,0.01931478,0.004982349
21995555,-0.94,1.08,0.06,-0.009043379,0.0186495,0.005089835
22015576,-0.94,1.08,0.06,-0.009428504,0.01818621,0.005759225
22035556,-0.94,1.08,0.06,-0.00981367,0.01814559,0.005645209
22055601,-0.95,1.08,0.06,-0.009644179,0.01744164,0.005577004
22075554,-0.96,1.08,0.06,-0.009498988,0.0172441,0.005379323
22095557,-0.96,1.08,0.05,-0.009745631,0.01708164,0.005044484
22115598,-0.96,1.09,0.05,-0.01027716,0.01694902,0.004412323
22135556,-0.96,1.08,0.05,-0.01015154,0.0163273,0.004648864
22155600,-0.96,1.09,0.05,-0.00989828,0.01596022,0.004675495
22175545,-0.96,1.08,0.05,-0.01016956,0.0156239,0.00475668
22195562,-0.96,1.08,0.05,-0.0105686,0.01513357,0.004482141
22215593,-0.96,1.08,0.05,-0.01068556,0.01485335,0.004456225
22235584,-0.96,1.08,0.05,-0.01122327,0.01486359,0.004636409
22255562,-0.96,1.08,0.05,-0.0114369,0.01468125,0.004314129
22275557,-0.96,1.08,0.05,-0.01090783,0.01428006,0.004059799
22295556,-0.96,1.08,0.05,-0.01017281,0.01389304,0.004540646
22315588,-0.96,1.08,0.05,-0.009598779,0.01354643,0.005086733
22335574,-0.97,1.09,0.05,-0.009917133,0.01335667,0.004920685
22355608,-0.97,1.08,0.05,-0.01073409,0.01364008,0.005007582
22375557,-0.97,1.09,0.05,-0.01132313,0.01328104,0.005467344
22395556,-0.98,1.09,0.05,-0.01118992,0.01303048,0.005824276
22415608,-0.98,1.09,0.05,-0.01015809,0.01295952,0.006101001
22435567,-0.98,1.08,0.05,-0.009209999,0.01238161,0.006295824
22455575,-0.98,1.08,0.05,-0.009541447,0.01229014,0.006523417
22475564,-0.98,1.09,0.05,-0.01072706,0.0119523,0.006996901
22495572,-0.98,1.09,0.05,-0.0117105,0.01137665,0.007071546
22515626,-0.98,1.08,0.05,-0.01172236,0.01086768,0.007326907
22535544,-0.99,1.08,0.05,-0.01140176,0.01065473,0.007212625
22555586,-0.99,1.08,0.06,-0.01057947,0.01040531,0.00737679
22575557,-0.99,1.09,0.06,-0.01064667,0.009945701,0.0075858
22595579,-0.99,1.09,0.06,-0.01081392,0.009462512,0.008127447
22615610,-1.0,1.09,0.06,-0.01114405,0.00933293,0.008346303
22635541,-1.0,1.09,0.06,-0.0112356,0.009048134,0.008566756
22655576,-1.0,1.09,0.06,-0.01086885,0.008637923,0.008698924
22675578,-1.0,1.09,0.06,-0.01018685,0.008594603,0.008635152
22695577,-1.0,1.09,0.06,-0.009914393,0.008082544,0.008626217
22715609,-1.01,1.1,0.06,-0.01004681,0.007620165,0.008704402
22735541,-1.01,1.1,0.06,-0.01078473,0.007387732,0.008427038
22755579,-1.01,1.1,0.06,-0.01098383,0.006908979,0.008473772
22775582,-1.0,1.1,0.06,-0.01083987,0.006657623,0.008145402
22795583,-1.0,1.09,0.06,-0.01047,0.0063255,0.008123026
22815575,-1.0,1.09,0.06,-0.01051577,0.006129852,0.007841598
22835549,-1.01,1.09,0.06,-0.01028259,0.005671462,0.008447822
22855605,-1.01,1.09,0.06,-0.01028236,0.005545332,0.008708162
22875582,-1.01,1.09,0.06,-0.01033604,0.005739281,0.00877824
22895561,-1.01,1.09,0.06,-0.0100676,0.005439849,0.009006156
22915610,-1.01,1.09,0.06,-0.01029711,0.005278385,0.009253225
22935561,-1.01,1.1,0.06,-0.01051639,0.005180103,0.009336657
22955602,-1.01,1.1,0.06,-0.01077327,0.005263705,0.009186544
22975564,-1.01,1.09,0.06,-0.01062392,0.00522047,0.009173908
22995568,-1.01,1.09,0.06,-0.01070502,0.004997469,0.009122247
23015561,-1.01,1.09,0.06,-0.01066801,0.004582626,0.008980253
23035568,-1.01,1.09,0.06,-0.01050528,0.004397303,0.009052285
23055604,-1.01,1.09,0.06,-0.01063735,0.00389992,0.009246872
23075557,-1.01,1.09,0.06,-0.01025096,0.003828749,0.009293309
23095543,-1.01,1.09,0.06,-0.009945228,0.003572043,0.009833315
23115600,-1.01,1.09,0.06,-0.00970113,0.003275725,0.01002167
23135581,-1.01,1.09,0.06,-0.009844741,0.00307151,0.009574184
23155575,-1.02,1.09,0.06,-0.009823527,0.0029034,0.009748149
23175556,-1.01,1.08,0.06,-0.009718806,0.002647109,0.009775318
23195576,-1.01,1.08,0.06,-0.009695235,0.002499418,0.009271572
23215620,-1.02,1.08,0.06,-0.009641098,0.002128576,0.009277936
23235557,-1.02,1.09,0.06,-0.009708981,0.002113564,0.009138026
23255574,-1.02,1.09,0.06,-0.01005212,0.002036578,0.008797955
23275574,-1.02,1.08,0.06,-0.01028942,0.001899313,0.008583005
23295600,-1.02,1.08,0.06,-0.01014443,0.001587611,0.009079211
23315580,-1.02,1.08,0.06,-0.00978346,0.00107419,0.009002117
23335557,-1.02,1.08,0.06,-0.009882578,0.0005066584,0.009052089
23355577,-1.02,1.08,0.06,-0.009917396,0.0001055353,0.009202655
23375574,-1.02,1.08,0.06,-0.009795408,1.328933e-05,0.00957429
23395567,-1.02,1.08,0.06,-0.01001209,0.0001397005,0.009557453
23415610,-1.02,1.08,0.06,-0.009954523,0.0001055338,0.009234347
23435560,-1.02,1.08,0.06,-0.009778861,-4.361198e-05,0.009347216
23455574,-1.02,1.07,0.06,-0.009898135,-0.0001342548,0.009164366
23475578,-1.02,1.07,0.06,-0.009987433,-0.0002889644,0.009194872
23495542,-1.02,1.07,0.06,-0.01033705,-0.0003282437,0.008873801
23515576,-1.02,1.08,0.06,-0.01013625,-0.0003927553,0.008848982
23535558,-1.02,1.07,0.06,-0.01001186,-0.0006951874,0.008613212
23555591,-1.02,1.07,0.06,-0.01012935,-0.0009976318,0.008806807
23575566,-1.02,1.07,0.06,-0.01003256,-0.001319697,0.008837088
23595605,-1.02,1.07,0.06,-0.0100409,-0.001489251,0.009050188
23615575,-1.02,1.07,0.06,-0.01037063,-0.001745779,0.009014371
23635563,-1.02,1.07,0.06,-0.01033479,-0.001912209,0.008991675
23655578,-1.02,1.07,0.06,-0.01006995,-0.002100951,0.008959823
23675595,-1.02,1.07,0.06,-0.01001673,-0.002205066,0.008908715
23695556,-1.02,1.07,0.06,-0.01009672,-0.002412063,0.008797342
23715563,-1.02,1.07,0.06,-0.0102393,-0.002309422,0.008605273
23735558,-1.01,1.07,0.06,-0.01011844,-0.002408087,0.008461349
23755606,-1.01,1.07,0.06,-0.01023231,-0.002603032,0.008564514
23775546,-1.01,1.07,0.06,-0.01003801,-0.002913114,0.00895883
23795555,-1.01,1.07,0.06,-0.0098699,-0.002953931,0.008804293
23815575,-1.02,1.07,0.07,-0.01012896,-0.003063919,0.008726247
23835575,-1.01,1.07,0.06,-0.01010878,-0.003229399,0.008647245
23855613,-1.02,1.07,0.06,-0.009857699,-0.003171956,0.008830218
23875560,-1.01,1.07,0.06,-0.01001912,-0.003203241,0.008565768
23895557,-1.01,1.07,0.06,-0.009978301,-0.003403898,0.008217723
23915607,-1.01,1.07,0.06,-0.009695346,-0.00367004,0.008015175
23935583,-1.02,1.07,0.07,-0.009452464,-0.003568131,0.008115015
23955560,-1.02,1.07,0.07,-0.009369372,-0.003789993,0.007824015
23975555,-1.02,1.06,0.07,-0.008945784,-0.003973767,0.007908527
23995572,-1.02,1.07,0.07,-0.008642541,-0.003950318,0.007535048
24015620,-1.02,1.06,0.07,-0.008587369,-0.0039844,0.007153886
24035566,-1.02,1.06,0.07,-0.008625079,-0.004125219,0.006728276
24055563,-1.01,1.06,0.07,-0.008737016,-0.00418483,0.006691445
24075585,-1.02,1.06,0.07,-0.008882569,-0.004420323,0.00638675
24095596,-1.02,1.06,0.07,-0.008457223,-0.00464147,0.006022343
24115578,-1.02,1.06,0.07,-0.008023981,-0.005004595,0.005836808
24135554,-1.02,1.06,0.07,-0.008048179,-0.005319573,0.005620644
24155574,-1.02,1.06,0.07,-0.007998214,-0.00551687,0.005442707
24175581,-1.02,1.06,0.07,-0.008237862,-0.005575016,0.005814771
24195567,-1.02,1.05,0.07,-0.008219526,-0.006050841,0.005969791
24215576,-1.02,1.05,0.07,-0.008107823,-0.00603872,0.005976361
24235550,-1.02,1.05,0.07,-0.007917319,-0.005937182,0.005918339
24255605,-1.02,1.05,0.07,-0.008081726,-0.005756006,0.005956554
24275556,-1.02,1.05,0.07,-0.007886932,-0.006021656,0.006164855
24295565,-1.02,1.05,0.07,-0.007743652,-0.006222137,0.006528749
24315574,-1.02,1.05,0.07,-0.007549639,-0.006184942,0.006427558
24335577,-1.02,1.05,0.07,-0.007774806,-0.006529624,0.006697266
24355577,-1.02,1.05,0.07,-0.007984346,-0.006750985,0.006570992
24375541,-1.02,1.05,0.07,-0.007865045,-0.007074321,0.006257006
24395561,-1.02,1.05,0.07,-0.007939806,-0.006976354,0.006566998
24415599,-1.02,1.05,0.07,-0.007696651,-0.006914126,0.006751363
24435567,-1.02,1.05,0.07,-0.007518389,-0.007168294,0.006539821
24455574,-1.02,1.06,0.07,-0.007334218,-0.007453986,0.006496567
24475558,-1.02,1.06,0.07,-0.007568898,-0.007789214,0.006802227
24495575,-1.02,1.06,0.08,-0.007290485,-0.007975845,0.006700997
24515594,-1.02,1.05,0.07,-0.007300128,-0.008490389,0.006949495
24535559,-1.02,1.05,0.07,-0.006943176,-0.008481749,0.007055501
24555578,-1.02,1.05,0.07,-0.006584,-0.008910028,0.006935906
24575580,-1.02,1.05,0.07,-0.006368236,-0.008738922,0.006779059
24595558,-1.02,1.04,0.07,-0.006715836,-0.008718685,0.006505469
24615561,-1.02,1.04,0.07,-0.006496723,-0.008841367,0.006379381
24635566,-1.02,1.04,0.07,-0.006373885,-0.008699469,0.006430078
24655594,-1.01,1.04,0.07,-0.006537215,-0.008357385,0.006430748
24675583,-1.02,1.04,0.07,-0.006489941,-0.008434313,0.006524655
24695559,-1.02,1.03,0.07,-0.006193861,-0.008280192,0.00648472
24715576,-1.02,1.03,0.07,-0.00599052,-0.008348957,0.00623581
24735569,-1.02,1.03,0.07,-0.005429349,-0.00854371,0.006405936
24755626,-1.02,1.03,0.07,-0.005345848,-0.008683683,0.006254886
24775561,-1.02,1.03,0.07,-0.005434762,-0.00863258,0.006199291
24795556,-1.01,1.03,0.07,-0.005394842,-0.008642884,0.006269735
24815581,-1.01,1.04,0.07,-0.005473276,-0.008878831,0.006495218
24835557,-1.01,1.04,0.07,-0.005139772,-0.009361858,0.006811789
24855582,-1.01,1.03,0.06,-0.005250058,-0.009309634,0.0065815
24875558,-1.01,1.03,0.07,-0.00476603,-0.009548648,0.006276599
24895572,-1.01,1.03,0.06,-0.004770214,-0.009800264,0.006553053
24915586,-1.01,1.03,0.06,-0.004435399,-0.0099936,0.006963384
24935609,-1.01,1.03,0.06,-0.004248156,-0.009995792,0.007072896
24955575,-1.02,1.03,0.06,-0.003778306,-0.01004402,0.007221829
24975559,-1.02,1.03,0.06,-0.003817665,-0.009677793,0.007236858
24995556,-1.02,1.03,0.06,-0.003735693,-0.009680991,0.007317445
25015600,-1.02,1.03,0.06,-0.003508065,-0.009605509,0.007359581
25035556,-1.02,1.03,0.06,-0.003093757,-0.009678558,0.007565689
25055573,-1.02,1.03,0.07,-0.002996146,-0.009497839,0.0074838
25075579,-1.02,1.03,0.06,-0.002660466,-0.009382715,0.007569156
25095541,-1.02,1.03,0.06,-0.00246512,-0.009406817,0.007317232
25115579,-1.01,1.04,0.06,-0.002214737,-0.00924784,0.007544121
25135556,-1.02,1.04,0.06,-0.002119998,-0.009120108,0.007083938
25155622,-1.02,1.03,0.06,-0.002170423,-0.008924153,0.006986099
25175577,-1.01,1.03,0.06,-0.002238254,-0.008535583,0.006879094
25195556,-1.01,1.03,0.06,-0.00206502,-0.008141036,0.006874219
25215575,-1.01,1.03,0.06,-0.001421108,-0.008110908,0.006603857
25235555,-1.01,1.03,0.06,-0.001591503,-0.007900727,0.006312995
25255614,-1.01,1.03,0.06,-0.001297828,-0.007804951,0.006135104
25275543,-1.02,1.03,0.06,-0.001585405,-0.007984457,0.006265952
25295560,-1.02,1.03,0.06,-0.001250906,-0.00784926,0.00612778
25315621,-1.02,1.03,0.06,-0.001208036,-0.007719972,0.005859881
25335562,-1.02,1.03,0.06,-0.001128385,-0.007524665,0.005896185
25355575,-1.02,1.03,0.06,-0.0008112039,-0.007560527,0.0061025
25375548,-1.02,1.03,0.06,-0.001043837,-0.007294277,0.005784666
25395575,-1.02,1.02,0.06,-0.001091711,-0.007475156,0.0057877
25415608,-1.02,1.02,0.06,-0.0009659778,-0.007244835,0.005414479
25435559,-1.02,1.03,0.07,-0.0004153236,-0.007320303,0.005645392
25455574,-1.02,1.03,0.06,-0.0005653686,-0.006984019,0.005484737
25475544,-1.02,1.03,0.07,-4.867965e-05,-0.006924091,0.006062508
25495568,-1.03,1.03,0.07,0.0003020681,-0.006657365,0.005962135
25515617,-1.03,1.02,0.07,0.0007537594,-0.006620225,0.005728089
25535559,-1.03,1.02,0.07,0.001176163,-0.006549632,0.005589212
25555576,-1.03,1.02,0.07,0.001420028,-0.006417893,0.005689587
25575541,-1.03,1.02,0.07,0.001269739,-0.006553533,0.005759159
25595607,-1.03,1.02,0.07,0.001573166,-0.006252056,0.00569066
25615579,-1.03,1.02,0.07,0.001467568,-0.005809159,0.005944682
25635566,-1.02,1.02,0.07,0.001315033,-0.005658288,0.005847267
25655580,-1.03,1.02,0.07,0.001405652,-0.005406072,0.005954862
25675566,-1.02,1.03,0.06,0.001469762,-0.005291669,0.005678544
25695557,-1.02,1.02,0.06,0.001507332,-0.005120244,0.005240965
25715580,-1.02,1.02,0.06,0.001211414,-0.004884887,0.005386102
25735557,-1.02,1.02,0.06,0.00109055,-0.004683596,0.005074562
25755568,-1.02,1.02,0.06,0.001262767,-0.004560052,0.004924243
25775573,-1.02,1.02,0.06,0.001505564,-0.004558745,0.005061527
25795565,-1.02,1.02,0.06,0.001576542,-0.0042419,0.004933617
25815614,-1.03,1.02,0.06,0.002039132,-0.004241874,0.00494362
25835558,-1.02,1.03,0.06,0.001996097,-0.004351616,0.004985005
25855610,-1.02,1.03,0.06,0.002096016,-0.004169158,0.005397773
25875555,-1.02,1.03,0.06,0.002522066,-0.00409639,0.005502151
25895556,-1.02,1.03,0.07,0.002553923,-0.004085983,0.005504142
25915609,-1.02,1.03,0.07,0.00298343,-0.004029842,0.005425224
25935583,-1.02,1.03,0.07,0.002933583,-0.003694723,0.005585088
25955558,-1.03,1.03,0.07,0.003041961,-0.003673997,0.00568861
25975561,-1.03,1.02,0.07,0.003407092,-0.003766924,0.005775722
25995556,-1.03,1.03,0.07,0.003594307,-0.003594604,0.005875452
26015573,-1.03,1.03,0.07,0.003719674,-0.003760281,0.006172143
26035579,-1.03,1.03,0.07,0.003714834,-0.00389057,0.006525588
26055574,-1.03,1.03,0.07,0.003399898,-0.00375539,0.006188093
26075561,-1.03,1.03,0.07,0.003548084,-0.003747819,0.006306896
26095561,-1.03,1.03,0.07,0.003802527,-0.003904828,0.006172197
26115625,-1.03,1.03,0.07,0.003719762,-0.00395619,0.006110492
26135556,-1.03,1.03,0.07,0.003690564,-0.003791241,0.006026827
26155559,-1.03,1.03,0.07,0.003825872,-0.003671348,0.006081226
26175570,-1.03,1.03,0.07,0.003785588,-0.003590806,0.00630611
26195587,-1.03,1.03,0.07,0.003747229,-0.003641903,0.006285953
26215613,-1.03,1.03,0.07,0.003772034,-0.003542374,0.00618125
26235541,-1.03,1.03,0.07,0.003660327,-0.003380497,0.006430675
26255574,-1.03,1.02,0.07,0.00368099,-0.003279452,0.006011686
26275562,-1.03,1.03,0.07,0.004146336,-0.003235447,0.006257515
26295576,-1.03,1.02,0.07,0.004351597,-0.003059883,0.005979985
26315626,-1.03,1.02,0.07,0.004503446,-0.002768014,0.005687086
26335541,-1.03,1.02,0.07,0.00456406,-0.002929885,0.005736098
26355578,-1.02,1.02,0.07,0.004849595,-0.003089039,0.005715464
26375559,-1.03,1.02,0.07,0.005076319,-0.003110961,0.005754279
26395570,-1.03,1.02,0.07,0.004812684,-0.002912189,0.006095513
26415583,-1.02,1.02,0.07,0.004653823,-0.003218022,0.006115115
26435548,-1.02,1.02,0.07,0.005015741,-0.003034803,0.005976402
26455589,-1.03,1.02,0.07,0.005236917,-0.003026971,0.006417497
26475583,-1.03,1.01,0.07,0.00533571,-0.002948176,0.006657071
26495555,-1.03,1.02,0.07,0.005271285,-0.002997765,0.00616092
26515581,-1.03,1.02,0.07,0.005295826,-0.002982173,0.006101452
26535545,-1.03,1.02,0.07,0.005602896,-0.00303975,0.006089202
26555591,-1.03,1.02,0.07,0.00561799,-0.002913,0.006099944
26575590,-1.03,1.02,0.08,0.005776827,-0.00290482,0.005834871
26595558,-1.03,1.02,0.08,0.005761912,-0.0028505,0.005656981
26615576,-1.03,1.02,0.08,0.005878451,-0.002686822,0.005688616
26635541,-1.03,1.02,0.08,0.005703705,-0.002978876,0.005761536
26655627,-1.03,1.02,0.08,0.005877835,-0.00282278,0.005905437
26675556,-1.03,1.02,0.08,0.005993332,-0.002766005,0.005671996
26695557,-1.03,1.02,0.08,0.006082574,-0.002665989,0.005400926
26715623,-1.03,1.02,0.08,0.005781826,-0.00235453,0.005376288
26735601,-1.03,1.02,0.08,0.006018213,-0.002161942,0.00546585
26755575,-1.03,1.01,0.08,0.006114985,-0.002003017,0.005317523
26775559,-1.03,1.01,0.08,0.006231632,-0.002332539,0.005225663
26795541,-1.03,1.02,0.08,0.006155034,-0.002213882,0.004983125
26815594,-1.03,1.02,0.08,0.006389199,-0.001983889,0.005075536
26835558,-1.03,1.01,0.08,0.006631057,-0.0017459,0.004595447
26855576,-1.02,1.02,0.08,0.006641856,-0.001837874,0.004259279
26875562,-1.02,1.02,0.08,0.006688635,-0.001598892,0.00440507
26895581,-1.02,1.01,0.08,0.006918186,-0.001641246,0.004144579
26915562,-1.02,1.01,0.08,0.007202201,-0.001651992,0.003986814
26935560,-1.02,1.01,0.08,0.007140893,-0.001892293,0.003877763
26955578,-1.02,1.01,0.08,0.007395905,-0.001865829,0.004104819
26975565,-1.02,1.0,0.08,0.00729531,-0.002155905,0.003630731
26995541,-1.02,1.0,0.08,0.007499376,-0.002063455,0.003142631
27015576,-1.02,1.0,0.08,0.007381923,-0.002064545,0.002930142
27035562,-1.02,1.0,0.08,0.007338977,-0.002115251,0.003059296
27055591,-1.02,1.0,0.08,0.007582985,-0.002346102,0.002991386
27075601,-1.02,1.0,0.08,0.006998443,-0.002167641,0.002899216
27095540,-1.02,1.0,0.08,0.007249115,-0.002169601,0.003057967
27115612,-1.02,1.0,0.08,0.007321324,-0.002370032,0.003490155
27135556,-1.02,1.0,0.08,0.007429739,-0.002526906,0.003572383
27155623,-1.02,1.0,0.08,0.007358248,-0.002502208,0.003599659
27175565,-1.02,1.0,0.08,0.007434014,-0.002923624,0.00358486
27195541,-1.02,1.0,0.08,0.007658848,-0.002779892,0.003601672
27215620,-1.02,1.01,0.08,0.007743025,-0.002607795,0.003861462
27235556,-1.02,1.0,0.08,0.007825851,-0.002835186,0.003800428
27255577,-1.02,1.0,0.08,0.00788891,-0.002911922,0.003800781
27275569,-1.01,1.01,0.08,0.008155194,-0.003033958,0.004181399
27295606,-1.01,1.01,0.08,0.008010657,-0.003212451,0.003911261
27315575,-1.01,1.01,0.08,0.008093278,-0.003321909,0.003932231
27335563,-1.01,1.01,0.08,0.008104049,-0.003601113,0.003520592
27355577,-1.01,1.0,0.08,0.0080911,-0.003619916,0.003191603
27375558,-1.01,1.0,0.08,0.008141524,-0.003672788,0.002624761
27395556,-1.01,1.0,0.08,0.00812945,-0.003699303,0.002762406
27415578,-1.01,1.0,0.08,0.008153117,-0.0038709,0.002768551
27435568,-1.01,1.0,0.08,0.008290273,-0.00423414,0.002887744
27455602,-1.01,1.0,0.08,0.008635462,-0.004372029,0.002889386
27475558,-1.01,1.0,0.08,0.008056906,-0.004334077,0.003082061
27495547,-1.01,1.0,0.08,0.008171359,-0.004773404,0.003276321
27515616,-1.01,1.0,0.08,0.008243821,-0.00440785,0.002835134
27535557,-1.01,1.01,0.08,0.008199515,-0.004789374,0.00241279
27555558,-1.01,1.01,0.07,0.008197004,-0.004329674,0.002437536
27575556,-1.01,1.01,0.07,0.007935485,-0.004171719,0.002524774
27595592,-1.01,1.01,0.07,0.00759812,-0.004123534,0.002768708
27615604,-1.01,1.0,0.07,0.007569717,-0.004067481,0.002771337
27635568,-1.01,1.0,0.07,0.007586802,-0.003713491,0.002739367
27655570,-1.01,1.0,0.08,0.007593432,-0.003810441,0.002675819
27675572,-1.01,1.0,0.08,0.007698246,-0.003918275,0.00251589
27695584,-1.01,1.0,0.08,0.007806822,-0.004015198,0.002762106
27715611,-1.01,1.0,0.08,0.007873503,-0.004158197,0.003112356
27735557,-1.01,1.0,0.08,0.007789901,-0.004324758,0.00287232
27755559,-1.01,1.0,0.07,0.008205422,-0.004259499,0.002342806
27775572,-1.01,0.99,0.07,0.008857513,-0.004322243,0.002687753
27795558,-1.01,0.99,0.07,0.009218886,-0.004557702,0.00259811
27815613,-1.01,0.99,0.07,0.008772624,-0.00483309,0.002561025
27835558,-1.01,0.99,0.07,0.008918842,-0.004914611,0.002557216
27855568,-1.01,0.99,0.07,0.008630138,-0.005001844,0.00252173
27875580,-1.01,0.99,0.07,0.00856749,-0.005116139,0.002134235
27895558,-1.01,0.99,0.07,0.008165065,-0.005154817,0.001898623
27915613,-1.01,0.99,0.07,0.008179381,-0.004935719,0.00185109
27935575,-1.01,0.99,0.07,0.008441592,-0.004797297,0.00194226
27955606,-1.01,0.99,0.07,0.008716837,-0.00495862,0.002089827
27975556,-1.01,0.99,0.07,0.008710274,-0.005099532,0.002105594
27995562,-1.01,0.99,0.07,0.008607691,-0.005261026,0.002089995
28015611,-1.01,0.99,0.07,0.008832003,-0.005305102,0.002146804
28035581,-1.01,0.99,0.07,0.008852017,-0.005283694,0.002187283
28055559,-1.01,1.0,0.07,0.009159068,-0.005405062,0.002032358
28075556,-1.01,0.99,0.07,0.009047363,-0.005482589,0.001593743
28095575,-1.01,0.99,0.07,0.00885525,-0.005215714,0.001477989
28115623,-1.01,1.0,0.07,0.008975581,-0.00536756,0.00152991
28135576,-1.01,1.0,0.07,0.008806157,-0.005007789,0.001683858
28155559,-1.01,1.0,0.07,0.009035927,-0.004993493,0.001672134
28175555,-1.01,1.0,0.07,0.008932535,-0.005239277,0.001314122
28195589,-1.02,1.0,0.07,0.009009014,-0.005252223,0.000925237
28215620,-1.01,1.01,0.07,0.008870414,-0.005388075,0.001101297
28235559,-1.01,1.0,0.07,0.008986976,-0.005485647,0.001184672
28255559,-1.01,1.0,0.07,0.009312832,-0.00551307,0.001509023
28275571,-1.01,1.0,0.07,0.009693326,-0.005651677,0.001958132
28295564,-1.01,1.0,0.07,0.009737385,-0.005670464,0.002249457
28315577,-1.01,1.01,0.07,0.009822205,-0.00563281,0.002123966
28335562,-1.01,1.0,0.07,0.009857127,-0.005706993,0.002304666
28355599,-1.01,1.0,0.07,0.01021935,-0.005673353,0.002354832
28375582,-1.01,1.0,0.07,0.01037797,-0.005938827,0.002406801
28395556,-1.01,1.0,0.07,0.01004595,-0.005704734,0.002339455
28415578,-1.0,1.01,0.07,0.01003307,-0.005722452,0.002362318
28435546,-1.0,1.01,0.07,0.0101013,-0.005598175,0.002158978
28455619,-1.0,1.01,0.07,0.009908309,-0.005801069,0.00205272
28475558,-1.0,1.0,0.07,0.009983267,-0.00582398,0.002080753
28495556,-1.0,1.0,0.07,0.0101879,-0.005714208,0.001884516
28515599,-1.0,1.0,0.07,0.01009596,-0.005660252,0.002520353
28535558,-1.0,1.0,0.07,0.01007888,-0.005530681,0.002616307
28555580,-1.0,1.0,0.07,0.010198,-0.005624945,0.002617535
28575557,-1.0,1.0,0.07,0.01030442,-0.005569562,0.002638388
28595584,-1.0,1.0,0.07,0.01035039,-0.005653262,0.00276598
28615610,-1.0,1.0,0.07,0.01015311,-0.005475595,0.002691732
28635558,-1.0,1.01,0.07,0.009984355,-0.005788597,0.002870993
28655577,-1.0,1.01,0.07,0.009955522,-0.005802297,0.002668512
28675556,-1.0,1.01,0.07,0.009979378,-0.005516218,0.002214083
28695576,-1.0,1.01,0.07,0.009899277,-0.005333956,0.002125134
28715593,-1.0,1.0,0.06,0.00979342,-0.005423839,0.001975202
28735558,-1.0,1.0,0.06,0.009787288,-0.005830674,0.001598877
28755580,-1.0,1.0,0.06,0.00974597,-0.00572487,0.00162907
28775564,-1.0,1.0,0.06,0.009770092,-0.005807518,0.001378262
28795574,-1.0,1.01,0.06,0.009977031,-0.005753331,0.0005801456
28815609,-1.0,1.01,0.06,0.01005489,-0.005905568,6.112779e-05
28835560,-1.0,1.01,0.06,0.009878712,-0.005697501,-1.672656e-05
28855583,-1.01,1.01,0.06,0.01016779,-0.005835145,-6.687439e-05
28875556,-1.01,1.01,0.06,0.01029078,-0.00585899,-0.0003149091
28895557,-1.0,1.01,0.06,0.01031329,-0.005953921,-1.301176e-05
28915642,-1.01,1.02,0.06,0.01030898,-0.006309569,-0.0003436534
28935558,-1.01,1.02,0.06,0.01024679,-0.006183065,-0.0004137418
28955556,-1.01,1.01,0.06,0.01025719,-0.006173372,-0.0004230922
28975556,-1.01,1.01,0.06,0.01052413,-0.005893266,-0.0009544782
28995583,-1.01,1.02,0.06,0.01047224,-0.006172664,-0.001023443
29015620,-1.01,1.02,0.06,0.01039612,-0.006059292,-0.0008391767
29035557,-1.01,1.02,0.06,0.01023037,-0.006255401,-0.0006459043
29055566,-1.01,1.02,0.06,0.01028408,-0.00638428,-0.0005584124
29075575,-1.01,1.02,0.06,0.01014408,-0.006468926,-0.0006037838
29095587,-1.01,1.02,0.06,0.01022716,-0.006423906,-0.0009849689
29115611,-1.01,1.02,0.06,0.01014521,-0.006643694,-0.00101845
29135543,-1.01,1.02,0.06,0.01030852,-0.006795653,-0.0009889425
29155574,-1.01,1.02,0.06,0.01061357,-0.007017271,-0.001309893
29175556,-1.01,1.02,0.06,0.01052175,-0.007030326,-0.001317156
29195554,-1.01,1.03,0.06,0.01040675,-0.007029389,-0.001086514
29215614,-1.01,1.02,0.06,0.01051041,-0.007104645,-0.000763785
29235560,-1.01,1.03,0.06,0.01012896,-0.006973266,-0.0003752933
29255574,-1.01,1.02,0.06,0.009920224,-0.006872676,6.980928e-05
29275541,-1.01,1.02,0.07,0.009795489,-0.006991201,4.10359e-05
29295577,-1.01,1.02,0.07,0.009802261,-0.006871217,8.027694e-05
29315619,-1.01,1.03,0.06,0.009536323,-0.007123974,-0.000105528
29335555,-1.01,1.02,0.07,0.009400786,-0.007231903,2.757454e-05
29355582,-1.01,1.03,0.07,0.009210219,-0.007470456,0.0002443142
29375551,-1.02,1.03,0.07,0.009367533,-0.00786237,0.0003856459
29395583,-1.01,1.02,0.07,0.009222175,-0.008113989,0.0003158959
29415580,-1.01,1.02,0.07,0.008877713,-0.008114311,0.0004100968
29435562,-1.01,1.03,0.07,0.009041088,-0.00828871,0.0003404857
29455583,-1.01,1.03,0.07,0.00866471,-0.008218085,0.0005029753
29475569,-1.01,1.02,0.07,0.008705629,-0.008280599,0.000202341
29495556,-1.01,1.03,0.07,0.008422348,-0.008148556,0.0001809981
29515614,-1.01,1.03,0.07,0.008331356,-0.008022503,0.0002743075
29535559,-1.01,1.02,0.07,0.008193656,-0.008307085,0.0003024574
29555622,-1.01,1.03,0.07,0.007557426,-0.008401291,5.524507e-06
29575541,-1.01,1.03,0.07,0.007324914,-0.008418537,-0.0004114086
29595558,-1.01,1.03,0.07,0.007184471,-0.00830368,-0.0006126292
29615601,-1.01,1.03,0.07,0.006975964,-0.008605506,-0.00078152
29635606,-1.01,1.03,0.07,0.006770152,-0.008695558,-0.00086447
29655613,-1.01,1.03,0.07,0.006831907,-0.008568277,-0.0009311169
29675541,-1.01,1.03,0.07,0.006527433,-0.008557044,-0.001056537
29695556,-1.01,1.04,0.07,0.006277518,-0.008422105,-0.001025568
29715593,-1.01,1.04,0.07,0.006421858,-0.008369433,-0.001001657
29735573,-1.01,1.03,0.07,0.006279541,-0.008425978,-0.001040264
29755558,-1.01,1.03,0.07,0.006200401,-0.008253516,-0.001236402
29775560,-1.01,1.03,0.07,0.005782391,-0.008390566,-0.001574844
29795555,-1.01,1.03,0.07,0.005707852,-0.008617368,-0.001704823
29815626,-1.01,1.03,0.07,0.005511237,-0.008431442,-0.002070089
29835561,-1.01,1.03,0.07,0.005498329,-0.0082285,-0.002021353
29855574,-1.01,1.03,0.07,0.005218662,-0.008209768,-0.002077659
29875558,-1.01,1.03,0.07,0.004677777,-0.007899627,-0.002096517
29895576,-1.01,1.03,0.07,0.004498892,-0.007747297,-0.0019605
29915562,-1.01,1.03,0.07,0.004480784,-0.007964618,-0.002182832
29935556,-1.01,1.03,0.07,0.004592648,-0.007773839,-0.002296379
29955573,-1.01,1.03,0.07,0.00423919,-0.007594115,-0.002250181
29975544,-1.01,1.03,0.07,0.004250009,-0.007647851,-0.001863052
29995589,-1.0,1.04,0.07,0.004136219,-0.007999375,-0.001845286
30015620,-1.01,1.04,0.07,0.003818216,-0.007811679,-0.001463911
30035539,-1.01,1.04,0.07,0.003679516,-0.007507535,-0.001613589
30055571,-1.01,1.04,0.07,0.003446135,-0.007598886,-0.001082103
30075561,-1.0,1.03,0.07,0.00330216,-0.007852165,-0.001426314
30095590,-1.0,1.03,0.07,0.003495344,-0.007967162,-0.001791945
30115630,-1.0,1.03,0.07,0.003392943,-0.007899312,-0.002243253
30135538,-1.0,1.02,0.07,0.003064447,-0.008102802,-0.002230059
30155570,-1.0,1.03,0.07,0.003295368,-0.007937732,-0.002187804
30175560,-1.0,1.03,0.07,0.003025378,-0.008060616,-0.002544109
30195583,-1.0,1.02,0.07,0.002796006,-0.008166213,-0.002633705
30215626,-1.0,1.03,0.07,0.002776945,-0.007920433,-0.003056161
30235538,-0.99,1.02,0.07,0.00283142,-0.007758659,-0.003341212
30255571,-1.0,1.02,0.07,0.002775966,-0.007915518,-0.003478204
30275563,-1.0,1.03,0.07,0.002765142,-0.008003661,-0.00365983
30295600,-1.0,1.03,0.07,0.002281057,-0.007915859,-0.004008789
30315573,-1.0,1.03,0.07,0.002066579,-0.008062017,-0.003810785
30335538,-1.0,1.03,0.07,0.001589242,-0.007879647,-0.003851413
30355609,-1.0,1.02,0.07,0.001510607,-0.007776466,-0.003676209
30375577,-1.0,1.02,0.07,0.00154465,-0.007558032,-0.003774499
30395553,-1.0,1.02,0.07,0.001162551,-0.00738838,-0.003570116
30415578,-1.0,1.03,0.07,0.001694805,-0.007346303,-0.003517206
30435560,-1.0,1.03,0.07,0.001595052,-0.007387866,-0.003143094
30455570,-1.0,1.02,0.07,0.00183624,-0.007150061,-0.003668773
30475556,-0.99,1.03,0.07,0.001494326,-0.007002502,-0.003668239
30495565,-1.0,1.02,0.07,0.0008887805,-0.006758625,-0.003760193
30515618,-1.0,1.02,0.07,0.0005852784,-0.006403513,-0.004153542
30535541,-0.99,1.02,0.07,0.000235902,-0.006413151,-0.004601059
30555574,-0.99,1.02,0.07,7.051542e-05,-0.006204676,-0.005162562
30575553,-0.99,1.02,0.07,0.000105618,-0.006252667,-0.005754637
30595594,-0.99,1.02,0.07,-0.0002463606,-0.006271204,-0.006433783
30615605,-0.99,1.02,0.07,-3.742356e-05,-0.005964722,-0.006782341
30635538,-0.99,1.02,0.07,-0.0001352651,-0.006084098,-0.007040322
30655573,-0.99,1.02,0.07,0.0002474987,-0.006506343,-0.007169963
30675566,-0.99,1.02,0.07,8.830392e-05,-0.006447942,-0.007529466
30695538,-0.99,1.02,0.07,-6.311339e-05,-0.006425487,-0.007276181
30715578,-0.99,1.02,0.07,-7.933791e-05,-0.006103934,-0.007154171
30735562,-0.99,1.02,0.07,-0.0004376506,-0.006147843,-0.007430081
30755556,-0.99,1.01,0.07,-0.0002427545,-0.005895295,-0.00770037
30775555,-0.99,1.02,0.07,-0.0002827532,-0.005927744,-0.007451999
30795570,-0.99,1.01,0.07,-0.0001870752,-0.005787409,-0.006922793
30815560,-0.99,1.02,0.07,-0.0003659856,-0.005752256,-0.006819832
30835553,-0.99,1.01,0.07,-0.00017147,-0.00544944,-0.007048817
30855579,-0.98,1.02,0.07,-0.000111864,-0.005698454,-0.007114654
30875567,-0.98,1.02,0.07,-0.000191354,-0.005412099,-0.006734427
30895539,-0.98,1.02,0.07,-0.0002971834,-0.005501182,-0.006512679
30915580,-0.98,1.02,0.07,-0.0002506365,-0.005439541,-0.007008164
30935569,-0.98,1.02,0.07,-1.845573e-05,-0.005576741,-0.007089824
30955619,-0.98,1.02,0.07,3.661485e-05,-0.005416654,-0.006958775
30975553,-0.98,1.02,0.07,0.0001293084,-0.005508295,-0.007184997
30995539,-0.98,1.01,0.07,2.444054e-05,-0.005600742,-0.007552988
31015591,-0.98,1.01,0.07,-3.846345e-05,-0.005674951,-0.007415223
31035583,-0.98,1.01,0.07,0.0001127383,-0.005443714,-0.007544168
31055571,-0.98,1.02,0.07,0.000115808,-0.005348891,-0.007063275
31075553,-0.98,1.02,0.07,0.0002053318,-0.005099401,-0.00702428
31095541,-0.97,1.02,0.07,0.0004141469,-0.00519282,-0.006919132
31115628,-0.97,1.01,0.07,0.0003643062,-0.005173864,-0.006982211
31135554,-0.97,1.01,0.07,0.0003157402,-0.005034618,-0.007242691
31155575,-0.97,1.01,0.07,0.0004352881,-0.005030057,-0.007107344
31175579,-0.97,1.01,0.07,0.00045184,-0.004912648,-0.007079855
31195568,-0.97,1.01,0.07,0.0004697348,-0.004776002,-0.007750305
31215574,-0.97,1.01,0.07,0.0007041713,-0.004725581,-0.00697785
31235557,-0.97,1.01,0.07,0.0008665473,-0.004307665,-0.007183097
31255587,-0.97,1.0,0.07,0.000984581,-0.004303639,-0.007377321
31275578,-0.97,1.0,0.07,0.0009324253,-0.004266799,-0.007364748
31295539,-0.97,1.0,0.07,0.001016365,-0.004309413,-0.007501364
31315577,-0.96,1.0,0.07,0.001208088,-0.004294309,-0.007799906
31335553,-0.96,1.0,0.07,0.001273892,-0.004482645,-0.007936735
31355631,-0.96,1.0,0.07,0.001274018,-0.004324222,-0.008215231
31375554,-0.96,1.0,0.07,0.001429602,-0.004027705,-0.007906288
31395544,-0.96,1.0,0.07,0.001682089,-0.004260321,-0.00805498
31415585,-0.96,1.0,0.07,0.001542093,-0.003992511,-0.008479499
31435567,-0.96,1.0,0.08,0.001343271,-0.003711334,-0.008625702
31455577,-0.96,1.0,0.08,0.0009348837,-0.003608715,-0.008797986
31475541,-0.97,1.0,0.08,0.001076769,-0.003517686,-0.008978518
31495556,-0.96,1.0,0.08,0.001028676,-0.003271767,-0.009001369
31515578,-0.96,1.0,0.08,0.0006715385,-0.002900146,-0.009235128
31535556,-0.96,1.0,0.08,0.0008901576,-0.00295298,-0.009413945
31555574,-0.96,1.0,0.08,0.001206381,-0.002775422,-0.009419703
31575554,-0.96,1.0,0.08,0.0012251,-0.002485668,-0.009787747
31595560,-0.96,1.0,0.08,0.001291851,-0.002754318,-0.01013173
31615603,-0.96,1.0,0.08,0.001456503,-0.002401916,-0.01014904
31635564,-0.96,0.99,0.08,0.001980186,-0.002487144,-0.01015481
31655576,-0.96,0.99,0.08,0.001932791,-0.002354252,-0.01000664
31675539,-0.96,0.99,0.08,0.00202595,-0.002125,-0.01036139
31695554,-0.95,0.99,0.08,0.002170767,-0.002095105,-0.009989982
31715575,-0.95,0.99,0.08,0.002858701,-0.001972813,-0.01006217
31735578,-0.95,0.99,0.08,0.003106579,-0.002081586,-0.009690962
31755559,-0.95,0.98,0.08,0.00323925,-0.002122691,-0.009312152
31775558,-0.95,0.98,0.08,0.003418967,-0.002180991,-0.00953833
31795573,-0.95,0.98,0.08,0.003947391,-0.002251952,-0.009369937
31815627,-0.95,0.98,0.08,0.004137148,-0.002133286,-0.00921581
31835561,-0.95,0.99,0.08,0.004593165,-0.002214413,-0.008830378
31855568,-0.96,0.99,0.08,0.005017461,-0.001964307,-0.008635701
31875554,-0.96,0.99,0.08,0.005049879,-0.001783775,-0.008590567
31895572,-0.96,0.99,0.08,0.00520983,-0.001537872,-0.008434651
31915622,-0.96,0.98,0.08,0.005424602,-0.001441289,-0.007935585
31935559,-0.96,0.98,0.08,0.005281569,-0.001089701,-0.007823657
31955563,-0.96,0.99,0.08,0.005597343,-0.001142674,-0.007812144
31975574,-0.95,0.98,0.08,0.005627266,-0.001074105,-0.007419942
31995553,-0.96,0.99,0.08,0.005516673,-0.0009116086,-0.006741622
32015571,-0.96,0.99,0.08,0.00534998,-0.0006302792,-0.006458506
32035556,-0.96,0.99,0.08,0.005468036,-0.0003155162,-0.006454687
32055630,-0.96,0.99,0.08,0.005717254,1.132687e-05,-0.006470526
32075554,-0.96,0.99,0.08,0.005916225,7.114398e-05,-0.006778893
32095559,-0.96,0.99,0.08,0.006061462,0.0002313698,-0.006585149
32115574,-0.96,0.99,0.08,0.006531578,0.0003669796,-0.006517874
32135565,-0.96,0.99,0.08,0.006645222,0.000751594,-0.006213569
32155576,-0.96,0.99,0.08,0.006715413,0.0007303614,-0.006275122
32175553,-0.96,0.98,0.08,0.006662724,0.0006618093,-0.006213109
32195553,-0.96,0.98,0.08,0.006585349,0.0006001376,-0.005886033
32215574,-0.96,0.98,0.08,0.006952445,0.0005753732,-0.005868135
32235560,-0.96,0.98,0.08,0.00726304,0.0006262041,-0.005718977
32255578,-0.96,0.98,0.08,0.007474869,0.001003189,-0.005808646
32275545,-0.96,0.98,0.08,0.007648968,0.001002546,-0.005796323
32295588,-0.96,0.99,0.08,0.00809334,0.001343822,-0.005859694
32315578,-0.97,0.99,0.08,0.008060043,0.00173782,-0.005579141
32335538,-0.96,0.99,0.08,0.008347844,0.001815331,-0.005727782
32355575,-0.96,0.99,0.08,0.008691919,0.002023937,-0.005407669
32375575,-0.96,0.99,0.08,0.008487377,0.002212128,-0.005735049
32395581,-0.96,0.99,0.08,0.008734439,0.002538816,-0.005353737
32415560,-0.96,0.98,0.08,0.009012178,0.002638998,-0.005217215
32435553,-0.97,0.98,0.08,0.009088013,0.002858721,-0.00539444
32455588,-0.97,0.98,0.08,0.00940135,0.002873273,-0.005250937
32475582,-0.97,0.99,0.08,0.009551137,0.002833547,-0.005723388
32495562,-0.97,0.99,0.08,0.009329302,0.002961256,-0.005880992
32515556,-0.97,0.99,0.08,0.009827942,0.002988144,-0.006275531
32535573,-0.97,0.99,0.08,0.01030685,0.003123529,-0.006411853
32555601,-0.97,0.98,0.08,0.01049586,0.002959303,-0.006512092
32575553,-0.97,0.98,0.08,0.01056238,0.002930646,-0.006508574
32595558,-0.97,0.98,0.08,0.01074542,0.003092963,-0.006927163
32615558,-0.97,0.98,0.08,0.01127375,0.003368968,-0.007079099
32635582,-0.97,0.98,0.08,0.01143494,0.003379208,-0.007213601
32655619,-0.97,0.99,0.08,0.01157165,0.003622697,-0.007460769
32675554,-0.97,0.99,0.08,0.01153813,0.003942934,-0.007978882
32695556,-0.97,0.99,0.08,0.01163478,0.004182683,-0.008312698
32715576,-0.97,0.99,0.08,0.01197634,0.004177458,-0.008651982
32735581,-0.97,0.99,0.08,0.01203905,0.004194126,-0.008742351
32755572,-0.97,0.99,0.08,0.01170853,0.004623383,-0.008763302
32775555,-0.96,0.97,0.08,0.01036737,0.007695826,-0.01879764
32795557,-1.24,0.92,0.2,-0.003788935,0.004612648,0.006556536
32815575,-0.73,0.6,0.37,-0.06737392,-0.002909427,-0.01885087
32835553,-0.87,0.67,0.68,-0.09452295,0.01217445,-0.006920557
32855610,-0.83,0.65,1.0,-0.1135896,0.02542713,-0.01438268
32875554,-0.87,0.67,1.29,-0.1255285,0.04800496,-0.007373939
32895550,-0.86,0.67,1.52,-0.1321844,0.0696054,-0.009334321
32915621,-0.77,0.63,1.61,-0.1558954,0.06608607,-0.01923533
32935560,-0.63,0.54,1.45,-0.1808146,0.06280478,-0.02388555
32955571,-0.62,0.5,1.16,-0.2235797,0.06902903,-0.002195866
32975539,-0.64,0.57,0.9,-0.269703,0.05805124,0.008647871
32995616,-0.68,0.56,0.75,-0.3165285,0.06970501,-0.04661398
33015576,-0.6,0.59,0.73,-0.3572069,0.05214126,0.02367095
33035552,-0.71,0.64,0.85,-0.3754046,0.05660531,-0.06201768
33055577,-0.68,0.58,0.86,-0.4051311,0.05771607,-0.01431514
33075583,-0.42,0.51,0.77,-0.4479677,0.06752779,-0.007672252
33095556,-0.63,0.66,0.66,-0.4898685,0.07070135,0.008099236
33115575,-0.8,0.69,0.68,-0.5607237,0.07239133,-0.02305601
33135565,-0.54,0.59,0.74,-0.5801544,0.08699866,0.00116511
33155620,-0.45,0.64,0.7,-0.60915,0.08625332,-0.002663125
33175554,-0.46,0.86,0.53,-0.6153865,0.0862287,-0.01045024
33195541,-0.66,0.9,0.24,-0.6601253,0.08550227,-0.01491677
33215572,-0.6,0.9,359.92,-0.6649047,0.07185027,-0.009441805
33235585,-0.58,0.93,359.54,-0.6980872,0.06631527,-0.009168006
33255573,-0.55,0.97,359.17,-0.7243884,0.0575543,-0.009345524
33275538,-0.56,1.0,358.75,-0.7494263,0.06027254,-0.006739314
33295567,-0.59,1.0,358.25,-0.7563371,0.0709535,-0.01833787
33315618,-0.58,1.03,357.72,-0.7833115,0.06103145,-0.02238183
33335553,-0.66,1.01,357.12,-0.8082542,0.07041371,-0.01020118
33355596,-0.64,1.01,356.46,-0.819531,0.07527854,-0.02928833
33375540,-0.68,1.02,355.75,-0.8446948,0.08027377,-0.000924026
33395554,-0.61,1.05,354.96,-0.8636016,0.08813503,-0.01965454
33415618,-0.67,1.06,354.09,-0.8749595,0.1002597,-0.0102412
33435553,-0.69,1.06,353.16,-0.8971662,0.1061106,-0.009154629
33455579,-0.69,1.1,352.2,-0.9039654,0.1142019,-0.01278469
33475542,-0.75,1.15,351.19,-0.9112152,0.1378734,-0.02334213
33495571,-0.63,1.15,350.1,-0.9703159,0.1591308,0.006816973
33515605,-0.8,1.21,348.93,-0.9334542,0.1569485,-0.009542225
33535556,-0.8,1.23,347.74,-0.9310467,0.1583087,-0.01622348
33555572,-0.91,1.17,346.48,-0.9385551,0.1893572,-0.04295652
33575545,-0.78,1.15,345.21,-0.9478593,0.1887459,-0.006959112
33595578,-0.83,1.18,343.85,-0.9538032,0.207487,-0.01622001
33615572,-0.96,1.22,342.41,-0.9512901,0.2300939,-0.01751521
33635571,-0.96,1.23,340.91,-0.9498643,0.2435544,-0.01554315
33655574,-0.99,1.24,339.34,-0.9540538,0.2645236,-0.0037434
33675555,-0.94,1.31,337.72,-0.9529252,0.2741472,-0.00842151
33695600,-1.07,1.3,335.96,-0.9520673,0.2967744,-0.003912282
33715574,-1.11,1.26,334.15,-0.9498556,0.2991183,-0.005892652
33735556,-1.31,1.22,332.26,-0.933486,0.3331878,-0.02033978
33755577,-1.2,1.26,330.31,-0.9336922,0.3378726,0.002807303
33775578,-1.23,1.3,328.26,-0.9023666,0.3693436,-0.04147858
33795554,-1.34,1.29,326.19,-0.9051503,0.3908291,-0.01160783
33815572,-1.28,1.36,324.2,-0.8923714,0.4016285,0.005541646
33835567,-1.43,1.28,322.14,-0.8429772,0.4252089,-0.04365002
33855611,-1.36,1.28,320.1,-0.85022,0.4433893,0.008161883
33875540,-1.48,1.28,318.04,-0.8031504,0.465262,-0.04035167
33895554,-1.49,1.27,315.97,-0.7988675,0.477649,-0.0192499
33915591,-1.49,1.29,313.92,-0.7641074,0.4868228,-0.03046973
33935569,-1.5,1.34,311.89,-0.7273061,0.5257384,-0.02095168
33955602,-1.52,1.33,309.91,-0.689583,0.5373996,-0.02976007
33975540,-1.68,1.37,308.12,-0.6730739,0.5562993,-0.02398177
33995560,-1.84,1.25,306.31,-0.6433284,0.5650346,-0.03220705
34015573,-1.67,1.23,304.67,-0.630917,0.5644312,-0.005893838
34035601,-1.65,1.25,302.94,-0.5882693,0.5463107,-0.01699449
34055606,-1.75,1.08,301.4,-0.5890146,0.6160581,-0.02933345
34075541,-1.61,1.13,300.07,-0.5855803,0.6389749,-0.003968
34095556,-1.64,1.02,298.94,-0.5662018,0.6790603,-0.027496
34115607,-1.74,1.07,297.98,-0.5397965,0.7231628,-0.01447577
34135556,-1.65,1.04,297.16,-0.5146751,0.7625015,-0.01545217
34155572,-1.74,1.05,296.49,-0.4915086,0.7892336,-0.01452379
34175540,-1.69,1.07,295.94,-0.4573509,0.8329989,-0.02875367
34195562,-1.73,1.03,295.57,-0.4393219,0.8692142,-0.019598
34215587,-1.69,1.07,295.41,-0.4436567,0.9242495,-0.01478749
34235557,-1.69,1.08,295.53,-0.4248896,0.970292,-0.02707353
34255569,-1.71,1.11,295.76,-0.4358553,0.9765932,-0.003239572
34275554,-1.7,1.17,296.04,-0.4256472,0.9930823,-0.01944113
34295579,-1.54,1.32,296.26,-0.4241494,0.9644585,-0.01674012
34315606,-1.73,1.44,296.32,-0.4258037,0.9647763,-0.004039196
34335554,-1.62,1.46,296.39,-0.4263655,0.9633673,-0.02021706
34355569,-1.65,1.54,296.54,-0.4289876,0.9472739,-0.01107585
34375573,-1.76,1.43,296.65,-0.4284719,0.9386494,-0.03491342
34395584,-1.79,1.48,296.81,-0.4210069,0.9406121,-0.00683389
34415575,-1.71,1.48,296.96,-0.4132524,0.9230193,-0.02346071
34435561,-1.86,1.51,297.04,-0.4185943,0.9159356,-0.009443445
34455567,-1.71,1.57,297.21,-0.4221657,0.9227273,-0.007070075
34475579,-1.88,1.53,297.37,-0.4218936,0.9114035,-0.01601962
34495570,-1.87,1.52,297.54,-0.4162996,0.9013296,-0.0147632
34515599,-1.9,1.56,297.68,-0.4103391,0.9008142,-0.01455238
34535557,-1.86,1.56,297.8,-0.3994239,0.8848337,-0.01500726
34555557,-1.87,1.57,297.92,-0.4086786,0.8911151,-0.01390259
34575574,-1.97,1.61,298.04,-0.390006,0.8517185,-0.02418443
34595585,-1.8,1.61,298.21,-0.4014914,0.872344,-0.01206922
34615574,-1.9,1.61,298.33,-0.3948404,0.8575122,-0.01144752
34635540,-1.9,1.6,298.44,-0.3763684,0.8389823,-0.02558846
34655612,-1.85,1.53,298.57,-0.3854223,0.8429548,-0.01336212
34675556,-1.88,1.53,298.7,-0.3824188,0.822847,-0.01925808
34695554,-1.93,1.47,298.81,-0.3775589,0.8089126,-0.0246621
34715582,-1.93,1.44,298.92,-0.3729499,0.7994812,-0.01291351
34735558,-1.94,1.42,299.02,-0.3706962,0.8022729,-0.01309983
34755627,-1.91,1.45,299.14,-0.3630489,0.7789527,-0.01050167
34775559,-1.92,1.42,299.26,-0.3609118,0.7757125,-0.022065
34795554,-1.93,1.41,299.33,-0.3578126,0.768679,-0.01494134
34815578,-1.94,1.4,299.41,-0.3614543,0.7643027,-0.006453969
34835572,-1.94,1.39,299.5,-0.347337,0.7528169,-0.01933521
34855582,-1.97,1.44,299.6,-0.3509636,0.7499469,-0.01150614
34875563,-1.95,1.43,299.71,-0.3459566,0.7468182,-0.01399705
34895562,-1.95,1.4,299.78,-0.3301271,0.7140114,-0.0226523
34915602,-1.92,1.4,299.89,-0.3394855,0.7244685,-0.01784991
34935540,-1.93,1.38,300.0,-0.321006,0.7020292,-0.02968055
34955572,-1.86,1.35,300.12,-0.3159783,0.7079982,-0.01358359
34975557,-1.94,1.32,300.2,-0.3211005,0.6847111,-0.02205119
34995555,-1.99,1.3,300.23,-0.3206415,0.6862722,-0.008439354
35015601,-1.99,1.27,300.32,-0.3136599,0.6738176,-0.02410721
35035540,-2.05,1.31,300.4,-0.3008026,0.6305778,-0.02604295
35055575,-2.14,1.35,300.36,-0.2721339,0.6216906,-0.008421075
35075557,-1.9,1.05,300.28,-0.2812081,0.617505,-0.06293838
35095590,-1.98,1.01,300.54,-0.3152675,0.6664154,-0.02724615
35115614,-1.78,0.94,300.94,-0.3292949,0.6923121,-0.01879206
35135539,-1.78,0.92,301.5,-0.3402553,0.7355284,-0.04582057
35155584,-1.91,0.96,302.19,-0.3361299,0.7728419,0.0001873965
35175584,-1.8,0.91,302.92,-0.3569485,0.8131861,-0.03298485
35195555,-1.88,0.9,303.78,-0.3751686,0.8533446,-0.03393551
35215573,-1.86,0.95,304.73,-0.3855962,0.8927565,-0.01888148
35235543,-1.75,0.91,305.81,-0.4126439,0.9358178,-0.01204692
35255616,-1.83,0.96,307.08,-0.4265257,0.9682212,-0.0422154
35275556,-1.68,0.85,308.52,-0.4431184,1.007713,-0.03885215
35295568,-1.81,0.84,310.1,-0.4757728,1.066497,-0.02494184
35315564,-1.8,0.85,311.87,-0.493397,1.082717,-0.02919389
35335569,-1.89,0.9,313.72,-0.5185277,1.11611,-0.02274621
35355576,-1.9,0.9,315.7,-0.5435473,1.129242,-0.02566288
35375540,-1.93,0.94,317.8,-0.5830919,1.134968,-0.01744193
35395560,-1.87,0.95,320.07,-0.6154132,1.133481,-0.01294083
35415609,-1.94,1.13,322.47,-0.6361903,1.124679,0.01294859
35435546,-1.91,1.11,324.79,-0.6420693,1.077137,-0.04424543
35455580,-2.01,1.21,327.1,-0.6603304,1.039122,-0.01714357
35475577,-1.94,1.13,329.36,-0.6854969,0.970787,-0.0575144
35495566,-1.97,1.28,331.62,-0.7088675,0.9276337,-0.03027736
35515612,-1.99,1.31,333.81,-0.7092609,0.8829854,-0.03153123
35535556,-1.98,1.31,335.78,-0.7099829,0.8331627,-0.04854388
35555574,-1.99,1.31,337.58,-0.7103477,0.8120406,-0.02425294
35575565,-1.89,1.34,339.36,-0.7077589,0.7744877,-0.03360368
35595547,-1.97,1.4,341.19,-0.714494,0.7471172,-0.01717323
35615574,-1.95,1.36,342.98,-0.7215219,0.7020963,-0.04307536
35635561,-1.93,1.42,344.78,-0.7005376,0.6786576,-0.02863689
35655592,-1.86,1.39,346.52,-0.7083282,0.657056,-0.02665134
35675554,-1.84,1.45,348.19,-0.705986,0.6418304,-0.01724566
35695539,-1.73,1.42,349.81,-0.6951911,0.6103687,-0.030556
35715589,-1.75,1.51,351.45,-0.6914946,0.5819051,-0.01506598
35735587,-1.62,1.49,353.05,-0.6821991,0.5548689,-0.0290354
35755583,-1.73,1.62,354.56,-0.6541588,0.5039341,-0.03698254
35775557,-1.57,1.56,355.83,-0.6456168,0.4672679,-0.02700818
35795541,-1.57,1.57,356.89,-0.6258699,0.4200351,-0.03155989
35815625,-1.62,1.51,357.75,-0.6016697,0.3935717,-0.02682748
35835554,-1.56,1.47,358.46,-0.5944703,0.3744329,-0.03173194
35855581,-1.56,1.48,359.14,-0.5779395,0.3609525,-0.02393282
35875555,-1.51,1.48,359.75,-0.5615668,0.344149,-0.0283024
35895563,-1.48,1.45,0.26,-0.545528,0.3325482,-0.03143387
35915583,-1.49,1.48,0.69,-0.5272053,0.3117835,-0.02619108
35935554,-1.46,1.46,1.08,-0.5137612,0.2936783,-0.03245374
35955579,-1.47,1.48,1.35,-0.4980503,0.2855009,-0.02608799
35975574,-1.46,1.51,1.53,-0.4870611,0.2623577,-0.02254594
35995569,-1.46,1.51,1.64,-0.4688155,0.2508582,-0.02903479
36015574,-1.46,1.51,1.7,-0.4618872,0.2559108,-0.02271002
36035553,-1.45,1.51,1.76,-0.4464436,0.2555308,-0.02571261
36055579,-1.46,1.5,1.83,-0.4439152,0.2444686,-0.02400994
36075567,-1.45,1.51,1.9,-0.4396846,0.2508139,-0.01878078
36095539,-1.45,1.53,1.97,-0.4251726,0.2481023,-0.02765864
36115577,-1.44,1.56,2.03,-0.4148142,0.2444074,-0.01741027
36135554,-1.43,1.53,2.1,-0.4120883,0.2392312,-0.02539255
36155579,-1.47,1.5,2.15,-0.3948266,0.2396961,-0.03006966
36175569,-1.52,1.49,2.22,-0.3955767,0.2399849,-0.01610902
36195553,-1.45,1.48,2.35,-0.3795637,0.2352907,-0.02178725
36215572,-1.53,1.48,2.41,-0.3556955,0.2311854,-0.02957546
36235539,-1.52,1.51,2.45,-0.3621888,0.2273745,-0.01297302
36255616,-1.47,1.49,2.51,-0.3573298,0.2310408,-0.02118784
36275554,-1.49,1.49,2.55,-0.3413172,0.2270335,-0.02096363
36295539,-1.49,1.48,2.6,-0.3243649,0.2250672,-0.02552479
