TimeUS,GyrX,GyrY,GyrZ,AccX,AccY,AccZ
16896873,0.00105668,-0.0006750291,0.0004400752,-0.1336792,-0.1244566,-9.788271
16916303,0.001344703,-0.000632529,0.0005898844,-0.1301688,-0.1292048,-9.788428
16936238,0.001603738,-0.0007781014,0.0005449512,-0.1261414,-0.1315615,-9.793701
16956290,0.001269048,-0.0007186256,0.0005292206,-0.1327264,-0.1353672,-9.795585
16976189,0.0006991493,-0.0006619368,0.0004492141,-0.1353475,-0.1382222,-9.789348
16996564,0.0006319762,-0.0009487676,0.0003875283,-0.1217359,-0.1339498,-9.774875
17016459,0.0007641635,-0.001456968,0.0002471069,-0.1277008,-0.1356724,-9.781838
17036228,0.0004775773,-0.001747599,-6.134935e-05,-0.1355199,-0.1405279,-9.79578
17056272,0.0002104693,-0.001924863,-0.0002597221,-0.1383459,-0.1358978,-9.791782
17076188,0.0003920773,-0.001794858,-0.0002871849,-0.14115,-0.127298,-9.781162
17096577,0.0003786991,-0.001096047,-1.924988e-05,-0.1328499,-0.137375,-9.772864
17116265,0.0004878903,-0.0005632773,0.0004039753,-0.126164,-0.1412609,-9.783571
17136225,0.0003825403,-9.077394e-05,0.0006501802,-0.1336653,-0.1326835,-9.782122
17156242,0.0002224032,-0.0001266663,0.0007618928,-0.1414947,-0.1255202,-9.782579
17176374,0.0002278985,-7.573484e-05,0.000564213,-0.1390363,-0.128225,-9.780173
17196618,0.0001031295,-0.0004642701,0.0003021252,-0.1336317,-0.1348649,-9.780646
17216219,-0.0001843852,-0.0007773685,4.157265e-05,-0.1273435,-0.1330628,-9.776293
17236229,4.312187e-06,-0.001118632,5.965018e-05,-0.1273928,-0.1273219,-9.780012
17256282,0.0003262077,-0.001653463,0.0001738263,-0.1363084,-0.1328983,-9.788134
17276194,0.0005152228,-0.002238694,0.0005346216,-0.1410295,-0.135535,-9.784002
17296585,0.0006686741,-0.002354854,0.0005307281,-0.1371854,-0.1236732,-9.791301
17316225,0.000776829,-0.002039311,0.0003734339,-0.1308567,-0.1239735,-9.779936
17336387,0.0007984216,-0.00208153,0.0002499971,-0.1312412,-0.1292751,-9.778345
17356294,0.001026917,-0.002091,5.2614e-05,-0.13353,-0.1311106,-9.792194
17376197,0.001212339,-0.002045352,1.77389e-05,-0.138073,-0.1315962,-9.789632
17396615,0.001188104,-0.001686101,6.13632e-05,-0.1300901,-0.1234949,-9.781657
17416272,0.001100092,-0.001603005,0.0001333503,-0.1156229,-0.1274459,-9.776146
17436279,0.001096593,-0.001534169,0.0001878529,-0.1236969,-0.1310763,-9.779088
17456237,0.00123825,-0.001268844,0.0002871288,-0.1364728,-0.1267276,-9.790493
17476206,0.001333431,-0.00120847,0.0003671774,-0.1495751,-0.131389,-9.789175
17496805,0.001446545,-0.001064011,0.0003181307,-0.1449581,-0.1313114,-9.778539
17516246,0.00118997,-0.0006192626,0.0002468869,-0.1317349,-0.1195727,-9.77048
17536197,0.0009718929,-0.0005938559,0.0002241653,-0.1310697,-0.1227044,-9.777494
17556233,0.0008013623,-0.0001681931,0.0002827215,-0.125476,-0.1284815,-9.79265
17576224,0.000960835,2.030555e-05,0.0001588144,-0.1209992,-0.1280205,-9.782055
17596557,0.001063555,0.0005828533,-0.0001534478,-0.1343248,-0.1320431,-9.784009
17616277,0.000954028,0.0007484501,-9.723737e-05,-0.1421369,-0.1336691,-9.794771
17636243,0.0007980265,0.0002643396,0.0001034253,-0.1374827,-0.1241728,-9.797697
17656459,0.0008883538,-0.0006515451,0.0003646013,-0.1312228,-0.1163737,-9.796242
17676226,0.0009884785,-0.001037254,0.0003853095,-0.1254343,-0.1107678,-9.786116
17696646,0.001003334,-0.001145417,7.691328e-05,-0.1262691,-0.1139311,-9.784864
17716261,0.0009027467,-0.001489174,-0.0003906531,-0.1278259,-0.1253203,-9.787868
17736237,0.00116898,-0.001900054,-0.0006249512,-0.1456362,-0.1337382,-9.77759
17756266,0.001164053,-0.001883048,-0.0005594217,-0.1458716,-0.1316379,-9.778297
17776216,0.001114172,-0.001478495,-0.0002303384,-0.1470308,-0.1395111,-9.785408
17796651,0.0007398146,-0.000763124,0.0001746248,-0.1323294,-0.1309798,-9.797917
17816489,0.000435383,-0.0002528943,0.0003663122,-0.1049367,-0.1198793,-9.794297
17836285,6.032259e-06,0.0002394054,7.616787e-05,-0.1133172,-0.1227052,-9.783804
17856356,-0.0001718146,0.0006872841,-0.0003395276,-0.1240465,-0.1356689,-9.779302
17876239,-0.0003533533,0.0005034637,-0.0005349506,-0.1245767,-0.1296323,-9.783645
17896634,-0.0003415616,-0.0001089197,-0.0006434589,-0.1166944,-0.1298386,-9.780329
17916310,-0.0004073046,-0.0004239756,-0.0003691605,-0.1220541,-0.138508,-9.777043
17936229,-0.0003399926,-0.0010675,0.0003292332,-0.1299091,-0.1432675,-9.779909
17956272,-0.0001390581,-0.001547028,0.001108654,-0.1381796,-0.1389051,-9.786209
17976443,0.0002594366,-0.001930217,0.00192887,-0.1357492,-0.1323337,-9.79163
17996650,0.0005432219,-0.001921487,0.002718791,-0.1216886,-0.1228271,-9.794879
18016239,0.0008756552,-0.001660734,0.003093744,-0.1157287,-0.1260241,-9.787928
18036220,0.001375548,-0.00141801,0.003085464,-0.1162142,-0.1477799,-9.788052
18056277,0.001698955,-0.0008629284,0.003207584,-0.1302947,-0.1378111,-9.796349
18076226,0.001335917,-0.000857103,0.002773047,-0.1292596,-0.09529871,-9.804791
18096582,0.0008711032,-0.0006309407,0.001243776,-0.1297663,-0.0771791,-9.800024
18116263,0.000846061,-0.001240432,-0.0008876701,-0.1695877,-0.1326846,-9.786766
18136431,0.001256395,-0.001366431,-0.00143383,-0.1902965,-0.1972681,-9.782598
18156291,0.001451383,-0.0007903776,-7.68648e-05,-0.1684568,-0.1449141,-9.792645
18176249,0.001127018,-0.0003092338,0.0003934818,-0.1232488,-0.0740639,-9.798435
18196593,0.0003670373,-0.0002121106,-0.0008887617,-0.1014564,-0.1238021,-9.78296
18216225,0.0001425395,-6.98806e-05,-0.001315029,-0.07677227,-0.1737509,-9.775961
18236211,8.901125e-05,-0.000262846,-0.0008139302,-0.08369241,-0.1096591,-9.789817
18256284,0.0002161485,-0.0003781407,-0.0008414944,-0.1446367,-0.1136283,-9.794141
18276260,0.0003929231,-0.0004982117,-0.0004276079,-0.2037249,-0.1597767,-9.778564
18296822,0.0005084079,-0.000487089,0.0006373684,-0.1861441,-0.1285237,-9.780337
18316274,0.0004555931,-0.0005544408,0.000982263,-0.1101395,-0.1162317,-9.787014
18336287,0.0002584628,-0.000186753,0.0009715571,-0.07642906,-0.1307601,-9.782089
18356276,0.0003347703,-0.0002763846,0.0009941809,-0.07993533,-0.1398256,-9.787008
18376245,0.0006592728,-0.001053437,0.0007252457,-0.1069037,-0.125724,-9.786315
18396647,0.000779421,-0.001102882,-7.786803e-05,-0.1662807,-0.1315666,-9.789835
18416285,0.000596386,-0.0008128622,-0.0004602525,-0.1929114,-0.1438613,-9.783635
18436207,0.0003811059,-0.0006695384,-0.0002767497,-0.1518519,-0.1327755,-9.779737
18456490,9.719648e-05,-0.0005349201,1.904731e-05,-0.10931,-0.1370191,-9.785362
18476269,-0.0001931171,-0.0007584966,0.0002415215,-0.1032224,-0.1512465,-9.797527
18496620,-0.0003448453,-0.0003887983,0.000437983,-0.1131333,-0.1500825,-9.799937
18516278,-0.0003753398,-0.0001995358,0.0003981431,-0.1324996,-0.1358836,-9.781012
18536227,-0.0004565622,-6.596751e-05,4.316365e-06,-0.1583063,-0.1363759,-9.781396
18556273,-0.0005122704,1.806252e-07,8.638994e-06,-0.1585779,-0.1440182,-9.781451
18576287,-0.0004089123,-2.568711e-05,0.0002803468,-0.1267464,-0.1371084,-9.789707
18596611,-0.0001123273,-0.000280992,0.000197916,-0.1132057,-0.1291028,-9.796206
18616476,0.0003868253,-0.0004530038,2.222026e-06,-0.120654,-0.137139,-9.791083
18636246,0.000440255,-0.0003161995,-2.835036e-05,-0.1270761,-0.1280645,-9.788966
18656275,0.0003840291,-2.134102e-05,0.0001194766,-0.1239438,-0.1220741,-9.783879
18676262,0.000243167,-5.77162e-05,0.0003449096,-0.1322241,-0.1387731,-9.782722
18696650,-0.0001177539,0.0001916317,0.0006210331,-0.1293064,-0.1462172,-9.78555
18716271,-0.0002434313,0.0001908485,0.0007410972,-0.125335,-0.1311369,-9.78722
18736252,-0.0004502771,-2.851358e-05,0.0004659297,-0.1390694,-0.1325709,-9.791037
18756308,-0.0004135375,-0.0002538954,0.0004719402,-0.1455354,-0.1407274,-9.801559
18776459,-0.0002964335,-0.0002583863,0.0007024634,-0.1383252,-0.1351223,-9.790048
18796569,0.0001728507,-0.0003183372,0.0007643339,-0.126923,-0.1290694,-9.789865
18816251,0.000377118,-0.0003912954,0.000576203,-0.1347201,-0.1400274,-9.792558
18836231,-0.0002710306,-1.585641e-05,0.0007706056,-0.1322101,-0.1469252,-9.792894
18856271,-0.0005544384,-0.0001579851,0.0008364957,-0.121449,-0.1399655,-9.791955
18876280,-0.0006899574,-0.0004881416,0.0007793721,-0.11873,-0.1408819,-9.788323
18896610,-0.0004380008,-0.0009917405,0.0004171918,-0.1242613,-0.1535507,-9.792018
18916335,0.0001010648,-0.001503387,0.0001809529,-0.117936,-0.1455575,-9.801141
18936476,0.000648064,-0.001789498,0.0001770316,-0.1142135,-0.136634,-9.788218
18956273,0.000808164,-0.001474522,0.0001512188,-0.121991,-0.1392625,-9.792324
18976243,0.0007774354,-0.001329198,0.0001298874,-0.1337765,-0.1416221,-9.793804
18996611,0.0004817183,-0.001039801,-1.854121e-05,-0.1395147,-0.132507,-9.791856
19016263,0.0002340193,-0.0009252132,0.0002283374,-0.1445787,-0.129892,-9.791338
19036250,0.0001137595,-0.00104644,0.0003659776,-0.1521663,-0.1344718,-9.794595
19056292,0.0001059925,-0.001347576,0.0004439759,-0.139351,-0.1408808,-9.791031
19076236,0.0005188133,-0.001225975,0.0002071566,-0.12533,-0.1410533,-9.796515
19096797,0.0006476595,-0.001171221,-6.295629e-05,-0.1211895,-0.1300076,-9.791177
19116253,0.0008812183,-0.001488481,-0.0003561114,-0.1354945,-0.1409237,-9.783579
19136249,0.001124795,-0.001768365,-0.0002739702,-0.1476066,-0.1435873,-9.786022
19156328,0.001229405,-0.00164649,-3.626843e-06,-0.1364005,-0.1336676,-9.794145
19176254,0.001206912,-0.001722614,0.0002052045,-0.1255862,-0.1278941,-9.790048
19196629,0.001009967,-0.001437722,1.160139e-06,-0.114655,-0.1244663,-9.780433
19216268,0.001147265,-0.0007062826,-0.0003294444,-0.1215372,-0.1340956,-9.777498
19236253,0.001304437,-0.0004677078,-0.000395265,-0.125623,-0.1358755,-9.781493
19256489,0.001401673,-0.0003953964,-0.0001251431,-0.1203008,-0.1270555,-9.785328
19276240,0.001249777,-0.0002080514,0.0002400056,-0.1224465,-0.1182768,-9.79495
19296644,0.0009094633,-7.897382e-05,0.000318934,-0.1351313,-0.1256087,-9.78214
19316252,0.0004900762,8.804835e-05,0.000450394,-0.1374988,-0.1347238,-9.77385
19336241,3.127091e-05,0.0004189453,0.000599492,-0.1117173,-0.1458238,-9.7769
19356291,-0.000400699,0.0007566691,0.0004683368,-0.1033367,-0.1425992,-9.789618
19376239,-0.0003902491,0.0008223353,0.0003902761,-0.09703901,-0.148823,-9.792623
19396588,-0.0002061337,0.0003017763,0.0003708237,-0.109809,-0.1369653,-9.787527
19416477,-0.0001448686,0.0001109862,0.0002938776,-0.1301213,-0.1161311,-9.780932
19436245,-0.0001460921,-0.0003727307,-4.096002e-05,-0.1395593,-0.1296075,-9.77916
19456273,-6.589987e-05,-0.0008432715,-0.000253837,-0.1492977,-0.1403714,-9.790949
19476239,-0.0002348799,-0.0007744061,-7.884583e-05,-0.1432183,-0.1381713,-9.795764
19496615,-0.0003970077,-0.001119301,5.512782e-05,-0.1347156,-0.1280205,-9.797291
19516258,-0.0004352182,-0.001466379,0.0001027431,-0.1247699,-0.1230175,-9.791733
19536237,-0.0003203615,-0.001918335,0.0003323207,-0.1289077,-0.1263668,-9.783152
19556274,6.642228e-05,-0.002063331,0.0005539068,-0.1311001,-0.1348655,-9.786412
19576424,0.0005014737,-0.001926634,0.0004145312,-0.1251971,-0.1452214,-9.779969
19596648,0.0006227926,-0.00155768,0.0003431533,-0.1229426,-0.1483094,-9.787644
19616225,0.0007071906,-0.0009425844,0.0004535523,-0.1234068,-0.1354598,-9.796763
19636256,0.0007274989,-3.923118e-05,0.0002932851,-0.1156391,-0.1318894,-9.792945
19656278,0.0005730591,0.0006053623,6.136398e-05,-0.1246646,-0.1241202,-9.784842
19676191,2.624597e-06,0.001035779,0.0001609384,-0.1398493,-0.1274056,-9.773272
19696611,-0.0001831726,0.0003858155,0.000121993,-0.1302411,-0.136886,-9.767926
19716255,-0.0001671304,-0.000693625,8.573473e-05,-0.1121112,-0.1354285,-9.768889
19736409,0.0001720691,-0.001640575,-8.349511e-05,-0.1148791,-0.1373458,-9.772225
19756315,0.0004918123,-0.002010043,-0.0002567637,-0.1346663,-0.1286326,-9.771876
19776221,0.0008377809,-0.002158549,-0.0003981212,-0.1486047,-0.1351856,-9.77145
19796613,0.001065196,-0.001855536,-0.0005067203,-0.1485685,-0.1340175,-9.783501
19816273,0.001247429,-0.00145647,-0.0003145566,-0.1282315,-0.1424131,-9.786926
19836250,0.001513695,-0.001233602,-0.0001490868,-0.114578,-0.1351715,-9.798983
19856328,0.001468326,-0.001497718,-4.962811e-05,-0.1143129,-0.1398339,-9.789705
19876241,0.001173573,-0.001464466,6.118083e-05,-0.127876,-0.1378726,-9.784375
19896814,0.0009296536,-0.001488207,0.0001680726,-0.1369342,-0.1291692,-9.786412
19916292,0.0006196901,-0.001033941,4.455429e-05,-0.1539591,-0.1247506,-9.789146
19936221,0.0004762275,-0.0007232946,6.336203e-06,-0.1500272,-0.1337285,-9.779603
19956308,0.0003020257,-0.000630981,-5.552727e-05,-0.1381865,-0.1261625,-9.77878
19976254,0.0002167449,-0.0004043337,-2.03188e-05,-0.1211022,-0.128543,-9.783161
19996613,0.0002425823,-0.0005495434,0.0001003911,-0.1209728,-0.127283,-9.777605
20016227,0.0002603206,-0.0002364329,0.0003992747,-0.1139356,-0.1316069,-9.773343
20036246,0.0003846218,-0.0002949016,0.0005498009,-0.1110849,-0.1349161,-9.775701
20056498,0.0001939009,-0.0001238401,0.000481481,-0.1237873,-0.1287383,-9.782333
20076265,-5.257482e-05,-6.652597e-05,0.0002749636,-0.1448897,-0.1327915,-9.783249
20096624,-0.0002188053,-0.0002759862,6.387843e-05,-0.1502993,-0.1306665,-9.782081
20116243,-0.0001017618,-0.001004567,6.749156e-05,-0.1460468,-0.1296911,-9.782023
20136242,0.0001897942,-0.001543102,-3.766389e-06,-0.1261135,-0.1424521,-9.780965
20156290,1.367811e-05,-0.001768667,-0.0001593811,-0.1189473,-0.1417375,-9.787636
20176256,-9.907767e-05,-0.001947863,-0.0003357472,-0.1293799,-0.12837,-9.787131
20196656,-0.0002258735,-0.002137227,-0.0003489688,-0.1400634,-0.1208257,-9.785175
20216482,0.004438539,-0.004915535,-0.0003921886,-0.1408998,-0.108957,-9.77502
20236249,0.01258259,-0.01027954,-0.0005217455,-0.1374335,-0.1175944,-9.751583
20256311,0.02235423,-0.01691834,-0.0007942248,-0.1556836,-0.1417638,-9.781513
20276228,0.02902519,-0.02156933,-0.001229207,-0.1600893,-0.1565877,-9.804068
20296713,0.0344307,-0.02531632,-0.001458427,-0.1564499,-0.1644544,-9.786087
20316275,0.03822765,-0.02778015,-0.001602193,-0.1548193,-0.1703439,-9.786931
20336250,0.03892309,-0.02833296,-0.001650028,-0.1668505,-0.1850987,-9.786001
20356336,0.03687513,-0.02711745,-0.001577423,-0.1833812,-0.1841152,-9.781794
20376451,0.03403192,-0.02546818,-0.001465566,-0.1755825,-0.1858334,-9.771379
20396671,0.0332403,-0.02487334,-0.001470953,-0.1642177,-0.1811568,-9.772558
20416262,0.02975733,-0.02225601,-0.001114974,-0.1747824,-0.2154446,-9.819384
20436212,0.0232691,-0.01767139,-0.0008400415,-0.1830301,-0.2008872,-9.784551
20456284,0.01718471,-0.01360271,-0.0005021344,-0.1820687,-0.2158611,-9.801176
20476249,0.01194518,-0.009795936,-0.0001899293,-0.1868638,-0.2033705,-9.783066
20496654,0.007583847,-0.006704953,-8.58132e-05,-0.2076946,-0.1973429,-9.779496
20516241,0.004840576,-0.004545386,-0.0004006928,-0.2382446,-0.1982417,-9.778899
20536464,0.002452821,-0.002694899,-0.0003565916,-0.2331626,-0.1977279,-9.772994
20556282,0.001237639,-0.001612335,-0.0001531599,-0.1940037,-0.202658,-9.792255
20576275,0.0002571548,-0.0008477014,1.663511e-05,-0.1567058,-0.1989952,-9.783203
20596624,-5.555352e-06,-0.0005560139,0.0002077257,-0.1511302,-0.200359,-9.783438
20616223,-0.0001370573,-0.0007241962,0.0004675204,-0.1734683,-0.1975017,-9.785601
20636249,-0.0008498872,-0.00103973,0.0005472267,-0.2082394,-0.1905176,-9.78973
20656274,-0.002073252,-0.0005858263,0.0006325651,-0.25284,-0.1997053,-9.796724
20676279,-0.00561611,0.001982688,0.0008562805,-0.2549098,-0.2100395,-9.805752
20696880,-0.01245356,0.006688068,0.0007835824,-0.2111081,-0.1942101,-9.796466
20716238,-0.01626519,0.009286733,0.0004939141,-0.1598026,-0.1778471,-9.760424
20736263,-0.01234652,0.007079849,0.000105914,-0.1360418,-0.172122,-9.750793
20756290,-0.003947108,0.001422104,-0.0001144841,-0.160884,-0.1829007,-9.771306
20776221,0.001586449,-0.002541848,-0.0003144566,-0.2012647,-0.2008231,-9.802926
20796615,0.001315318,-0.002714829,-0.0002392483,-0.2324262,-0.2028464,-9.800503
20816255,-0.0007458323,-0.001456889,0.0002045155,-0.2323565,-0.190478,-9.770925
20836247,-0.001419477,-0.00119847,0.000470736,-0.1863251,-0.1786293,-9.772665
20856480,-0.0002700983,-0.001872977,0.0004332801,-0.1636304,-0.1864637,-9.779993
20876250,0.001495148,-0.002626326,0.0002671148,-0.1601472,-0.2003641,-9.786071
20896584,0.002208434,-0.002839302,0.0001272816,-0.1810407,-0.1965431,-9.791829
20916263,0.001226496,-0.001880297,2.443764e-05,-0.1943887,-0.1995878,-9.777041
20936224,0.0004009877,-0.000997578,-5.829715e-05,-0.1946893,-0.2029468,-9.775423
20956267,0.0009261518,-0.0008259786,1.437767e-05,-0.1823824,-0.1955372,-9.779409
20976246,0.002351449,-0.00136664,2.651072e-05,-0.1754054,-0.1972173,-9.775651
20996626,0.002410512,-0.001710198,-6.632571e-05,-0.1812274,-0.2006568,-9.784966
21016477,0.001011641,-0.001273829,-7.161274e-05,-0.1936175,-0.1938739,-9.779806
21036280,-0.0004496672,-0.0007995955,-5.496242e-05,-0.2031856,-0.1837479,-9.769691
21056310,0.0004655212,-0.00134686,-0.0002030353,-0.1921053,-0.172776,-9.742692
21076224,0.01049269,-0.007507789,-0.0001222869,-0.2097615,-0.189942,-9.811159
21096691,0.01302934,-0.009694781,-9.473486e-05,-0.1951291,-0.1819956,-9.785989
21116256,0.01190465,-0.009428226,-0.0001144241,-0.1957948,-0.1993657,-9.779871
21136262,0.009254786,-0.007892964,-6.594773e-05,-0.2043659,-0.209008,-9.788677
21156324,0.006120374,-0.005894656,8.966935e-05,-0.1891577,-0.2217836,-9.780581
21176451,0.003610365,-0.004365589,0.0001499461,-0.2116825,-0.2135109,-9.78102
21196627,0.002593497,-0.003407377,0.0002438836,-0.227077,-0.2080165,-9.794396
21216275,0.002654594,-0.002879566,0.0003051784,-0.208738,-0.1984846,-9.782181
21236217,0.00311123,-0.002625639,0.0004091728,-0.1776983,-0.2056787,-9.783765
21256309,0.003180922,-0.002450562,0.0001393482,-0.1617234,-0.2246277,-9.788564
21276237,0.002473776,-0.002449197,-1.729831e-05,-0.1699996,-0.2249283,-9.789001
21296589,0.001385531,-0.00221926,-0.0001569591,-0.1884819,-0.2179939,-9.78687
21316285,0.0006208347,-0.001620474,-0.0003311214,-0.2044877,-0.2070643,-9.783154
21336446,0.0002777787,-0.00155098,-0.0003958037,-0.2147435,-0.2042698,-9.776616
21356299,0.0002527812,-0.001511403,-0.0004264015,-0.2047949,-0.2083375,-9.776395
21376230,0.0002139157,-0.0015265,-0.0001757354,-0.1983973,-0.2104571,-9.785227
21396604,0.0001842477,-0.001629939,5.712377e-05,-0.1966206,-0.2153443,-9.797256
21416320,0.0004198909,-0.001961649,0.000243793,-0.191014,-0.2016363,-9.805531
21436252,0.0006064482,-0.001701918,0.0003696339,-0.1895473,-0.1977379,-9.790533
21456276,0.0009732003,-0.001156291,0.0003501309,-0.1969149,-0.2059785,-9.789849
21476233,0.001124367,-0.0006982482,0.0004645529,-0.2014738,-0.2163154,-9.795199
21496854,0.0009548093,-0.0002485309,0.0006191439,-0.1920625,-0.2101754,-9.797471
21516255,0.0002315231,-8.777389e-05,0.0005422126,-0.1868418,-0.214884,-9.80031
21536250,-0.0003558019,-0.0001699674,0.000377596,-0.1869154,-0.2134169,-9.793566
21556280,-0.0002498865,-0.0005916784,0.000232264,-0.2001911,-0.2105621,-9.784517
21576245,6.449225e-05,-0.001503592,4.458122e-05,-0.210148,-0.2137574,-9.787247
21596610,0.0003618409,-0.001675493,5.418934e-05,-0.2092443,-0.21728,-9.779794
21616254,0.0007713873,-0.0012375,-2.495265e-06,-0.1979162,-0.2070515,-9.775371
21636248,0.001092946,-0.0005201346,0.0001301417,-0.190286,-0.2057078,-9.77275
21656521,0.001176877,0.0003931412,0.0003179564,-0.1825716,-0.1987476,-9.780507
21676206,0.00101054,0.0005497785,0.0004102462,-0.161394,-0.2014772,-9.791587
21696570,0.0004215596,0.0006018798,0.0005624028,-0.1545809,-0.2078745,-9.78949
21716259,0.0001944117,0.0005648283,0.0006931653,-0.168601,-0.219427,-9.78753
21736244,0.0003230551,-0.000239102,0.0006698934,-0.212879,-0.2152741,-9.78063
21756270,0.00101262,-0.000977189,0.0004748441,-0.2385801,-0.2080061,-9.782085
21776259,0.001778695,-0.001557945,0.0003650151,-0.2240283,-0.2128985,-9.788876
21796658,0.002174844,-0.00182576,0.0002660109,-0.1935608,-0.21665,-9.791684
21816505,0.00262421,-0.002428752,1.592897e-05,-0.175493,-0.2238518,-9.791482
21836255,0.002394388,-0.002746297,2.925069e-05,-0.1923889,-0.2302039,-9.786016
21856306,0.001709766,-0.002670328,7.373787e-05,-0.2338997,-0.2168186,-9.7958
21876215,0.001365404,-0.00254799,0.000281446,-0.2387372,-0.216777,-9.789461
21896668,0.0008567941,-0.001913127,0.0004011661,-0.2228898,-0.2200432,-9.781224
21916278,0.0004132167,-0.001596657,0.0005576658,-0.2058381,-0.2269069,-9.784754
21936270,-0.0004573289,-0.00135344,0.0009417874,-0.1997399,-0.22169,-9.790707
21956287,-0.0006497482,-0.001405654,0.001053485,-0.1664679,-0.2163785,-9.793861
21976451,-0.0006469761,-0.00107651,0.0008427539,-0.1410368,-0.2186509,-9.775292
21996562,-8.075585e-05,-0.001465143,0.0004586279,-0.1649162,-0.2262564,-9.779352
22016265,0.0002634426,-0.001635964,0.000144255,-0.2029357,-0.2217312,-9.769355
22036230,0.000510781,-0.001311303,-9.567365e-05,-0.2227474,-0.2124208,-9.778015
22056323,-0.0001348543,-0.001082117,-0.0002861129,-0.2137514,-0.2174528,-9.796733
22076207,-0.001262839,-0.0005187644,-0.000412554,-0.194086,-0.2173353,-9.799747
22096673,-0.001548094,-0.0002023807,-0.0005084664,-0.202176,-0.2109457,-9.807116
22116274,-0.001416911,0.0004513379,-0.0006293824,-0.2195087,-0.2009116,-9.813517
22136410,-0.0009666324,0.000645011,-0.0007353011,-0.2106323,-0.2115372,-9.805373
22156256,-0.0001328313,0.0004728259,-0.0006955756,-0.1933187,-0.2193792,-9.791444
22176228,0.0004741723,-6.713998e-05,-0.000641204,-0.2004525,-0.2200254,-9.786184
22196655,0.0004339598,-0.000394572,-0.0005433444,-0.2150048,-0.2189794,-9.791284
22216285,0.0002744735,-0.001058131,-0.0005423952,-0.2141629,-0.2113316,-9.79307
22236278,0.0001056861,-0.001370903,-0.0002779405,-0.2201903,-0.2056081,-9.789223
22256295,4.783935e-05,-0.001160967,-1.931249e-05,-0.2191535,-0.2055063,-9.787689
22276243,0.0001495622,-0.0007024108,0.0001147881,-0.2028031,-0.2095932,-9.791594
22296826,0.0002132771,-0.000366205,0.0002105964,-0.1718898,-0.2152282,-9.784663
22316255,0.0004567028,-0.0002956682,0.0002475772,-0.1639881,-0.2112378,-9.779109
22336261,0.0004409376,-0.0003010988,0.0001458627,-0.1874423,-0.2111891,-9.785757
22356251,0.0002657778,9.378276e-05,9.350263e-05,-0.2213054,-0.1993804,-9.787925
22376245,-0.0002080524,7.417159e-05,0.0002202353,-0.2347392,-0.2016449,-9.78308
22396613,-0.001012685,2.307561e-05,0.0004442331,-0.2222345,-0.2051772,-9.772271
22416310,-0.001557942,-0.0001711767,0.0004968939,-0.1813788,-0.2055439,-9.773686
22436196,-0.002028732,-0.0006267425,0.0003275498,-0.1500113,-0.208963,-9.779968
22456504,-0.00203179,-0.0008410616,0.0001503302,-0.171973,-0.2117987,-9.782046
22476257,-0.001448498,-0.0006776387,3.790609e-05,-0.2249742,-0.2114996,-9.781159
22496634,-0.0007988051,-0.0004620921,7.428248e-05,-0.2528203,-0.2161404,-9.782054
22516224,-0.0002274148,-0.0004858332,0.000113265,-0.2342287,-0.2216256,-9.773823
22536199,-7.962894e-05,-0.0005434825,0.0001547444,-0.2043221,-0.2119553,-9.79342
22556278,-0.0003400095,-0.0005704593,0.0002914959,-0.1727836,-0.2103935,-9.789899
22576243,-0.000856038,-0.0003659318,0.000436383,-0.1769487,-0.2165246,-9.784027
22596607,-0.001196078,2.212777e-07,0.000380472,-0.1980542,-0.2154801,-9.774768
22616474,-0.001177896,0.0003480592,0.0003868478,-0.215199,-0.2108206,-9.77002
22636231,-0.001109061,0.000292014,0.0004258756,-0.2109612,-0.2043039,-9.774007
22656282,-0.001035544,-0.0001452882,0.0004238598,-0.1952384,-0.2097107,-9.781296
22676272,-0.0007871384,-0.0003316303,0.0004221778,-0.1753778,-0.2088183,-9.78513
22696610,-0.0005091362,2.811214e-05,0.0004501306,-0.1758444,-0.2142823,-9.789853
22716267,-0.0006725511,0.0004304435,0.00029543,-0.1913069,-0.2127708,-9.781316
22736234,-0.0004823629,0.00059784,0.0001103762,-0.2161449,-0.2160128,-9.787432
22756271,-0.0002273852,0.0006695386,0.0001439165,-0.21917,-0.2110671,-9.78609
22776437,0.0001704417,0.0005230955,0.0001049325,-0.2042003,-0.2145452,-9.791576
22796619,0.0008482987,1.024523e-05,6.777827e-05,-0.1887297,-0.2134166,-9.78837
22816247,0.001097463,-0.0006775983,-6.741143e-05,-0.1907157,-0.2065164,-9.791562
22836242,0.0006458175,-0.001017747,-0.000241247,-0.1905047,-0.2121824,-9.773667
22856299,0.0003816269,-0.001130696,-0.0002018818,-0.1937331,-0.2107784,-9.759955
22876217,0.0001454175,-0.001544625,-1.649873e-05,-0.2014972,-0.1982225,-9.770244
22896670,2.355351e-06,-0.00185813,4.211517e-05,-0.1974318,-0.1975454,-9.773455
22916281,-0.0002273977,-0.00121919,8.833607e-05,-0.1969273,-0.2005908,-9.768341
22936446,-7.180509e-06,-0.0003850885,9.924729e-05,-0.2050265,-0.2050776,-9.776745
22956273,0.0002752454,0.0002213411,0.0001239384,-0.2081981,-0.2011335,-9.788428
22976260,0.0005786947,-1.19768e-05,3.086808e-06,-0.2040552,-0.1995819,-9.787543
22996677,0.0008443356,-3.764623e-05,-7.929712e-05,-0.2027025,-0.2045863,-9.78698
23016267,0.0009785503,-0.0004062307,-3.790158e-05,-0.1996625,-0.208799,-9.788621
23036267,0.0008762665,-0.0006628174,9.546775e-05,-0.1934401,-0.2114097,-9.787065
23056281,0.0007154355,-0.0008659653,0.0001994527,-0.1992141,-0.2169712,-9.779723
23076253,0.0004350527,-0.001334387,0.0003708712,-0.1911912,-0.2134936,-9.778897
23096797,0.0002764862,-0.001811867,0.0004414566,-0.184005,-0.2109192,-9.771397
23116283,0.0002432037,-0.001859529,0.0002624289,-0.1826617,-0.2088333,-9.766439
23136220,2.08374e-05,-0.00159307,9.723061e-05,-0.1925892,-0.2121817,-9.783629
23156277,-0.0004117494,-0.001179035,2.093831e-05,-0.2010165,-0.2094794,-9.787393
23176246,-0.0005220458,-0.001386889,-1.247244e-05,-0.1986828,-0.2098711,-9.786638
23196637,-0.0001437434,-0.001892141,1.271063e-05,-0.2015198,-0.21078,-9.793277
23216232,-2.178913e-07,-0.001682833,-0.0001173406,-0.2011034,-0.2111282,-9.787224
23236253,-3.745836e-05,-0.0008197807,-0.0001628697,-0.2025108,-0.2042952,-9.783182
23256488,-0.0003071669,-0.0004617265,3.272226e-05,-0.2066309,-0.2029359,-9.786955
23276263,-0.0001618536,-0.0002037065,-2.343467e-05,-0.2124573,-0.2061023,-9.788271
23296626,-0.0002330632,-0.0004067047,0.0001440625,-0.2057145,-0.2091957,-9.776098
23316253,-0.000256102,-0.0008195425,0.0003894011,-0.1930173,-0.2121515,-9.771622
23336262,-3.368554e-05,-0.0008760947,0.0004194667,-0.1956046,-0.2253963,-9.781237
23356257,0.000203122,-0.000792205,0.0003552286,-0.199367,-0.2282446,-9.779914
23376274,0.0004971907,-0.001305736,0.00016188,-0.1969772,-0.2139997,-9.773995
23396566,0.0005828609,-0.001663067,-5.380097e-05,-0.2030101,-0.2007495,-9.773853
23416491,0.0006338333,-0.002023166,-0.0003347486,-0.2098531,-0.20045,-9.782566
23436257,0.0004655274,-0.001906468,-0.0004214702,-0.198072,-0.2022279,-9.78403
23456281,0.0003128985,-0.001857295,-0.0004427587,-0.1984497,-0.2022294,-9.786818
23476269,0.0001838179,-0.00164909,-0.0003459897,-0.2009722,-0.2088577,-9.78303
23496577,7.853909e-05,-0.001188206,-0.000207006,-0.2113814,-0.2040751,-9.786375
23516269,0.0001420674,-0.0008648793,-0.0001372885,-0.207649,-0.2005708,-9.791117
23536263,0.0003712196,-0.0008178516,1.429351e-05,-0.2009617,-0.2072283,-9.791278
23556319,0.0005029145,-0.0009330197,0.0002188696,-0.1966538,-0.2170026,-9.785527
23576447,0.0005836867,-0.0008330189,0.000364601,-0.1982774,-0.2167612,-9.779811
23596614,0.0008138578,-0.0008435876,0.0005575983,-0.1976363,-0.2127523,-9.77725
23616258,0.001098888,-0.000498482,0.0007758909,-0.2120695,-0.2139155,-9.779676
23636241,0.001535896,-0.0005305067,0.000664564,-0.210001,-0.2126386,-9.784677
23656272,0.001580749,-0.0007981574,0.0004914844,-0.2010667,-0.2147398,-9.787484
23676224,0.00131746,-0.0005376174,0.0002342953,-0.1905477,-0.2086281,-9.783178
23696664,0.001070524,-0.000619908,7.982228e-05,-0.2000195,-0.2139702,-9.787663
23716238,0.0009576071,-0.0005759429,0.0001930879,-0.2051054,-0.2062586,-9.785805
23736475,0.001120626,-0.0007664653,0.0003144782,-0.2060945,-0.2057118,-9.789391
23756303,0.00151596,-0.0009759183,0.0004238197,-0.2050911,-0.2119467,-9.784918
23776233,0.001429625,-0.0008446227,0.0006378945,-0.1984396,-0.2158558,-9.76691
23796599,0.0007315075,-0.0004436518,0.0007460878,-0.1901745,-0.2110665,-9.770844
23816260,0.0001882874,-0.0003908685,0.0008899501,-0.205015,-0.2094219,-9.783781
23836266,-1.449815e-05,-0.0007879899,0.0008851439,-0.2045416,-0.2103968,-9.783367
23856341,1.401658e-05,-0.001060086,0.000690488,-0.1994139,-0.2074016,-9.777271
23876258,0.0002566804,-0.0009447446,0.000387121,-0.1994839,-0.205179,-9.779715
23896821,0.0003553277,-0.0007602131,0.0002192521,-0.2026668,-0.2100389,-9.78688
23916316,0.0005176751,-0.0007497221,5.072129e-05,-0.197042,-0.2127659,-9.791352
23936218,0.0004125307,-0.001024866,0.0001680554,-0.1886599,-0.2159425,-9.781004
23956291,0.000152829,-0.001279605,0.0004316451,-0.191441,-0.2084196,-9.784003
23976237,-0.0001703413,-0.001469771,0.0006536331,-0.1902571,-0.2134882,-9.781962
23996620,-0.0002549124,-0.001233521,0.0005858573,-0.1859235,-0.2117295,-9.779778
24016228,0.0002519278,-0.001492473,0.0003666734,-0.1902404,-0.2041862,-9.788486
24036251,0.0003120238,-0.001599971,0.0003022898,-0.2047989,-0.2094066,-9.796949
24056454,0.0005222672,-0.002164623,0.0002805789,-0.2084804,-0.2087869,-9.788964
24076274,0.000522769,-0.002273716,0.0001316074,-0.2122301,-0.2143413,-9.786769
24096671,0.0003498876,-0.002046953,1.809795e-06,-0.2013466,-0.2141433,-9.794926
24116245,0.0002495348,-0.001900293,0.0001123625,-0.1859257,-0.219197,-9.785973
24136260,0.0005253485,-0.00171217,0.0002072431,-0.1909837,-0.223916,-9.789841
24156285,0.0004549308,-0.001276187,0.0003292414,-0.1998287,-0.2199059,-9.785633
24176283,0.0004031483,-0.0008834395,0.0005242237,-0.2063716,-0.2139828,-9.776828
24196671,0.0003641363,-0.001262536,0.0005556114,-0.2102934,-0.221951,-9.766601
24216490,0.0001293619,-0.001697202,0.0003952371,-0.2042209,-0.2140643,-9.773592
24236247,0.0002753461,-0.002117188,0.0003271448,-0.1993414,-0.2065539,-9.777738
24256286,0.0003318857,-0.001654707,0.0003273208,-0.2052156,-0.2012725,-9.785588
24276255,0.0002928484,-0.001119801,0.0002752733,-0.2031654,-0.2066044,-9.780921
24296650,0.0003342712,-0.00124581,0.000394163,-0.2010452,-0.2136566,-9.772501
24316258,0.000289517,-0.001004265,0.0004001943,-0.1972291,-0.2165336,-9.784136
24336210,0.0002297903,-0.0006201466,0.0004700728,-0.2035114,-0.2173433,-9.783306
24356252,9.086112e-05,-0.000277473,0.0005076681,-0.2117344,-0.2190588,-9.786933
24376435,4.280052e-05,5.030273e-05,0.0004814753,-0.2084996,-0.2207541,-9.79996
24396599,-0.0001115862,0.0003833032,0.0004535646,-0.2077629,-0.2100141,-9.788754
24416314,-0.0001940152,0.0003984472,0.0003916316,-0.1994857,-0.2081676,-9.77698
24436217,-7.650302e-05,0.0001383489,0.0002910261,-0.195408,-0.2076386,-9.779906
24456275,0.0003459854,0.0001546446,0.0003577773,-0.1959179,-0.214803,-9.792854
24476247,0.0003941672,0.0001713019,0.0004090144,-0.2065763,-0.2238945,-9.780602
24496615,0.0002587741,0.0001552681,0.0004780358,-0.2012683,-0.2223919,-9.777555
24516224,0.0002839529,-0.0002465365,0.0002216182,-0.2017351,-0.2271911,-9.774964
24536465,0.0004907488,-0.001243091,-0.0001544728,-0.1942473,-0.2203932,-9.771487
24556273,0.0005815031,-0.001775625,-0.0005645088,-0.1888229,-0.219618,-9.779567
24576251,0.0004335107,-0.002286015,-0.000710913,-0.1874283,-0.2167768,-9.788211
24596613,0.0003717526,-0.002420014,-0.0005919317,-0.2069481,-0.2056331,-9.794065
24616244,0.0004507985,-0.002400009,-0.0005210965,-0.20591,-0.2064293,-9.793986
24636244,0.000738812,-0.002442983,-0.0003663434,-0.203841,-0.2076287,-9.783165
24656313,0.001095478,-0.002469095,-0.0002759925,-0.2037275,-0.2013317,-9.778649
24676216,0.0009751302,-0.00237429,-0.0002940128,-0.2094624,-0.1991604,-9.779113
24696866,0.000830048,-0.002606743,-0.0003564422,-0.2031861,-0.206957,-9.780578
24716256,0.0006018774,-0.002536826,-0.0002363334,-0.1954855,-0.2061326,-9.787373
24736255,0.000195275,-0.002269518,-0.000187955,-0.1876241,-0.2159148,-9.786899
24756306,-5.10605e-05,-0.00173771,-5.897663e-05,-0.1894419,-0.2182878,-9.788671
24776247,8.333655e-05,-0.001320268,-8.022041e-05,-0.2030813,-0.2157818,-9.784184
24796664,0.0006935915,-0.001282048,-4.857778e-05,-0.2083098,-0.2060832,-9.785423
24816258,0.001218203,-0.0008661276,8.055454e-05,-0.2112907,-0.2167532,-9.788153
24836273,0.001481381,-0.0002308664,1.619345e-05,-0.2043995,-0.2254666,-9.78109
24856486,0.001771942,-0.0003662081,-0.0001167465,-0.2036423,-0.221291,-9.784837
24876269,0.001838386,-0.0007192174,-0.0002319831,-0.1952792,-0.2210338,-9.80309
24896600,0.001341154,-0.0009177116,-0.0002578601,-0.1967515,-0.2248116,-9.79141
24916296,0.0006600532,-0.0009390753,-0.0003566638,-0.1982403,-0.2234072,-9.775811
24936255,-6.283326e-05,-0.0009856039,-0.0003928063,-0.1967547,-0.2174522,-9.771288
24956276,-0.0006673677,-0.000737181,-0.0002853942,-0.1925524,-0.2102373,-9.782948
24976238,-0.0009736572,-0.0007252125,-0.0001050049,-0.1971366,-0.2030245,-9.784701
24996602,-0.0008403126,-0.0006330348,1.570733e-05,-0.2018344,-0.201545,-9.786335
25016459,-0.0006021142,-0.0005711921,5.820662e-05,-0.2005676,-0.2041056,-9.787642
25036252,-0.0003971948,-0.000367491,9.502556e-06,-0.1915043,-0.2098728,-9.783391
25056284,-0.0002341543,-0.000414522,0.0001028704,-0.1933364,-0.2105618,-9.786196
25076279,-4.004566e-05,-0.0005400022,3.132256e-05,-0.1982505,-0.2070826,-9.788813
25096650,0.0004024203,-0.0006892539,-0.000107689,-0.1961589,-0.2046561,-9.788081
25116270,0.0007006231,-0.0003656657,-0.0001647383,-0.1949338,-0.2096749,-9.782736
25136239,0.0006473807,0.0001784768,-7.784888e-05,-0.1980302,-0.2040884,-9.790507
25156308,0.0005085938,0.00026264,-5.979475e-05,-0.2007215,-0.2064004,-9.790984
25176434,0.0006218358,-0.0003682605,4.150461e-05,-0.2092411,-0.1928704,-9.788038
25196647,0.0007525788,-0.0004942653,5.113478e-05,-0.2047987,-0.1968741,-9.785189
25216259,0.000742948,-0.0009471782,0.0001174188,-0.1924966,-0.1983388,-9.782215
25236245,0.0006799559,-0.00112929,0.0001858386,-0.1986828,-0.2042852,-9.788012
25256334,0.0003987304,-0.001207033,0.0003770672,-0.1978311,-0.2060989,-9.791986
25276239,9.368741e-05,-0.00135322,0.0002885244,-0.205104,-0.2136004,-9.780886
25296670,-5.005832e-05,-0.001472356,0.0002265777,-0.2042921,-0.2130641,-9.781653
25316294,-0.0006613631,-0.001078545,0.0001177786,-0.2028012,-0.2064633,-9.790552
25336448,-0.0008608222,-0.001310132,8.79067e-05,-0.1953813,-0.2016747,-9.789675
25356289,-0.0008376429,-0.001114424,0.0001092005,-0.1989772,-0.207843,-9.780822
25376249,-0.0007600462,-0.001425154,3.230535e-05,-0.207902,-0.2071204,-9.78768
25396618,-0.0007836629,-0.001706087,0.0001997412,-0.2116286,-0.2101264,-9.792265
25416297,-0.0007422073,-0.001812556,0.0002499774,-0.2064966,-0.2053042,-9.790223
25436254,-0.0006099868,-0.00149357,0.0003235455,-0.1912371,-0.2048925,-9.782618
25456271,-0.0003399347,-0.001046462,0.0003666494,-0.1984683,-0.2033555,-9.784331
25476229,-2.795787e-05,-0.0004298062,0.0003906788,-0.1933004,-0.2029229,-9.77284
25496852,-0.0001645249,-0.0001583817,0.0003897102,-0.1890016,-0.203214,-9.777592
25516293,-0.0003716047,-0.0005045225,0.0004053134,-0.1880992,-0.2028024,-9.78672
25536262,-0.0004887979,-0.0008631002,0.0003982391,-0.1877595,-0.2075424,-9.797577
25556278,-0.0004722624,-0.001032572,0.0002821972,-0.1906485,-0.2065704,-9.792051
25576226,-0.0006789882,-0.001033144,0.0001286606,-0.1994215,-0.2105343,-9.782024
25596616,-0.0004104575,-0.001375416,8.389917e-05,-0.2020929,-0.2048503,-9.778167
25616237,0.0001322143,-0.001545927,0.0001314146,-0.2055268,-0.1977594,-9.772086
25636235,0.0007534961,-0.001493463,3.338898e-05,-0.2116256,-0.1970804,-9.775002
25656543,0.0008155315,-0.001100699,-1.208723e-05,-0.2078926,-0.2021739,-9.776111
25676196,0.0008709606,-0.0004852061,-2.224605e-05,-0.2049518,-0.1994605,-9.783562
25696578,0.0007888154,-3.187767e-05,-0.0001342402,-0.2029826,-0.2025973,-9.79375
25716255,0.0007992625,-0.0002838768,-0.0003557629,-0.2115746,-0.2015024,-9.794407
25736269,0.0008378908,-0.0009377167,-0.0003645595,-0.2177298,-0.2006315,-9.789615
25756261,0.0008126468,-0.001054305,-0.0002591715,-0.2082287,-0.2053394,-9.7847
25776196,0.0005719872,-0.0007619741,-0.0001830301,-0.1979216,-0.2054587,-9.786407
25796566,0.00028469,-0.000349799,5.994529e-05,-0.2000005,-0.2024403,-9.78054
25816485,-0.0002332932,-0.0002443231,0.0001330739,-0.1873017,-0.2071938,-9.778944
25836251,-0.0003563202,1.116127e-05,0.0001087932,-0.1889872,-0.2111476,-9.782893
25856253,-0.0002129793,0.000414638,0.0001255775,-0.2025562,-0.2076372,-9.774721
25876272,0.0001448366,0.0005871207,0.0001853832,-0.1962533,-0.2107012,-9.766854
25896582,0.0002255882,0.0003037434,0.0003017878,-0.1992368,-0.2064891,-9.776965
25916275,0.0004276886,-0.0003323885,0.0005051896,-0.1925313,-0.2076998,-9.78762
25936244,0.0005946473,-0.0009950036,0.0007440507,-0.1957153,-0.2034882,-9.787377
25956257,-0.0001311182,-0.0008846796,0.0009074673,-0.19765,-0.2031102,-9.779943
25976469,-0.0006225694,-0.001087033,0.0007731486,-0.1955363,-0.2111209,-9.779977
25996646,-0.0009512811,-0.0008903467,0.0006306498,-0.1922962,-0.2062745,-9.778048
26016257,-0.0007411966,-0.0005693222,0.0006334672,-0.1942611,-0.2080093,-9.778462
26036219,-0.0004463026,-0.0006457212,0.0005395067,-0.2017245,-0.2128938,-9.768925
26056285,-0.0001869498,-0.0006472308,0.0006077954,-0.2119212,-0.2123272,-9.780064
26076240,-0.0002448347,-0.0003227632,0.0006048409,-0.2089432,-0.2107023,-9.789564
26096631,-4.238585e-05,-0.0002416463,0.0003854355,-0.1983591,-0.2127303,-9.784532
26116228,0.0001023673,-0.0001817413,0.0002434568,-0.1969355,-0.2163722,-9.785617
26136456,0.0002416681,0.0001383664,0.0001274327,-0.2039395,-0.207993,-9.786742
26156288,4.739954e-05,0.000519784,0.0003235079,-0.2034491,-0.2041663,-9.782469
26176263,0.0002198359,0.0001910089,0.0005820532,-0.201644,-0.2045883,-9.776631
26196625,0.0004133183,-0.0004871677,0.0005835732,-0.2050435,-0.2074524,-9.779141
26216234,0.0005647428,-0.001071682,0.000413211,-0.2018141,-0.2099538,-9.783805
26236242,0.0005161666,-0.001579292,0.0005245807,-0.207346,-0.2034085,-9.78152
26256276,0.0007255698,-0.001842625,0.0003836566,-0.2049399,-0.2035287,-9.789566
26276260,0.0005288072,-0.001895253,0.0004334214,-0.195528,-0.2034723,-9.785505
26296869,0.0003002305,-0.001733705,0.0003005399,-0.1909372,-0.2059567,-9.788653
26316260,0.0003008238,-0.001669788,0.0001192509,-0.1942818,-0.2019907,-9.796074
26336233,0.0006458624,-0.001953345,0.0001239415,-0.2003688,-0.2033087,-9.790816
26356291,0.000944165,-0.002271743,0.0002356271,-0.19296,-0.2133134,-9.78413
26376280,0.0007347468,-0.002110142,0.0002369078,-0.1951739,-0.218784,-9.78972
26396646,0.0003836077,-0.001945275,0.000190858,-0.2027596,-0.2101756,-9.777289
26416294,0.0005438908,-0.001799217,6.397668e-05,-0.2164291,-0.2093604,-9.772254
26436248,0.0009525467,-0.001442255,5.665491e-05,-0.2027867,-0.2139564,-9.779395
26456468,0.0006204731,-0.001168395,-4.832714e-05,-0.1959633,-0.2096249,-9.776643
26476226,0.00012923,-0.001162021,6.311048e-05,-0.1945988,-0.2061674,-9.77037
26496559,-0.0001833912,-0.0008108429,0.0001388605,-0.1996557,-0.2101002,-9.783935
26516255,-0.00024348,-0.0006905157,0.0004091473,-0.2037691,-0.2079008,-9.788218
26536228,2.399135e-05,-0.0003938836,0.0005257215,-0.1999605,-0.2075355,-9.787015
26556275,0.0001405491,0.0001534471,0.000599515,-0.1972289,-0.208728,-9.784267
26576228,0.0001032589,0.0003000967,0.0007285341,-0.1967041,-0.2074578,-9.793154
26596669,-0.0001030193,0.0001219558,0.0007487697,-0.1990875,-0.2073429,-9.795225
26616491,1.525068e-05,-0.0003991713,0.0006816069,-0.2014114,-0.2021739,-9.79403
26636252,1.054397e-05,-0.0005135749,0.0005678427,-0.2038891,-0.2104291,-9.784423
26656336,0.0002197875,-0.0003767759,0.0004000789,-0.2035791,-0.2131152,-9.77809
26676255,0.0005387402,-0.0002765215,0.0003602083,-0.2015398,-0.2091393,-9.790597
26696593,0.0009374609,-0.0007681343,0.0003832298,-0.1991548,-0.204178,-9.794312
26716320,0.0008635561,-0.001213167,0.0004741577,-0.2061197,-0.1996731,-9.78203
26736280,0.0005616292,-0.001337232,0.0004469634,-0.2041759,-0.2000993,-9.777637
26756271,0.0002814613,-0.001826959,0.0004282395,-0.201349,-0.1995529,-9.779325
26776482,0.0001514363,-0.002254353,0.0001797371,-0.1994168,-0.2101282,-9.784472
26796587,-0.000152334,-0.001683329,8.252795e-06,-0.2027289,-0.2130858,-9.787585
26816298,-0.0001706472,-0.0009438199,7.198408e-05,-0.2012442,-0.2059532,-9.78745
26836257,4.156548e-05,-0.0008119985,0.00011101,-0.1954573,-0.1998319,-9.791881
26856300,0.0004250481,-0.0008359514,2.968671e-05,-0.1991487,-0.2024602,-9.795872
26876241,0.0009512299,-0.0008244108,0.0001631166,-0.1977748,-0.2048338,-9.791869
26896610,0.001343168,-0.0008149477,0.0003077639,-0.2002944,-0.2055514,-9.787709
26916254,0.001532434,-0.001177802,0.0005691891,-0.192688,-0.2075151,-9.790001
26936457,0.00108773,-0.001309116,0.0007464139,-0.1962169,-0.2171761,-9.787776
26956287,0.001105792,-0.001836476,0.000632031,-0.1927232,-0.2194785,-9.776125
26976274,0.001373838,-0.002387279,0.0005016074,-0.2052179,-0.2151717,-9.789366
26996553,0.001482185,-0.002644853,0.0005426425,-0.2028494,-0.2152126,-9.798906
27016250,0.001314763,-0.002398182,0.0003104093,-0.2068824,-0.2132072,-9.80234
27036242,0.0006570884,-0.002126147,0.0002141716,-0.2105512,-0.2101289,-9.788074
27056272,0.0001433549,-0.001851112,0.0002453552,-0.2021146,-0.2160468,-9.783284
27076291,0.0001705927,-0.001899039,1.578536e-05,-0.2144352,-0.2104437,-9.782466
27096841,0.0003573785,-0.002230048,-8.432897e-05,-0.2095549,-0.211894,-9.783383
27116261,0.0004580955,-0.002303097,-0.0001010054,-0.2045222,-0.2126744,-9.773044
27136262,0.0003116193,-0.002038573,-0.0001839108,-0.2034854,-0.2172455,-9.771485
27156273,0.0001251653,-0.001427644,-0.0001873608,-0.2019695,-0.2169037,-9.775777
27176252,5.626946e-05,-0.0006048272,-0.0001529309,-0.2059405,-0.2170812,-9.783174
27196648,0.0001935233,-5.500483e-05,1.64239e-05,-0.2001957,-0.2151089,-9.786926
27216250,0.0002979125,0.0003276163,0.0002207924,-0.1964149,-0.2078755,-9.778006
27236249,0.0002942567,0.0002900972,0.0004663497,-0.1978095,-0.2118323,-9.77308
27256470,0.0007050767,-7.067826e-05,0.0003170769,-0.1986476,-0.2168298,-9.78137
27276251,0.0008000068,0.0002270945,0.0002893909,-0.1994119,-0.2168709,-9.775949
27296611,0.001062326,0.000244065,0.0001251659,-0.2019746,-0.2191324,-9.779696
27316233,0.001033382,0.0003537126,-1.330877e-05,-0.206014,-0.2164585,-9.780546
27336286,0.001016139,0.0002620454,0.0001251878,-0.1994421,-0.2218209,-9.795
27356262,0.001044361,-0.0004252417,0.0002048648,-0.201738,-0.2190129,-9.802083
27376244,0.0009596031,-0.001235421,0.0003222073,-0.2080775,-0.2169697,-9.807388
27396578,0.000723915,-0.001359531,0.0003169831,-0.2004935,-0.2155315,-9.795919
27416497,0.0007191921,-0.001886163,0.0002191878,-0.2062831,-0.2140246,-9.783911
27436262,0.0007876924,-0.002353355,0.0001556772,-0.2071363,-0.2227705,-9.778809
27456309,0.0005598071,-0.001993015,1.28412e-05,-0.1947725,-0.2216527,-9.778692
27476239,0.0003631089,-0.001462379,3.304956e-05,-0.2066943,-0.2177995,-9.779112
27496642,0.0002591711,-0.0008692116,6.008845e-05,-0.2084283,-0.2201521,-9.775321
27516307,0.0003597239,-0.0005717069,1.742027e-05,-0.2048349,-0.2115359,-9.789975
27536224,0.0005223819,-0.0001129032,-5.736914e-05,-0.204165,-0.213844,-9.801957
27556279,0.0004075159,0.0003825991,-0.0002241422,-0.2047324,-0.2078809,-9.799729
27576417,0.0003690037,0.0003666566,-0.0003572364,-0.212797,-0.2012046,-9.785939
27596627,0.0001789488,0.0001417984,-0.0003840929,-0.2176416,-0.2016702,-9.780035
27616238,0.0003118593,-0.0005462469,-9.275179e-05,-0.2113989,-0.2087552,-9.781163
27636250,0.0005064303,-0.001511116,0.0001888522,-0.2090981,-0.2050109,-9.79069
27656282,0.0003630136,-0.002038413,0.0003515793,-0.2046735,-0.2061357,-9.793324
27676262,-5.29512e-05,-0.002119753,0.0004721481,-0.2046181,-0.2135408,-9.793316
27696629,-0.000161582,-0.002075203,0.000462307,-0.1974592,-0.2184739,-9.781193
27716245,6.053972e-05,-0.002032199,0.0003938695,-0.2002986,-0.2148133,-9.773593
27736474,0.0002703614,-0.001694544,0.0003469871,-0.206755,-0.2197599,-9.786933
27756284,0.0003851662,-0.001467145,0.0002044928,-0.1977884,-0.2180441,-9.808255
27776226,0.0004197808,-0.001541779,9.908918e-05,-0.1872331,-0.2112644,-9.797614
27796613,0.0004259309,-0.001668948,-0.0001379833,-0.1781815,-0.2164517,-9.787358
27816265,0.0005858568,-0.00182191,-0.000268647,-0.1941915,-0.2259231,-9.785192
27836248,0.0007593188,-0.002219708,-0.0002818121,-0.2103572,-0.2217543,-9.79146
27856302,0.0009166576,-0.002119713,-0.0002899511,-0.2151277,-0.2166405,-9.785657
27876227,0.0007378445,-0.001834724,-5.453832e-05,-0.2140477,-0.2177995,-9.794527
27896851,0.0007691293,-0.002090568,8.739961e-05,-0.219076,-0.2162353,-9.798471
27916284,0.0006343774,-0.001660541,4.991201e-05,-0.214898,-0.2095436,-9.794976
27936268,0.0005827539,-0.001072931,7.508479e-05,-0.2021577,-0.2059302,-9.781575
27956352,0.0004292774,-0.0005422716,-5.969517e-05,-0.1941235,-0.2089677,-9.776171
27976258,-4.475491e-05,0.0001726909,-0.00010761,-0.1972763,-0.2183343,-9.777572
27996670,-0.000352889,0.0004794148,-0.0001952351,-0.2102163,-0.220223,-9.779279
28016306,-3.176749e-06,0.0001693696,-0.000182319,-0.1992649,-0.2184423,-9.780988
28036228,0.000255571,-6.918921e-05,-0.0001184296,-0.1968913,-0.2139427,-9.783113
28056490,0.0002889149,-0.0003672292,0.0001273883,-0.198485,-0.2138333,-9.780268
28076255,0.0002639979,-0.0004496278,0.0003153936,-0.20259,-0.2145369,-9.794724
28096614,0.0005491708,-0.0008687305,0.0002091056,-0.2069124,-0.2081115,-9.796943
28116234,0.0005214172,-0.0007419172,8.566023e-05,-0.207974,-0.2131265,-9.787877
28136244,0.0003018926,-0.0002036034,3.209268e-05,-0.204906,-0.2070718,-9.779841
28156289,-0.0002127617,0.0002970324,3.467729e-05,-0.2070612,-0.2037637,-9.77742
28176262,-0.0004801884,0.0003943305,7.601677e-05,-0.2019488,-0.2115759,-9.791622
28196628,-0.0009369458,0.0005828558,4.189088e-05,-0.202996,-0.217829,-9.804834
28216486,-0.0009651796,0.0006804206,-1.371467e-05,-0.2053118,-0.2154422,-9.796908
28236260,-0.000654777,0.0003926602,-9.374425e-05,-0.2029207,-0.2204293,-9.787681
28256270,-0.0001578109,-0.000281276,-0.0002265676,-0.1933006,-0.2137725,-9.780448
28276213,0.0002872795,-0.0005788784,-0.0002682897,-0.1854464,-0.2124184,-9.772422
28296693,0.0003925807,-0.0007898258,-0.0001808932,-0.192424,-0.2147131,-9.774347
28316251,0.0006572214,-0.0005676567,-3.802255e-05,-0.1956082,-0.212107,-9.784834
28336267,0.001119444,-0.0005655912,-3.283002e-05,-0.1990116,-0.2165913,-9.788756
28356278,0.001262803,-0.0005863861,0.0002082809,-0.1942005,-0.2147488,-9.789281
28376468,0.001184041,-0.0007833659,0.0004114903,-0.1891741,-0.2167664,-9.789965
28396671,0.001006276,-0.0008125107,0.0002989841,-0.2013055,-0.2129665,-9.78769
28416222,0.001174881,-0.000598781,0.0002701921,-0.2091929,-0.211698,-9.790476
28436234,0.00121272,-0.0006017493,0.000365172,-0.205454,-0.2095454,-9.794384
28456305,0.001207848,-0.0003744848,0.0003433347,-0.2081158,-0.2147303,-9.792223
28476248,0.001176778,-0.0008021315,0.0003035591,-0.2043519,-0.2181768,-9.789925
28496588,0.001097184,-0.001464628,0.0002109269,-0.1989742,-0.2131934,-9.794456
28516260,0.000892244,-0.001771773,0.0001104235,-0.201602,-0.2107228,-9.776642
28536464,0.0008139738,-0.001807366,0.0001429455,-0.2012734,-0.2106426,-9.770174
28556287,0.0004828295,-0.001535584,0.0002852536,-0.1995718,-0.2117097,-9.781754
28576245,0.0004212868,-0.001242098,0.0003025045,-0.1982957,-0.2121046,-9.786546
28596629,0.0001972162,-0.001178947,0.0001486054,-0.1999062,-0.2174514,-9.779741
28616237,0.0002036775,-0.0008527489,-0.0001356308,-0.2070645,-0.2104653,-9.78511
28636198,0.0001213284,-0.0001032182,-0.0002650077,-0.2131854,-0.2174655,-9.781421
28656274,0.0001285593,0.0001713954,-0.0001209977,-0.2072027,-0.2183206,-9.778822
28676228,0.0001237405,0.0001766736,-7.287234e-05,-0.2054971,-0.2124364,-9.798407
28696850,-6.124913e-05,0.000135278,-0.0001055447,-0.2038584,-0.2052385,-9.799432
28716209,-7.723765e-05,-0.0003610782,-0.0001786694,-0.205146,-0.2106294,-9.796235
28736266,0.0002255018,-0.001486693,-0.000264782,-0.2055014,-0.2209663,-9.795673
28756286,0.0007731362,-0.001734667,-0.0003839109,-0.2040233,-0.2221785,-9.788765
28776257,0.0007456868,-0.001578705,-0.0005047867,-0.203755,-0.2177635,-9.785551
28796608,0.0006738098,-0.001157494,-0.0006170572,-0.2007987,-0.21668,-9.808396
28816224,0.0001271869,-0.0006157404,-0.0004350936,-0.1948569,-0.2159035,-9.811985
28836249,-0.000242591,-0.0004495234,-0.0002487252,-0.2009269,-0.2096978,-9.800103
28856490,-0.0006273735,-6.205295e-06,-0.0002093526,-0.1980524,-0.2153958,-9.787774
28876258,-0.0006674039,0.0005086873,-0.0003617346,-0.1927316,-0.2144552,-9.784742
28896609,-0.0005261226,0.0008434159,-0.0003087867,-0.1972192,-0.2173109,-9.78035
28916340,-0.0004689761,0.00104387,-8.474476e-05,-0.1986164,-0.2226359,-9.779824
28936251,-0.0004008174,0.0009908301,0.0001512568,-0.2021926,-0.219494,-9.786631
28956288,-0.0002656939,0.0004482127,0.0001533255,-0.2000838,-0.2156125,-9.786354
28976241,0.0001362924,-0.0002944786,5.711386e-05,-0.1960205,-0.2057731,-9.795078
28996609,-7.8486e-06,-0.0005269911,0.0001217927,-0.1967842,-0.2133166,-9.791716
29016473,-0.0004307537,-0.0006868862,0.0002865353,-0.200149,-0.2126125,-9.784883
29036254,-0.0007846926,-0.0003651815,0.0002954489,-0.2054591,-0.2158628,-9.779132
29056288,-0.00103272,0.0002420432,0.0003171849,-0.2018588,-0.2214834,-9.778529
29076266,-0.0007925453,0.000285647,0.0003755562,-0.2005593,-0.2175055,-9.779827
29096634,-0.0005534239,5.277035e-05,0.0004111991,-0.2022756,-0.2165773,-9.794373
29116276,-0.0003479864,-0.0003604763,0.0004379207,-0.200532,-0.2193785,-9.794235
29136232,-6.74885e-07,-0.0006263124,0.0003979011,-0.194778,-0.2188302,-9.791247
29156312,0.0002733414,-0.0006268068,0.0003097168,-0.1891975,-0.2226183,-9.792873
29176413,0.0003837217,-0.0005599806,0.0001250512,-0.1921669,-0.2184468,-9.789402
29196595,0.0001181208,-7.273092e-05,9.035151e-05,-0.2030219,-0.2141274,-9.784742
29216244,0.000282514,-0.0001023185,7.122503e-05,-0.196351,-0.2152336,-9.775277
29236253,0.0002419613,-0.0002996144,0.0001753862,-0.2020389,-0.2104413,-9.769313
29256270,0.0002729391,-0.0007047074,0.0004803935,-0.2101782,-0.2089693,-9.767969
29276240,0.0003307971,-0.0009907316,0.0006989294,-0.2084458,-0.2080634,-9.774123
29296636,0.0003610557,-0.001214636,0.0005918657,-0.2023363,-0.2113913,-9.789816
29316230,0.0002107457,-0.001011161,0.0006200305,-0.2031678,-0.2185824,-9.788386
29336458,0.000368517,-0.000797277,0.0006751286,-0.2052555,-0.2199618,-9.791324
29356307,0.0001889744,-0.0003889049,0.0006781801,-0.2099174,-0.2224393,-9.78465
29376260,-0.0002419231,-0.0001873223,0.0007497703,-0.2023856,-0.2246241,-9.78146
29396611,-0.0003295701,-0.0006424046,0.0006919447,-0.1914986,-0.2312399,-9.781013
29416267,-0.0001447976,-0.0009983333,0.0004833603,-0.2057552,-0.2215587,-9.786352
29436255,0.0004455562,-0.0009370723,0.0002768726,-0.2061708,-0.2168906,-9.788289
29456284,0.0006474921,-0.0006482166,0.0003061033,-0.2117764,-0.2167745,-9.785873
29476205,0.0007580429,-0.0008249923,0.0003112667,-0.2040066,-0.2121852,-9.789891
29496874,0.0009918237,-0.001058411,0.000248303,-0.2018281,-0.2154139,-9.793263
29516267,0.0009419863,-0.0009732954,0.0002000755,-0.2061766,-0.2085929,-9.787659
29536249,0.0007919725,-0.0008125879,0.0001383675,-0.2049121,-0.2167812,-9.780968
29556324,0.0005836806,-0.0006761957,0.0001515431,-0.2146257,-0.2214128,-9.788726
29576230,0.0005122385,-0.0003958856,0.0003558557,-0.2189607,-0.2175046,-9.802015
29596583,0.0007886029,-0.0005098294,0.0003059591,-0.2124398,-0.2110706,-9.80226
29616272,0.001012942,-0.0005627598,0.000254384,-0.2068229,-0.2217743,-9.788304
29636248,0.0008437072,-0.0003964612,0.0001719849,-0.2048524,-0.2212055,-9.784435
29656497,0.0004979232,-0.0002568794,0.000183879,-0.2004992,-0.2149112,-9.783855
29676242,7.870452e-05,4.342818e-05,0.0003170562,-0.2034452,-0.2097118,-9.788147
29696615,-0.0002287852,0.0004214941,0.0003174225,-0.2059012,-0.2105561,-9.788774
29716286,-0.0005969733,0.0007962917,0.0002324117,-0.203039,-0.207631,-9.78635
29736230,-0.0005345553,0.0002930482,0.000212386,-0.1990354,-0.2133902,-9.784323
29756277,-0.0002245727,-0.000513421,0.000226307,-0.2006028,-0.2126898,-9.784938
29776233,-4.740387e-05,-0.001062496,0.0001742006,-0.2099402,-0.2122598,-9.795019
29796650,0.0001367576,-0.00127006,0.0002035825,-0.2095223,-0.2187051,-9.795645
29816562,0.0003085624,-0.001501756,0.0002436253,-0.2055775,-0.2183439,-9.799167
29836234,0.0002300194,-0.001187756,0.0002953488,-0.2028632,-0.2058668,-9.795759
29856297,0.0001795729,-0.001271981,0.0003844484,-0.2051167,-0.206665,-9.790659
29876241,0.0003558794,-0.001022867,0.0003952071,-0.2171642,-0.2085491,-9.787408
29896587,0.0004643268,-0.0008361096,0.0004638298,-0.2125895,-0.2017819,-9.779822
29916231,0.0008239287,-0.0009986688,0.00040463,-0.2053273,-0.2158626,-9.783804
29936249,0.001070261,-0.001422919,0.0003477081,-0.1936819,-0.2113868,-9.787315
29956267,0.001120008,-0.001388062,0.000336883,-0.2030933,-0.2104149,-9.788696
29976397,0.000848026,-0.0006753563,0.0003313514,-0.2059653,-0.2131467,-9.77646
29996619,0.0008876565,4.669169e-05,0.0001097683,-0.1996626,-0.2190328,-9.773477
30016260,0.0006962608,0.0002430635,0.0001569141,-0.2063005,-0.2191224,-9.771125
30036228,0.0003358984,0.0003974451,0.0003583733,-0.2058834,-0.2075275,-9.781194
30056274,0.0001230102,0.0002355647,0.0003537552,-0.2066591,-0.2084575,-9.77412
30076255,8.71132e-05,-0.000387867,0.000224785,-0.2032042,-0.2158411,-9.777441
30096605,0.0003423019,-0.001082161,3.135681e-05,-0.1977885,-0.225594,-9.79353
30116230,0.0006835032,-0.001986769,9.460202e-05,-0.1962523,-0.2200336,-9.800289
30136436,0.0009139166,-0.002987634,0.0002466924,-0.2044251,-0.2207425,-9.790631
30156283,0.001132545,-0.003147857,0.0002613195,-0.2025161,-0.2167604,-9.781661
30176241,0.001188186,-0.002569835,0.0002664001,-0.2060079,-0.2141802,-9.78599
30196625,0.001091357,-0.002077547,0.0003564359,-0.2102294,-0.2195524,-9.791448
30216284,0.00124396,-0.00165887,0.0002233792,-0.2043739,-0.2146934,-9.790629
30236204,0.001391719,-0.001233684,0.0001199021,-0.1965391,-0.2081299,-9.794451
30256254,0.001015033,-0.001240082,7.573148e-05,-0.1992932,-0.217414,-9.792832
30276259,0.0003454268,-0.0006905461,5.50533e-05,-0.2022986,-0.2203131,-9.790063
30296872,1.36269e-05,-0.0005679516,-6.493607e-05,-0.2079087,-0.2206687,-9.792987
30316254,2.06575e-05,-0.0005775196,-0.0001632428,-0.2112865,-0.2187128,-9.785029
30336221,9.008302e-05,-0.0004057136,-0.00029928,-0.2151645,-0.2154048,-9.777996
30356308,4.746648e-05,-0.0008451724,-0.0001567782,-0.2118188,-0.2096921,-9.778281
30376234,0.0001556428,-0.001060465,-3.335281e-06,-0.2059649,-0.2078698,-9.781454
30396609,0.0003746235,-0.00146283,0.0001484409,-0.2062256,-0.2080373,-9.781054
30416259,0.0004389607,-0.001318736,0.0001865242,-0.1954978,-0.2121106,-9.776809
30436244,0.0003626284,-0.0008183736,0.0002755495,-0.1955467,-0.2140459,-9.778726
30456495,0.0003220223,-0.0008573626,0.0002950972,-0.1929312,-0.2072642,-9.789878
30476255,0.0002549747,-0.000845329,0.0003980965,-0.1999734,-0.2107803,-9.795025
30496621,0.0004996627,-0.001036527,0.0004096257,-0.2166883,-0.2094857,-9.786553
30516286,0.0003889055,-0.00114135,0.0002210403,-0.2242001,-0.2010944,-9.789067
30536225,0.0006314514,-0.001370357,0.0001216594,-0.2189617,-0.2071777,-9.796134
30556260,0.0007886665,-0.001716,0.000119912,-0.2121253,-0.2128989,-9.809285
30576236,0.001002261,-0.001898645,0.0001342841,-0.2099475,-0.214032,-9.806515
30596632,0.001159035,-0.001655788,0.0001420575,-0.2074985,-0.2201456,-9.807072
30616486,0.001172295,-0.001322942,0.0001444134,-0.200878,-0.2132906,-9.801035
30636225,0.0009286689,-0.0009858902,5.480566e-05,-0.2012968,-0.2174589,-9.794176
30656281,0.0006682163,-0.000726692,2.523377e-05,-0.1914481,-0.2239624,-9.78807
30676201,0.0004688957,-0.0004316768,9.002947e-05,-0.1985197,-0.228593,-9.787909
30696583,-2.572513e-06,-0.0006430589,0.0003700393,-0.2032049,-0.2198959,-9.783398
30716258,-0.0002967137,-0.001148412,0.0004549534,-0.2043912,-0.2110919,-9.772415
30736241,-0.0002894074,-0.001735087,0.0006529384,-0.2115865,-0.2102527,-9.78191
30756294,6.212398e-05,-0.002025183,0.0005961602,-0.2053422,-0.2109071,-9.785954
30776410,0.0002803692,-0.001850035,0.0004942855,-0.2022255,-0.209935,-9.785317
30796624,0.0003251777,-0.001623351,0.000391118,-0.1992433,-0.2160808,-9.766353
30816250,0.0003975328,-0.001313405,0.0001190559,-0.2022505,-0.2168624,-9.764516
30836240,0.0008104609,-0.001059105,-8.734916e-05,-0.1996049,-0.2099711,-9.770905
30856274,0.001286657,-0.0007861316,-8.816418e-05,-0.1990993,-0.2133526,-9.783837
30876197,0.001585573,-0.0006985835,-0.0001084311,-0.2008469,-0.2174879,-9.774288
30896560,0.001470723,-0.0007326269,-0.0001520745,-0.2085324,-0.2167579,-9.770589
30916263,0.001084141,-0.0006896449,-0.0001491884,-0.2046555,-0.2167482,-9.784101
30936422,0.0007017857,-0.0005906032,-0.0001088706,-0.194805,-0.2213111,-9.793529
30956320,0.0006118307,-0.0007001805,-9.051158e-05,-0.1903126,-0.2173399,-9.787457
30976268,0.001000875,-0.000702214,-0.0001131732,-0.1973914,-0.2187301,-9.784904
30996649,0.001424283,-0.001191401,0.0002195393,-0.201206,-0.2254056,-9.793636
31016284,0.001429683,-0.001476449,0.0003473872,-0.2060682,-0.2244125,-9.792568
31036240,0.001411052,-0.001265759,0.0004285249,-0.2060292,-0.2168321,-9.789406
31056262,0.001173441,-0.0009579734,0.0004303206,-0.1971387,-0.2158893,-9.77522
31076227,0.0009308992,-0.0004659398,0.0003367477,-0.2010271,-0.2078564,-9.775156
31096805,0.0008340008,-0.0002482309,0.000495767,-0.1960639,-0.2176902,-9.774049
31116221,0.0008728971,-0.0005700489,0.0005698288,-0.1975459,-0.2194719,-9.783074
31136222,0.001225289,-0.001390729,0.0004960646,-0.2066113,-0.2209506,-9.789055
31156261,0.001091412,-0.001836064,0.0004417313,-0.2018322,-0.219179,-9.786067
31176243,0.001066394,-0.002219961,0.0003064158,-0.2012616,-0.2157239,-9.781568
31196554,0.001067196,-0.00233353,0.0002851678,-0.2042897,-0.2169222,-9.791855
31216236,0.0006869836,-0.002249383,0.0002092197,-0.1974295,-0.215647,-9.780245
31236237,0.0006590429,-0.001845145,0.0001107417,-0.2019711,-0.2070799,-9.774263
31256453,0.0008008486,-0.001726848,2.44272e-05,-0.1974317,-0.2076341,-9.788358
31276196,0.0008388679,-0.001747483,-4.697952e-05,-0.2023636,-0.2169464,-9.789366
31296562,0.0008432237,-0.001873147,-9.88237e-05,-0.2059952,-0.2188265,-9.78681
31316240,0.001101582,-0.001663643,-8.898399e-05,-0.2012396,-0.2261809,-9.790811
31336214,0.00135348,-0.001668481,-1.374893e-06,-0.1981638,-0.2235046,-9.798132
31356237,0.001285146,-0.001847421,0.000195889,-0.2033996,-0.2241856,-9.792853
31376224,0.001193398,-0.001734645,0.0004030724,-0.2057491,-0.2101244,-9.788507
31396572,0.0006660964,-0.001200135,0.0005819065,-0.2013531,-0.2149579,-9.777603
31416425,0.0003964542,-0.0008085156,0.0008040623,-0.2055062,-0.2179716,-9.795864
31436205,0.000165034,-0.0004146548,0.001128024,-0.2084577,-0.212695,-9.797857
31456245,-1.071913e-05,-0.0002413888,0.001252107,-0.224378,-0.2061053,-9.794839
31476196,-0.0001083584,-0.0003296787,0.001035808,-0.2170096,-0.2158,-9.798524
31496567,0.0001668721,-0.0005156911,0.0007255409,-0.2072105,-0.2113743,-9.792421
31516265,0.0005062798,-0.0006645304,0.000490155,-0.213238,-0.2058646,-9.793076
31536172,0.0005774684,-0.0008208828,0.0004836331,-0.2077346,-0.2121195,-9.792754
31556240,0.0005966846,-0.000725846,0.0005349957,-0.1984105,-0.2113552,-9.798896
31576437,0.0006733263,-0.001301326,0.0005906239,-0.1992335,-0.2117822,-9.794317
31596580,0.0005024806,-0.001651012,0.0006698677,-0.2034278,-0.2164398,-9.801777
31616263,0.0003998046,-0.001577602,0.0005633333,-0.2028199,-0.2178881,-9.800821
31636203,0.0004285445,-0.001735818,0.0004040299,-0.1933585,-0.2136959,-9.789426
31656251,0.0006363504,-0.002002206,0.0004830694,-0.1984213,-0.2162569,-9.786246
31676178,0.0009821745,-0.002107349,0.0004520908,-0.2031166,-0.2139544,-9.796381
