TimeUS,AccX,AccY,AccZ,GyrX,GyrY,GyrZ,VN,VE,VD,V_horiz_m_s,V_3D_m_s,KE_horiz_J,KE_3D_J
31116221,-0.1975459,-0.2194719,-9.783074,0.0008728971,-0.0005700489,0.0005698288,0.0003643062,-0.005173864,-0.006982211,0.005186674049702221,0.008697865148780787,0.00016073698649468027,0.00045202582742459314
31136222,-0.2066113,-0.2209506,-9.789055,0.001225289,-0.001390729,0.0004960646,0.0003157402,-0.005034618,-0.007242691,0.005044508923554407,0.008826304051034104,0.00015204624492192476,0.0004654742681277737
31156261,-0.2018322,-0.219179,-9.786067,0.001091412,-0.001836064,0.0004417313,0.0004352881,-0.005030057,-0.007107344,0.005048856222279519,0.008718101162958973,0.0001523084211906724,0.00045413159512832995
31176243,-0.2012616,-0.2157239,-9.781568,0.001066394,-0.002219961,0.0003064158,0.00045184,-0.004912648,-0.007079855,0.004933383195891436,0.008629172415621849,0.00014542116180108638,0.0004449141340567108
31196554,-0.2042897,-0.2169222,-9.791855,0.001067196,-0.00233353,0.0002851678,0.0004697348,-0.004776002,-0.007750305,0.0047990463517593816,0.009115814471530233,0.0001376093041708518,0.0004965109890391761
31216236,-0.1974295,-0.215647,-9.780245,0.0006869836,-0.002249383,0.0002092197,0.0007041713,-0.004725581,-0.00697785,0.004777758157054906,0.008456793933270734,0.00013639116371864555,0.000427316247688083
31236237,-0.2019711,-0.2070799,-9.774263,0.0006590429,-0.001845145,0.0001107417,0.0008665473,-0.004307665,-0.007183097,0.004393959714808761,0.008420437309710897,0.00011535861980278966,0.00042364999280845845
31256453,-0.1974317,-0.2076341,-9.788358,0.0008008486,-0.001726848,2.44272e-05,0.000984581,-0.004303639,-0.007377321,0.004414828239907188,0.00859741667740508,0.00011645698261759494,0.0004416455518114149
31276196,-0.2023636,-0.2169464,-9.789366,0.0008388679,-0.001747483,-4.697952e-05,0.0009324253,-0.004266799,-0.007364748,0.004367492489573519,0.008562388904387904,0.00011397306911272451,0.00043805415990616085
31296562,-0.2059952,-0.2188265,-9.78681,0.0008432237,-0.001873147,-9.88237e-05,0.001016365,-0.004309413,-0.007501364,0.004427644770958257,0.008710596998959945,0.00011713412835131912,0.0004533501379677828
31316240,-0.2012396,-0.2261809,-9.790811,0.001101582,-0.001663643,-8.898399e-05,0.001208088,-0.004294309,-0.007799906,0.004461005088903732,0.008985493865785062,0.00011890588425926934,0.00048241612257206437
31336214,-0.1981638,-0.2235046,-9.798132,0.00135348,-0.001668481,-1.374893e-06,0.001273892,-0.004482645,-0.007936735,0.004660140236483126,0.009203731280514117,0.0001297585194665418,0.0005061343001663863
31356237,-0.2033996,-0.2241856,-9.792853,0.001285146,-0.001847421,0.000195889,0.001274018,-0.004324222,-0.008215231,0.004507994872402585,0.009370807764166812,0.00012142405617340776,0.0005246769279639898
31376224,-0.2057491,-0.2101244,-9.788507,0.001193398,-0.001734645,0.0004030724,0.001429602,-0.004027705,-0.007906288,0.004273893944101679,0.008987522427475383,0.00010914036243643829,0.0004826339673216286
31396572,-0.2013531,-0.2149579,-9.777603,0.0006660964,-0.001200135,0.0005819065,0.001682089,-0.004260321,-0.00805498,0.004580366625823964,0.009266199934566597,0.00012535405660109793,0.000513028205833488
31416425,-0.2055062,-0.2179716,-9.795864,0.0003964542,-0.0008085156,0.0008040623,0.001542093,-0.003992511,-0.008479499,0.004279976040326628,0.009498426090504206,0.00010945121456197575,0.0005390650867257067
31436205,-0.2084577,-0.212695,-9.797857,0.000165034,-0.0004146548,0.001128024,0.001343271,-0.003711334,-0.008625702,0.003946945279453086,0.009485837444938692,9.308080280800707e-05,0.0005376371443900111
31456245,-0.224378,-0.2061053,-9.794839,-1.071913e-05,-0.0002413888,0.001252107,0.0009348837,-0.003608715,-0.008797986,0.0037278454211180337,0.009555176039191884,8.303356811541036e-05,0.0005455258001111816
31476196,-0.2170096,-0.2158,-9.798524,-0.0001083584,-0.0003296787,0.001035808,0.001076769,-0.003517686,-0.008978518,0.003678796851411749,0.009702954794817968,8.086293898689307e-05,0.000562530307207929
31496567,-0.2072105,-0.2113743,-9.792421,0.0001668721,-0.0005156911,0.0007255409,0.001028676,-0.003271767,-0.009001369,0.003429669607304033,0.009632615298527498,7.028173585120836e-05,0.0005544039829993204
31516265,-0.213238,-0.2058646,-9.793076,0.0005062798,-0.0006645304,0.000490155,0.0006715385,-0.002900146,-0.009235128,0.0029768793691210015,0.009703061370241985,5.2949319400332054e-05,0.0005625426647292266
31536172,-0.2077346,-0.2121195,-9.792754,0.0005774684,-0.0008208828,0.0004836331,0.0008901576,-0.00295298,-0.009413945,0.003084229471559754,0.009906302635002766,5.6837016813595605e-05,0.0005863556205801699
31556240,-0.1984105,-0.2113552,-9.798896,0.0005966846,-0.000725846,0.0005349957,0.001206381,-0.002775422,-0.009419703,0.0030262720292870238,0.009893893419855198,5.472097631158888e-05,0.0005848875338456376
31576437,-0.1992335,-0.2117822,-9.794317,0.0006733263,-0.001301326,0.0005906239,0.0012251,-0.002485668,-0.009787747,0.0027711758183529243,0.010172482821427273,4.5884507111938396e-05,0.0006182894553445921
31596580,-0.2034278,-0.2164398,-9.801777,0.0005024806,-0.001651012,0.0006698677,0.001291851,-0.002754318,-0.01013173,0.0030422272517556938,0.010578615195016076,5.5299501241666886e-05,0.0006686449191792444
31616263,-0.2028199,-0.2178881,-9.800821,0.0003998046,-0.001577602,0.0005633333,0.001456503,-0.002401916,-0.01014904,0.0028090214417239683,0.010530603704520695,4.714634372388838e-05,0.0006625893459304482
31636203,-0.1933585,-0.2136959,-9.789426,0.0004285445,-0.001735818,0.0004040299,0.001980186,-0.002487144,-0.01015481,0.003179154269822715,0.010640826472010152,6.038945568120869e-05,0.0006765324483444063
31656251,-0.1984213,-0.2162569,-9.786246,0.0006363504,-0.002002206,0.0004830694,0.001932791,-0.002354252,-0.01000664,0.0030460110848755948,0.010459972639485489,5.543714658688036e-05,0.0006537308900222404
31676178,-0.2031166,-0.2139544,-9.796381,0.0009821745,-0.002107349,0.0004520908,0.00202595,-0.002125,-0.01036139,0.002936000409145067,0.01076933150825064,5.1505087954937505e-05,0.0006929715442792349
31696569,-0.2025129,-0.2127635,-9.789213,0.001364283,-0.002258779,0.0003220637,0.002170767,-0.002095105,-0.009989982,0.003016901445078046,0.010435585019041242,5.438262361765115e-05,0.000650686072270587
31716237,-0.1912239,-0.2165061,-9.78847,0.00168261,-0.002271605,-6.006698e-05,0.002858701,-0.001972813,-0.01006217,0.003473350333664889,0.010644784058367272,7.208337117871073e-05,0.0006770357802043883
31736428,-0.1880751,-0.2187091,-9.78299,0.001682421,-0.002352655,-4.251358e-05,0.003106579,-0.002081586,-0.009690962,0.003739496404415573,0.010387424023504623,8.355340431785606e-05,0.0006446940026183837
31756264,-0.1973217,-0.2244743,-9.771018,0.00141277,-0.002230496,7.595881e-05,0.00323925,-0.002122691,-0.009312152,0.00387279713436955,0.010085372205084204,8.961638192278646e-05,0.0006077455267776329
31776224,-0.2067061,-0.2217935,-9.786171,0.001466675,-0.002417608,0.0001438128,0.003418967,-0.002180991,-0.00953833,0.0040553738531940555,0.010364641637706052,9.826519110779075e-05,0.0006418691327614682
31796581,-0.1930464,-0.2246567,-9.792497,0.0008882555,-0.001997598,0.0002055847,0.003947391,-0.002251952,-0.009369937,0.004544577374980538,0.010413880299924424,0.00012340277151518035,0.0006479821948343952
31816227,-0.1954734,-0.2172603,-9.788594,0.0003720955,-0.001637222,0.0001782143,0.004137148,-0.002133286,-0.00921581,0.004654772038639487,0.010324633489272149,0.00012945974382190753,0.0006369233887096048
31836215,-0.1912991,-0.2172465,-9.783465,0.0001173398,-0.00096281,-1.082475e-05,0.004593165,-0.002214413,-0.008830378,0.0050990969447338415,0.010196880173596138,0.00015535471816946912,0.000621258782516201
31856273,-0.1903979,-0.2179866,-9.778286,-0.0001463141,-0.0004312042,9.615487e-06,0.005017461,-0.001964307,-0.008635701,0.005388266592956403,0.010178838275469898,0.00017347466583870073,0.0006190622731130716
31876216,-0.1928688,-0.2094959,-9.784291,-0.0005378881,-0.0001155283,0.0001357802,0.005049879,-0.001783775,-0.008590567,0.005355663466393871,0.010123288623108352,0.00017138170871246438,0.0006123238109668611
31896827,-0.1990441,-0.2119699,-9.783139,-0.0005616269,-0.0001340881,0.0001488939,0.00520983,-0.001537872,-0.008434651,0.005432069487523517,0.010032483062985206,0.00017630658903077187,0.0006013880305442829
31916222,-0.2047316,-0.2112393,-9.782513,-0.0003857625,-0.0005024268,0.0001432845,0.005424602,-0.001441289,-0.007935585,0.00561280864095018,0.009719934677360233,0.00018823413451855186,0.0005645008525395961
31936234,-0.2095276,-0.2070779,-9.774899,-0.0002270949,-0.000917163,0.0001834732,0.005281569,-0.001089701,-0.007823657,0.005392811824193572,0.00950221175436598,0.00017376745574269295,0.0005394948686432456
31956261,-0.205807,-0.2114044,-9.782219,-0.0001663861,-0.00095288,0.000183562,0.005597343,-0.001142674,-0.007812144,0.005712788507368796,0.00967809621809274,0.00019499981636630188,0.0005596516397797994
31976187,-0.2042269,-0.2186336,-9.778775,0.0003115934,-0.0008181838,0.000174147,0.005627266,-0.001074105,-0.007419942,0.005728858890370839,0.0093741860163507,0.0001960984495100415,0.0005250552967281414
31996580,-0.2120917,-0.2150561,-9.769957,0.0005575997,-0.0007998311,0.0002175764,0.005516673,-0.0009116086,-0.006741622,0.0055914856012085875,0.008758663049770037,0.00018680664959042466,0.0004583672160559566
32016232,-0.2148217,-0.2101187,-9.769158,0.0003996771,-0.0005062643,0.0001861149,0.00534998,-0.0006302792,-0.006458506,0.005386978547419012,0.008410222210048236,0.00017339173877535706,0.00042262272979377207
32036146,-0.2106823,-0.2064165,-9.777576,0.0002142253,-0.0004561929,0.0002447815,0.005468036,-0.0003155162,-0.006454687,0.005477131381458587,0.008465338294346389,0.0001792438348143067,0.0004281801658154213
32056496,-0.2005549,-0.202054,-9.783998,1.894696e-05,-0.0003670743,0.0001664714,0.005717254,1.132687e-05,-0.006470526,0.005717265220234234,0.008634513785684519,0.00019530555155103748,0.0004454650991831766
32076224,-0.2018194,-0.2092199,-9.797957,-8.494486e-05,-0.0001698995,0.0001209372,0.005916225,7.114398e-05,-0.006778893,0.0059166527459802165,0.00899778695135444,0.0002091655088061785,0.00048373701588123625
32096569,-0.2033682,-0.2097661,-9.794217,-2.250751e-05,-6.360441e-05,0.0001336651,0.006061462,0.0002313698,-0.006585149,0.006065876157802436,0.008953158153076323,0.0002198492500317313,0.0004789502694611323
32116246,-0.1909355,-0.2113837,-9.781377,0.0001047293,-0.0002673389,0.0001933839,0.006531578,0.0003669796,-0.006517874,0.006541879332187361,0.009234655742190727,0.00025570720655147843,0.0005095412283937376
32136189,-0.1937919,-0.2092014,-9.773633,0.0001615584,-0.0006230907,0.0002670466,0.006645222,0.000751594,-0.006213569,0.0066875906700485195,0.009128653169437484,0.000267225117096467,0.000497910544410089
32156261,-0.204426,-0.2093378,-9.784842,1.500991e-06,-0.0009103382,0.000281793,0.006715413,0.0007303614,-0.006275122,0.006755012918949819,0.009219943364796932,0.0002726404422226943,0.0005079189500091263
32176242,-0.2076576,-0.2165709,-9.782842,-0.0002331656,-0.001512865,0.0001763528,0.006662724,0.0006618093,-0.006213109,0.006695512127518141,0.00913414506648671,0.00026785854883221144,0.0004985098214213504
32196579,-0.2102407,-0.2222603,-9.776192,-0.0001322997,-0.001805988,0.0001284762,0.006585349,0.0006001376,-0.005886033,0.006612638398607228,0.008852817126080475,0.00026126874487964017,0.0004682749171302469
32216423,-0.2080762,-0.2260177,-9.778349,0.0002432743,-0.002046544,-3.685273e-05,0.006952445,0.0005753732,-0.005868135,0.006976212854930907,0.009116060233210849,0.0002907885861388868,0.0004965377611987811
32236256,-0.1989108,-0.2189809,-9.781085,0.0002655838,-0.002137896,5.067383e-05,0.00726304,0.0006262041,-0.005718977,0.007289985021689469,0.009265558782015567,0.00031753469265832947,0.0005129572127693401
32256255,-0.1977133,-0.2086273,-9.786057,-2.746648e-05,-0.001653153,0.000177832,0.007474869,0.001003189,-0.005808646,0.00754188668284548,0.009519475988214792,0.00033985832705286993,0.000541457027963933
32276217,-0.199579,-0.2082486,-9.785441,-0.0002797217,-0.00129713,0.0002701937,0.007648968,0.001002546,-0.005796323,0.007714389797459032,0.00964930931556601,0.00035558306443416154,0.0005563272923481272
32296613,-0.1959192,-0.2101188,-9.789741,-0.0005788187,-0.000580464,0.0002645181,0.00809334,0.001343822,-0.005859694,0.00820414589846402,0.010081866082076273,0.00040216535929162185,0.0006073230415890969
32316249,-0.1998893,-0.2004144,-9.779208,-0.0005666878,-8.719104e-05,9.326881e-05,0.008060043,0.00173782,-0.005579141,0.008245259942187935,0.009955457087051804,0.0004062062612976377,0.0005921889767274767
32336216,-0.2002671,-0.2045895,-9.782393,-0.0005850285,0.0002317827,-0.0001985766,0.008347844,0.001815331,-0.005727782,0.008542945984137849,0.010285398034467163,0.00043606700837518455,0.0006320917410463404
32356270,-0.1961131,-0.21236,-9.781941,-0.0002627866,0.0002284744,-0.0001362565,0.008691919,0.002023937,-0.005407669,0.008924448267681873,0.010434972970549133,0.00047588351687311665,0.0006506097488541436
32376419,-0.2101831,-0.2079275,-9.788,-8.652295e-06,-0.0001693869,-9.065108e-05,0.008487377,0.002212128,-0.005735049,0.00877092233624908,0.010479497395434287,0.0004596512448053652,0.0006561736973239612
32396569,-0.2044243,-0.2042708,-9.779284,0.0002129132,-0.0005323922,-5.88503e-05,0.008734439,0.002538816,-0.005353737,0.009095933779803863,0.010554549312582987,0.0004943476676762974,0.0006656061043706824
32416222,-0.1987674,-0.206865,-9.777701,0.0004154693,-0.001060409,-1.10735e-05,0.009012178,0.002638998,-0.005217215,0.009390615674581085,0.010742578605898724,0.0005268973849174356,0.00068953289574588
32436222,-0.1962322,-0.2088375,-9.781542,2.254783e-05,-0.001115394,-6.90224e-06,0.009088013,0.002858721,-0.00539444,0.009527028185326733,0.010948253237736603,0.0005423164896129596,0.0007161888875217197
32456267,-0.2017127,-0.2131299,-9.782396,-0.0002244241,-0.001090791,2.886486e-05,0.00940135,0.002873273,-0.005250937,0.009830619489891215,0.011145107398899214,0.0005774304503412983,0.000742175178124663
32476194,-0.2019659,-0.2146099,-9.790561,-0.0004757698,-0.0008061092,0.0002512783,0.009551137,0.002833547,-0.005723388,0.009962590355624284,0.011489576876130905,0.0005930379093990185,0.000788762001335319
32496611,-0.2088765,-0.2131021,-9.791098,-0.0003489089,-0.0004272689,0.0003593391,0.009329302,0.002961256,-0.005880992,0.009787998411561987,0.01141888697767011,0.0005724343546058213,0.0007790861043576038
32516206,-0.2070152,-0.215615,-9.788003,-3.103738e-05,-0.0003660576,0.0003020066,0.009827942,0.002988144,-0.006275531,0.01027216863763928,0.012037430699782282,0.0006304667549075976,0.0008657759336660643
32536411,-0.1908037,-0.2177321,-9.788543,0.0002313958,-0.0005212133,0.0002947852,0.01030685,0.003123529,-0.006411853,0.010769753494687841,0.012533931914205933,0.0006930258522596372,0.0009386692091489511
32556229,-0.1907167,-0.217643,-9.784554,0.0001195091,-0.0009198156,0.000418525,0.01049586,0.002959303,-0.006512092,0.010905069985351262,0.012701491786474256,0.0007105502945278186,0.0009639341642711911
32576220,-0.2026104,-0.221833,-9.782169,0.0001296078,-0.001586486,0.0003298539,0.01056238,0.002930646,-0.006508574,0.010961412191944795,0.01274810153533427,0.0007179115295192531,0.0009710217042122718
32596574,-0.2037604,-0.2141142,-9.789218,-0.0001234857,-0.001934977,0.0004842227,0.01074542,0.003092963,-0.006927163,0.011181702513292374,0.013153556869696425,0.0007470570647972196,0.0010337709484879195
32616215,-0.1946067,-0.2078678,-9.78568,-0.0003523403,-0.001773167,0.0005687394,0.01127375,0.003368968,-0.007079099,0.011766366662973069,0.013731752513766224,0.0008272231220739558,0.001126652136918467
32636190,-0.1966845,-0.2081708,-9.785445,-0.0001287301,-0.001097438,0.0004174869,0.01143494,0.003379208,-0.007213601,0.011923795516146023,0.013936030241717511,0.0008495069745774124,0.0011604223099159383
32656228,-0.19891,-0.2085478,-9.785326,1.664091e-05,-0.0003304137,0.0002795094,0.01157165,0.003622697,-0.007460769,0.012125469775489483,0.014236927033165198,0.0008784864282259461,0.0012110732958023282
32676203,-0.2050393,-0.207522,-9.795087,0.000242283,0.000438281,0.0002173186,0.01153813,0.003942934,-0.007978882,0.012193242900281122,0.014571812872638052,0.0008883341552409045,0.0012687179391112006
32696799,-0.2098627,-0.2030688,-9.798502,0.000465838,0.0009151973,-6.246083e-05,0.01163478,0.004182683,-0.008312698,0.012363775423667683,0.014898452629924123,0.0009133560827931617,0.0013262342473274057
32716253,-0.2010611,-0.206735,-9.796182,0.0007584267,0.001250665,-0.0004920039,0.01197634,0.004177458,-0.008651982,0.012684000754389918,0.015353848627158209,0.0009612811539457498,0.0014085504893024858
32736210,-0.2000466,-0.2160529,-9.78696,0.0009531208,0.0006212031,-0.0004862773,0.01203905,0.004194126,-0.008742351,0.012748702593063186,0.01545827024002288,0.0009711132713930966,0.0014277747599111227
32756266,-0.2080636,-0.2120587,-9.782947,0.0007452274,3.426505e-05,-0.0002443795,0.01170853,0.004623383,-0.008763302,0.01258830191588957,0.01533821394650606,0.0009468304371253943,0.001405683322236038
32776232,-0.2319632,-0.2053116,-9.802915,0.0009427829,-0.0004845087,8.480803e-06,0.01036737,0.007695826,-0.01879764,0.012911549037167307,0.02280481019672771,0.0009960808887715766,0.0031073547244499368
32796580,-1.191394,-0.4095154,-10.38344,-0.008680501,-0.0255555,0.006920457,-0.003788935,0.004612648,0.006556536,0.005969300629565326,0.0088668322599125,0.0002129044862866208,0.0004697587680944144
32816162,-1.818004,-0.1207372,-8.89303,-0.003160428,-0.04337344,0.03577257,-0.06737392,-0.002909427,-0.01885087,0.06743671004456497,0.07002189058709875,0.027172566423267513,0.029295814339314975
32836183,-2.128998,-0.07533071,-9.746092,0.02558341,-0.06465727,0.08317521,-0.09452295,0.01217445,-0.006920557,0.09530375286160035,0.09555469333682803,0.054269761724292355,0.05455592902670411
32856506,-1.626096,0.4190194,-9.862731,0.03217519,-0.0570479,0.1412678,-0.1135896,0.02542713,-0.01438268,0.11640075673378115,0.117285965282208,0.08095608860497647,0.08219208597177131
32876245,-1.005775,0.6810888,-9.75586,0.02820021,-0.042286,0.1919409,-0.1255285,0.04800496,-0.007373939,0.13439449578331544,0.13459663990318377,0.10791973596868826,0.10824462645253324
32896610,-0.7098582,0.8080748,-9.715239,0.02519107,-0.02668851,0.2226651,-0.1321844,0.0696054,-0.009334321,0.14939085417963177,0.14968218618476628,0.133347823192307,0.13386842224477993
32916214,-0.8548827,0.520068,-9.85863,0.02169437,-0.01339225,0.2229195,-0.1558954,0.06608607,-0.01923533,0.16932437624041288,0.17041344521314566,0.17130769772549925,0.17351843529874744
32936246,-1.39146,-0.2414065,-10.35507,0.03567735,-0.01548064,0.1787655,-0.1808146,0.06280478,-0.02388555,0.19141149381374256,0.19289603278142062,0.21891420078495022,0.22232305479029513
32956269,-1.85707,-0.4582152,-9.316164,0.04924154,-0.03076006,0.08416048,-0.2235797,0.06902903,-0.002195866,0.23399335297146986,0.23400365608750828,0.3271485131781145,0.32717732359736706
32976124,-2.391464,-0.2328143,-9.331561,0.04193405,-0.02350363,-0.02229177,-0.269703,0.05805124,0.008647871,0.2758797830116183,0.2760152900608411,0.45475518668036213,0.45520203107553714
32996569,-2.76581,-0.2060397,-10.25009,0.01860056,-0.01429932,-0.09994338,-0.3165285,0.06970501,-0.04661398,0.32411275774234816,0.327447618502243,0.6276682513948166,0.6406511086051732
33016448,-2.579081,-0.572069,-9.012179,0.02380991,-0.006071475,-0.1308623,-0.3572069,0.05214126,0.02367095,0.36099235504647126,0.36176759705078637,0.7786349954019354,0.7819828707985031
33036232,-1.785171,-0.08812951,-10.42001,0.009308002,0.006383992,-0.1158348,-0.3754046,0.05660531,-0.06201768,0.37964822509970475,0.38468034451208766,0.8611933295576026,0.8841743305372821
33056274,-1.677688,-0.1850583,-10.38692,-0.01059135,0.01085466,-0.07331381,-0.4051311,0.05771607,-0.01431514,0.40922164278475653,0.4094719479484212,1.000587558717643,1.0018119750361303
33076213,-1.746588,-0.0352446,-8.882747,0.01234859,-0.001347318,-0.04934912,-0.4479677,0.06752779,-0.007672252,0.453028765825719,0.4530937277388925,1.2262794994268056,1.2266312085450457
33096562,-2.245065,0.09688678,-9.569531,0.0214567,-0.005179913,-0.04516873,-0.4898685,0.07070135,0.008099236,0.4949442677555449,0.49501053100702436,1.4636947233998332,1.4640866692019407
33116227,-2.732319,-0.01255853,-9.911421,0.0007948105,0.005320699,-0.04474898,-0.5607237,0.07239133,-0.02305601,0.5653773716738749,0.5658472868168398,1.909918145095132,1.9130943331879244
33136214,-2.642542,0.1271186,-9.819694,-0.01088476,0.01117812,-0.02592427,-0.5801544,0.08699866,0.00116511,0.5866411975655609,0.586642354558949,2.0562836707199037,2.056291781670744
33156224,-2.05887,-0.2156904,-9.17954,0.02258595,0.004757969,-0.01014456,-0.60915,0.08625332,-0.002663125,0.6152262654593206,0.6152320293562324,2.2615575623233584,2.2615999384260834
33176441,-1.330896,0.05159058,-9.443156,0.02466863,0.02995169,-0.01825224,-0.6153865,0.0862287,-0.01045024,0.6213983690724815,0.6214862352474088,2.3071622001884906,2.3078147150969346
33196560,-1.137518,-0.4597073,-10.44997,0.007048008,0.04872566,-0.05917191,-0.6601253,0.08550227,-0.01491677,0.6656395795588201,0.6658066986013852,2.647379398004576,2.6487088954172924
33216243,-1.361459,-0.6335412,-9.748794,-0.005814882,0.04986087,-0.1146256,-0.6649047,0.07185027,-0.009441805,0.6687755388627509,0.6688421854689048,2.6723828102524476,2.672915467650355
33236174,-1.459104,-0.6553575,-9.550185,-0.008169742,0.04256799,-0.1758231,-0.6980872,0.06631527,-0.009168006,0.7012299578875769,0.7012898874025127,2.938047636688102,2.9385498493838482
33256217,-1.579911,-0.7382579,-9.743507,-0.008268091,0.03818467,-0.2328352,-0.7243884,0.0575543,-0.009345524,0.7266712127936884,0.7267313054505665,3.1551050327307233,3.1556268821732605
33276222,-1.452222,-0.5372483,-9.809563,-0.005397333,0.02903044,-0.2826718,-0.7494263,0.06027254,-0.006739314,0.7518461000828172,0.7518763040307442,3.3775035353032052,3.3777749099635193
33296583,-1.339593,-0.3138836,-9.568969,-0.006893419,0.02167277,-0.3270684,-0.7563371,0.0709535,-0.01833787,0.7596579546076379,0.7598792571683983,3.448054242791993,3.4500635007119107
33316285,-1.276678,-0.2274912,-10.0873,-0.006425643,0.01478043,-0.3715196,-0.7833115,0.06103145,-0.02238183,0.7856855248261562,0.7860042558634791,3.688377919930081,3.691371074157122
33336410,-1.252135,-0.285602,-9.726415,-0.01414165,0.002094694,-0.4168524,-0.8082542,0.07041371,-0.01020118,0.8113155627581689,0.8113796931443358,3.9329418306822848,3.9335636135208043
33356260,-1.157429,-0.08774971,-9.847986,-0.02138809,-0.004604727,-0.4619873,-0.819531,0.07527854,-0.02928833,0.8229811167612121,0.8235021097846201,4.046855063309553,4.05198045579783
33376204,-1.193186,0.04575599,-9.468631,-0.02768262,-0.01160317,-0.5082302,-0.8446948,0.08027377,-0.000924026,0.8485005499686213,0.8485010531054759,4.3017202701998905,4.3017253717985815
33396570,-1.04622,0.09197829,-9.757483,-0.02349433,-0.01108313,-0.5582848,-0.8636016,0.08813503,-0.01965454,0.8680872692510014,0.868309741957484,4.502613654538073,4.504921802670178
33416214,-0.983241,0.0777303,-9.887724,-0.02464543,-0.01052718,-0.6140387,-0.8749595,0.1002597,-0.0102412,0.8806850368232334,0.8807445806031281,4.634246651153932,4.634873322164135
33436168,-0.9098324,0.02539503,-9.705984,-0.02551881,-0.01012535,-0.6690682,-0.8971662,0.1061106,-0.009154629,0.9034194207868237,0.9034658029427166,4.87659573288243,4.877096481094393
33456242,-0.9265428,0.2081442,-9.500011,-0.02866171,-0.007263266,-0.7233936,-0.9039654,0.1142019,-0.01278469,0.9111506562368104,0.9112403451665023,4.960418222205601,4.961394825788518
33476230,-0.9185221,0.279011,-9.985044,-0.02376705,-0.007849308,-0.7751904,-0.9112152,0.1378734,-0.02334213,0.9215867919727365,0.9218823515891477,5.074700235453134,5.077955744274933
33496827,-0.6422194,0.2638248,-10.02925,-0.02553631,-0.004921899,-0.8278695,-0.9703159,0.1591308,0.006816973,0.9832779654306558,0.9833015958607678,5.776842454876164,5.777120119823438
33516223,-0.6973398,0.1840332,-9.729259,-0.03371752,-0.00184569,-0.8834886,-0.9334542,0.1569485,-0.009542225,0.9465566941023078,0.9466047903997954,5.353418211520592,5.353962259516846
33536234,-0.7367408,0.1954098,-9.913262,-0.03608486,0.0001396652,-0.9361323,-0.9310467,0.1583087,-0.01622348,0.9444096579750653,0.944548994695294,5.329159872407564,5.330732500194845
33556252,-0.574866,0.3461306,-10.41315,-0.04526416,-0.008075732,-0.9872499,-0.9385551,0.1893572,-0.04295652,0.957466357073631,0.9584294901234834,5.477532403943902,5.488557848041704
33576214,-0.6499541,0.4029072,-9.571576,-0.04727056,-0.01766855,-1.030686,-0.9478593,0.1887459,-0.006959112,0.966468968649951,0.966494023056081,5.581022047495717,5.581311412203692
33596563,-0.6348991,0.3446429,-9.382082,-0.03525574,-0.02672557,-1.073861,-0.9538032,0.207487,-0.01622001,0.9761103418667584,0.9762450963890369,5.692928612007958,5.694500567136249
33616232,-0.4765004,0.4877892,-9.916866,-0.04408303,-0.02361761,-1.121554,-0.9512901,0.2300939,-0.01751521,0.9787216443786354,0.9788783579978486,5.72342894162194,5.725261967545472
33636232,-0.4853714,0.6242414,-9.906183,-0.05138882,-0.0218379,-1.175776,-0.9498643,0.2435544,-0.01554315,0.980592134464605,0.9807153122521196,5.7453265816887535,5.7467700790224905
33656421,-0.5704421,0.3666746,-9.403829,-0.05011402,-0.02025478,-1.231253,-0.9540538,0.2645236,-0.0037434,0.9900461546066426,0.9900532315461427,5.8566435448021155,5.856727272737386
33676178,-0.3960092,0.5935801,-9.813742,-0.04480024,-0.01305733,-1.288044,-0.9529252,0.2741472,-0.00842151,0.9915760808243007,0.9916118423524197,5.874758166275708,5.875181924214021
33696553,-0.494978,0.3625752,-9.597159,-0.04411591,-0.01519171,-1.350512,-0.9520673,0.2967744,-0.003912282,0.9972498123462596,0.9972574863971178,5.942180449642284,5.9422719026962065
33716194,-0.2090343,0.4772315,-10.07195,-0.04560786,-0.01901107,-1.412751,-0.9498556,0.2991183,-0.005892652,0.9958400565584064,0.9958574906048773,5.925392074021343,5.9255995460232125
33736211,-0.4076728,0.7734924,-10.05455,-0.07231133,-0.03634534,-1.482859,-0.933486,0.3331878,-0.02033978,0.9911660921686335,0.9913747671366709,5.869901078032419,5.872372975268848
33756287,-0.496593,0.7747172,-9.041158,-0.07771009,-0.03626754,-1.549495,-0.9336922,0.3378726,0.002807303,0.9929446198915627,0.992948588357793,5.890985633575308,5.891032722252358
33776174,-0.2134425,1.20015,-10.38184,-0.06795806,-0.03213369,-1.62033,-0.9023666,0.3693436,-0.04147858,0.9750282947979099,0.9759101640291161,5.680314049547706,5.690593873325634
33796574,-0.0172105,0.8077976,-9.648594,-0.06984391,-0.02340498,-1.686599,-0.9051503,0.3908291,-0.01160783,0.9859231465975934,0.9859914769987663,5.807965594706475,5.808770676467397
33816434,0.006426555,1.189096,-9.864913,-0.06421821,-0.02092591,-1.735515,-0.8923714,0.4016285,0.005541646,0.9785868216720528,0.978602512458761,5.7218522011125055,5.722035692408831
33836234,0.08225398,1.138191,-9.980699,-0.0553137,-0.02513338,-1.766971,-0.8429772,0.4252089,-0.04365002,0.9441467938615531,0.9451552743359424,5.326193680945323,5.337577993315176
33856234,0.1459143,1.202763,-9.754113,-0.05795003,-0.0285585,-1.785282,-0.85022,0.4433893,0.008161883,0.9588890028332215,0.9589237384112438,5.493822015533078,5.494220048129358
33876206,0.04678666,1.403565,-9.957461,-0.0648101,-0.03160313,-1.796741,-0.8031504,0.465262,-0.04035167,0.9281806363333378,0.9290573453430897,5.147577779643355,5.157306616842295
33896567,0.1200714,1.078729,-9.63302,-0.07034575,-0.02610495,-1.803061,-0.7988675,0.477649,-0.0192499,0.9307727164873549,0.930971754892306,5.176368652299568,5.178582740233378
33916266,0.1342052,1.380664,-10.09298,-0.0683177,-0.02322212,-1.804772,-0.7641074,0.4868228,-0.03046973,0.9060113450363633,0.9065235583154322,4.904617930074235,4.910165146640715
33936192,-0.08658825,1.551963,-9.785588,-0.06497941,-0.02003966,-1.803928,-0.7273061,0.5257384,-0.02095168,0.8974268930290479,0.8976714327784929,4.8121157942823265,4.814738657328889
33956279,0.08597282,1.789832,-9.873796,-0.05344036,-0.01061086,-1.786853,-0.689583,0.5373996,-0.02976007,0.8742557085711021,0.8747620852183552,4.56683018771573,4.57212201677
33976433,-0.1069945,1.750646,-9.843365,-0.05741698,-0.009765851,-1.756492,-0.6730739,0.5562993,-0.02398177,0.8732109630791978,0.8735402173535189,4.555921881599158,4.559358255220848
33996573,0.489308,1.406953,-10.40968,-0.07090241,-0.02176754,-1.706258,-0.6433284,0.5650346,-0.03220705,0.8562333381991851,0.8568388550441808,4.3804847884262275,4.3866826204927
34016234,0.3082526,1.015774,-9.112679,-0.07212994,-0.03427272,-1.642622,-0.630917,0.5644312,-0.005893838,0.8465452382610393,0.8465657551240838,4.281917071524078,4.282124627049141
34036192,0.7528996,0.6931747,-9.418774,-0.05528757,-0.03416951,-1.582416,-0.5882693,0.5463107,-0.01699449,0.8028176320042928,0.8029974862646458,3.850983997785456,3.852709653610357
34056246,-0.794194,1.05712,-10.38743,-0.03448943,-0.05157947,-1.526927,-0.5890146,0.6160581,-0.02933345,0.8523296202695116,0.8528342352870649,4.3406330449929005,4.3457742414440945
34076214,-1.438239,1.354352,-9.422786,-0.02718809,-0.05080016,-1.447254,-0.5855803,0.6389749,-0.003968,0.8667140304495481,0.8667231135732449,4.488379433204148,4.488473509722548
34096608,-1.765881,1.581045,-10.18431,-0.01015264,-0.05541489,-1.341774,-0.5662018,0.6790603,-0.027496,0.8841421658078127,0.8845696125095694,4.670701531921995,4.675218811267595
34116274,-1.516984,1.684806,-9.632459,-0.02451912,-0.04858616,-1.210282,-0.5397965,0.7231628,-0.01447577,0.9024104923570482,0.9025265894327894,4.865709562878638,4.8669616116832675
34136421,-1.419356,1.873328,-9.711935,-0.02416367,-0.03944513,-1.068522,-0.5146751,0.7625015,-0.01545217,0.9199451049178207,0.9200748695731065,5.056636501472004,5.058063149579314
34156281,-1.382189,1.755598,-9.69859,-0.02123506,-0.0290436,-0.9238687,-0.4915086,0.7892336,-0.01452379,0.9297689924077485,0.9298824225238824,5.165210515976446,5.166470885320333
34176210,-1.300674,1.875656,-9.683955,-0.02413666,-0.01584837,-0.7826604,-0.4573509,0.8329989,-0.02875367,0.9502931195857519,0.9507280298121481,5.395765653463821,5.40070562535617
34196564,-1.487989,1.661952,-9.836492,-0.01710801,-0.01100746,-0.6449196,-0.4393219,0.8692142,-0.019598,0.9739286715675075,0.9741258331987969,5.667508917374968,5.66980380495887
34216270,-1.794001,1.44997,-9.413766,-0.01962184,-0.001013899,-0.5022891,-0.4436567,0.9242495,-0.01478749,1.0252162726494054,1.0253229128258279,6.280133724088211,6.2814402765047
34236210,-1.955637,1.382084,-10.07958,-0.01006425,0.00419641,-0.3398669,-0.4248896,0.970292,-0.02707353,1.0592439461484593,1.05958987984919,6.703936481276656,6.708316013035955
34256259,-1.558878,0.61978,-9.723928,-0.006965125,0.007069381,-0.1754572,-0.4358553,0.9765932,-0.003239572,1.0694410319528282,1.0694459386294723,6.833632121925373,6.833694828515162
34276221,-1.204375,0.2265364,-9.711708,-0.0002100496,0.0142113,-0.01879048,-0.4256472,0.9930823,-0.01944113,1.0804573075513582,1.0806321996761001,6.975143260810753,6.97740155708642
34296829,-0.05077685,0.08116657,-9.409561,0.0116735,0.04167701,0.1008233,-0.4241494,0.9644585,-0.01674012,1.053604722722241,1.0537377014040183,6.632745397662095,6.634419781577339
34316215,0.5165603,-0.1337619,-9.950037,0.01168676,0.05840468,0.1583668,-0.4258037,0.9647763,-0.004039196,1.0545625159161405,1.0545702513724282,6.644810047352895,6.6449075301012455
34336213,0.3097518,-0.2686509,-9.838965,0.01118663,0.07312042,0.1687233,-0.4263655,0.9633673,-0.02021706,1.053500875319779,1.053694843782859,6.631437963439755,6.633880122292137
34356281,0.05804251,-0.486812,-9.866098,0.0118662,0.07067967,0.1613368,-0.4289876,0.9472739,-0.01107585,1.0398837447402332,1.0399427277635016,6.461115260385448,6.461848240243449
34376241,0.2943264,-0.667182,-10.36961,0.003790958,0.05261904,0.1486506,-0.4284719,0.9386494,-0.03491342,1.031819201803286,1.0324097113578825,6.36128891962957,6.368572127333746
34396572,0.04715979,-0.2989345,-9.465407,-0.01715654,0.03220963,0.1384313,-0.4210069,0.9406121,-0.00683389,1.0305328391245083,1.0305554980526532,6.345437646771267,6.345716691535149
34416233,0.2605369,0.09165353,-9.742672,-0.01119264,0.01849055,0.1333222,-0.4132524,0.9230193,-0.02346071,1.011307161192014,1.0115792500797722,6.110884491312543,6.114173160671927
34436233,0.294267,-0.1853344,-9.7025,-0.02007422,0.01179023,0.124262,-0.4185943,0.9159356,-0.009443445,1.0070547211248502,1.007098997116628,6.059601287755601,6.060134130210074
34456418,-0.02531143,-0.08705374,-9.466315,-0.01809045,0.01468515,0.1150551,-0.4221657,0.9227273,-0.007070075,1.0147164867201972,1.0147411169270149,6.1521560518201355,6.152454717934156
34476196,0.09622358,-0.3931203,-10.2193,-0.01569302,0.01061241,0.117948,-0.4218936,0.9114035,-0.01601962,1.0043159610068984,1.0044437155750214,6.026687033460927,6.028220387104973
34496599,0.2007037,-0.3152942,-9.635226,-0.02201268,0.00889875,0.1247522,-0.4162996,0.9013296,-0.0147632,0.9928244581980844,0.9929342157819722,5.88955991865801,5.890862182301595
34516244,0.2624975,0.08959714,-9.87244,-0.02444202,0.006961581,0.1279657,-0.4103391,0.9008142,-0.01455238,0.989870900628183,0.9899778642344051,5.854570289464938,5.855835625752833
34536241,0.2368066,0.09871265,-9.542373,-0.01915363,0.007554429,0.127692,-0.3994239,0.8848337,-0.01500726,0.9708090072444218,0.9709249952491734,5.631259018067725,5.632604694737654
34556279,0.3199958,0.004519936,-9.917104,-0.01065848,0.009731887,0.1219571,-0.4086786,0.8911151,-0.01390259,0.9803592808485927,0.9804578530231058,5.74259830928717,5.743753169289202
34576266,0.2091042,-0.322513,-9.852481,-0.01326043,0.00949889,0.11702,-0.390006,0.8517185,-0.02418443,0.9367652231366459,0.9370773553622321,5.243236272587543,5.246730970347734
34596574,0.1933108,0.1120327,-9.931184,-0.002154968,0.01006285,0.1165807,-0.4014914,0.872344,-0.01206922,0.9603017226944663,0.9603775636078596,5.510021906694509,5.510892261471176
34616465,0.3926107,-0.2707394,-9.802903,0.005038897,0.009029566,0.1184908,-0.3948404,0.8575122,-0.01144752,0.9440477289952028,0.9441171327410335,5.325076034860475,5.325859033002523
34636200,0.3872401,-0.06092166,-9.851802,-0.002295431,0.008008601,0.1150526,-0.3763684,0.8389823,-0.02558846,0.919534921703276,0.9198908856581967,5.052128221585303,5.056040468064203
34656215,0.3516033,-0.1474871,-9.668771,0.001114209,0.001177262,0.1137027,-0.3854223,0.8429548,-0.01336212,0.9268889600056363,0.9269852698027216,5.1332607864774715,5.134327600326566
34676217,0.30854,-0.2725714,-9.987222,0.005591447,-0.008195123,0.1109524,-0.3824188,0.822847,-0.01925808,0.9073705549567056,0.9075748991944006,4.919344910914578,4.921560880945165
34696578,0.2879493,-0.3408727,-9.854836,-0.00087739,-0.01932468,0.1099839,-0.3775589,0.8089126,-0.0246621,0.8926871329911561,0.8930277356187656,4.76141964651262,4.765053756091669
34716246,0.3476439,-0.04387897,-9.732586,-0.006695594,-0.02575827,0.1070782,-0.3729499,0.7994812,-0.01291351,0.8821914854856909,0.8822859943374202,4.650114356954114,4.651110740428722
34736217,0.3241034,-0.1053964,-9.771487,-0.008219258,-0.02984846,0.1022215,-0.3706962,0.8022729,-0.01309983,0.8837745633185251,0.8838716447057676,4.666818435643877,4.6678437787814
34756226,0.1216948,-0.09989781,-9.513202,-0.008901577,-0.02297846,0.09923252,-0.3630489,0.7789527,-0.01050167,0.8594020087412526,0.8594661701901297,4.412966580455287,4.413625533765202
34776416,0.2622889,-0.2315084,-9.9437,-0.002212042,-0.01828273,0.09839649,-0.3609118,0.7757125,-0.022065,0.8555625108871298,0.8558469923184225,4.373623579962052,4.376532593706428
34796573,0.2878817,-0.08582163,-9.723414,-0.00311368,-0.01260204,0.09466098,-0.3578126,0.768679,-0.01494134,0.847878093690219,0.8480097319021496,4.295411139014565,4.296745019769514
34816247,0.2707898,-0.05055789,-9.860087,-0.0007893012,-0.01371062,0.08666988,-0.3614543,0.7643027,-0.006453969,0.8454630850698213,0.845487718380127,4.270976773589284,4.271225654541507
34836184,0.09220375,-0.1605865,-9.685392,-0.001395936,-0.01112281,0.08128529,-0.347337,0.7528169,-0.01933521,0.829081586150971,0.8293070160322739,4.107073252055295,4.109307007871116
34856257,0.06929462,-0.07693725,-9.97355,-0.00332843,-0.004661586,0.07945297,-0.3509636,0.7499469,-0.01150614,0.8280071263851355,0.8280870682496313,4.0964349130338045,4.097225950798561
34876233,0.3180166,-0.1451704,-9.83923,-0.002430699,0.0004138277,0.08077171,-0.3459566,0.7468182,-0.01399705,0.8230573448641353,0.8231763543393983,4.04760477278543,4.048775379302428
34896574,0.3409556,-0.07179642,-9.721471,-0.001325348,0.003347596,0.08143351,-0.3301271,0.7140114,-0.0226523,0.7866359904583378,0.7869620754392552,3.697307184369111,3.700373116373468
34916277,0.253005,-0.216718,-9.624292,0.000678658,0.001988382,0.08075235,-0.3394855,0.7244685,-0.01784991,0.8000656299345072,0.8002647258810724,3.824627447909937,3.82653119814981
34936422,0.2082738,-0.1923381,-9.881831,0.003845835,0.0003325185,0.08367102,-0.321006,0.7020292,-0.02968055,0.7719390194106268,0.7725094075394437,3.560441851889624,3.5657054388032305
34956255,0.2807885,0.01908884,-9.68541,0.002083564,-0.0004522468,0.08921596,-0.3159783,0.7079982,-0.01358359,0.7753088012360816,0.7754277859294302,3.5915948302129257,3.5926973008687235
34976221,0.4545792,-0.1478751,-10.20574,0.006938898,-0.01121623,0.09073918,-0.3211005,0.6847111,-0.02205119,0.7562637248760911,0.7565851416356761,3.417310558841673,3.4202159323496595
34996568,0.3417987,-0.1799537,-9.706114,-0.005989518,-0.01880748,0.08254115,-0.3206415,0.6862722,-0.008439354,0.7574830057599246,0.7575300170363068,3.4283385114901623,3.428764067098388
35016214,0.1751494,-0.1245697,-9.756577,-0.009808407,-0.02189593,0.07256732,-0.3136599,0.6738176,-0.02410721,0.7432447046146847,0.743635561623941,3.3006658283531753,3.30413824485773
35036214,0.5838775,-0.2769183,-10.02065,-0.01294666,-0.0176162,0.07138966,-0.3008026,0.6305778,-0.02604295,0.6986491007792108,0.6991343227623018,2.916460631967109,2.920513087554207
35056246,1.265363,0.01658763,-9.447756,-0.02630176,-0.00751477,0.05833147,-0.2721339,0.6216906,-0.008421075,0.678642808594897,0.6786950538804049,2.7518224684039807,2.7522461825663105
35076238,1.094891,0.1447044,-9.517381,-0.02083486,-0.008481941,0.02957494,-0.2812081,0.617505,-0.06293838,0.6785207591007146,0.6814335332280284,2.7508327626703943,2.7745011697406152
35096878,-1.648097,-0.2280244,-10.33817,0.006675572,-0.05120414,0.02590406,-0.3152675,0.6664154,-0.02724615,0.7372266150332678,0.7377299198238014,3.247430914432625,3.251866471754314
35116238,-2.03789,-0.06431308,-8.338878,0.01634136,-0.05364275,0.07453185,-0.3292949,0.6923121,-0.01879206,0.7666362729302729,0.766866557160673,3.5116937704602087,3.5138037910364956
35136200,-2.808812,0.0560694,-10.37276,0.04503673,-0.06340108,0.1607743,-0.3402553,0.7355284,-0.04582057,0.8104169892004055,0.8117112916670401,3.924234785898285,3.9367794455931535
35156257,-2.220551,0.577317,-9.293203,0.03425301,-0.04800081,0.2733471,-0.3361299,0.7728419,0.0001873965,0.84277393888849,0.8427739597229308,4.24385077461598,4.243850984442732
35176201,-2.325738,0.3602878,-9.926874,0.04537458,-0.04810219,0.3889022,-0.3569485,0.8131861,-0.03298485,0.8880787492590171,0.8886910966218704,4.7123860926906245,4.71888689465952
35196573,-2.241982,0.454703,-10.46108,0.0343389,-0.03435587,0.5013927,-0.3751686,0.8533446,-0.03393551,0.9321740635606206,0.932791564935104,5.191967196531341,5.198848119094129
35216235,-2.129946,0.5315527,-9.011831,0.02200288,-0.01438649,0.6068605,-0.3855962,0.8927565,-0.01888148,0.9724703582869196,0.97265364237928,5.650549121536471,5.652679270501239
35236206,-2.652653,0.3302564,-9.536386,0.02483795,-0.004540409,0.7106974,-0.4126439,0.9358178,-0.01204692,1.0227560525384585,1.0228269996854484,6.250028909449199,6.250896050931079
35256461,-2.728102,0.4951906,-10.14552,0.03237842,0.006459111,0.8190692,-0.4265257,0.9682212,-0.0422154,1.0580058907633407,1.0588477722916974,6.688274377717332,6.698922664200364
35276223,-2.443322,0.5342687,-9.767427,0.03507403,0.007563171,0.9396447,-0.4431184,1.007713,-0.03885215,1.1008357764841947,1.1015211738079222,7.24074045555567,7.249759655674418
35296570,-2.888802,0.3852902,-10.23587,0.03801645,-0.004636532,1.062403,-0.4757728,1.066497,-0.02494184,1.1678080356928704,1.168074357055845,8.148559259167321,8.152276279078267
35316268,-2.443474,0.1273728,-9.489324,0.03122496,-0.00397146,1.200468,-0.493397,1.082717,-0.02919389,1.1898389393938995,1.1901970361714618,8.458907292645549,8.463999684845207
35336195,-2.410203,0.04980936,-9.794316,0.02200072,0.0005315793,1.331,-0.5185277,1.11611,-0.02274621,1.2306796934081954,1.230889880467239,9.049570733909556,9.052662139574007
35356267,-1.92124,-0.2226372,-9.446477,0.01183992,0.01286026,1.457945,-0.5435473,1.129242,-0.02566288,1.2532482443240407,1.253510967367731,9.38452119236021,9.388456228234327
35376239,-1.702911,-0.7567533,-9.613263,0.01260842,0.01818287,1.577139,-0.5830919,1.134968,-0.01744193,1.2759892338376566,1.2761084381006713,9.728187436095919,9.730005156105616
35396581,-1.674118,-1.040499,-9.470684,0.02043246,0.02331879,1.69741,-0.6154132,1.133481,-0.01294083,1.289772299320791,1.2898372180923952,9.93948768996906,9.940488293828565
35416471,-1.700254,-1.175679,-9.45603,0.02849838,0.03362835,1.817745,-0.6361903,1.124679,0.01294859,1.2921458705792819,1.292210747841883,9.976104681359164,9.977106485607518
35436219,-0.1225318,-1.541581,-10.26795,0.03453761,0.05531706,1.922036,-0.6420693,1.077137,-0.04424543,1.2539844906423245,1.2547648229239512,9.395550689059652,9.407247696063063
35456294,0.1893345,-2.049117,-10.29271,0.01905107,0.06673767,1.990729,-0.6603304,1.039122,-0.01714357,1.2311826704629008,1.231302022267691,9.056969339087754,9.05872540349202
35476252,0.1995226,-2.562873,-10.06412,0.01814267,0.06339811,2.026154,-0.6854969,0.970787,-0.0575144,1.1884163408833663,1.1898072556031796,8.438692060689691,8.45845680027867
35496572,-0.0748787,-2.689205,-9.40758,0.0209277,0.05606428,2.033516,-0.7088675,0.9276337,-0.03027736,1.1674748022685286,1.1678673436912728,8.143909548243341,8.149386941451542
35516233,0.1063633,-2.723616,-9.944859,0.03511363,0.0520905,2.022229,-0.7092609,0.8829854,-0.03153123,1.1325697510007806,1.1330085874993547,7.6642175892697715,7.670158044600015
35536222,0.6283381,-2.330291,-10.23674,0.03402957,0.05058104,1.979253,-0.7099829,0.8331627,-0.04854388,1.0946395767391657,1.0957154335178245,7.159458922708106,7.173539059713695
35556286,0.660032,-1.601888,-9.795679,0.0263944,0.03824121,1.896765,-0.7103477,0.8120406,-0.02425294,1.0788900736143836,1.0791626365114266,6.954922650888308,6.958437176352704
35576442,0.4182619,-1.391038,-9.754975,0.03162047,0.03270371,1.796483,-0.7077589,0.7744877,-0.03360368,1.0491681743078658,1.0497061804571994,6.577004301433489,6.583751315108003
35596554,0.001298313,-1.540421,-9.654292,0.03105795,0.02586932,1.701923,-0.714494,0.7471172,-0.01717323,1.0337725990622115,1.0339152317286329,6.385397574766743,6.387159720742823
35616226,0.08416738,-1.765029,-10.0277,0.0388233,0.02571861,1.632303,-0.7215219,0.7020963,-0.04307536,1.0067437939482418,1.0076649012903196,6.055860073253466,6.066946605922266
35636221,0.1936306,-1.352154,-9.576834,0.02958426,0.02509738,1.588707,-0.7005376,0.6786576,-0.02863689,0.975360993197657,0.9757812964596073,5.684191175632831,5.689091102659343
35656266,0.2814829,-0.9790154,-9.594159,0.03517858,0.02189919,1.559923,-0.7083282,0.657056,-0.02665134,0.9661528999341874,0.9665204188091607,5.577372270656158,5.581616276850836
35676213,0.2617023,-0.8698718,-9.654495,0.0382959,0.02254629,1.532282,-0.705986,0.6418304,-0.01724566,0.9541291812748209,0.954285024166782,5.439415904996957,5.441192946410248
35696549,0.2661729,-1.017093,-9.84185,0.05171814,0.02311901,1.50134,-0.6951911,0.6103687,-0.030556,0.9251165415551166,0.925621026443814,5.1136476773669255,5.119226350454527
35716245,0.1377786,-1.202635,-9.72478,0.05662319,0.02344587,1.472953,-0.6914946,0.5819051,-0.01506598,0.9037578919352073,0.9038834609552994,4.88025050523014,4.881606733156468
35736432,0.1402862,-1.323748,-9.686512,0.06618503,0.0297879,1.449503,-0.6821991,0.5548689,-0.0290354,0.8793606246745529,0.8798398505871281,4.6203187716624186,4.62535602202005
35756265,0.3163708,-1.778157,-9.95697,0.06160468,0.03551331,1.422189,-0.6541588,0.5039341,-0.03698254,0.8257562066132171,0.8265839467501783,4.074193043742494,4.0823651006249815
35776228,0.8253403,-1.921646,-9.791194,0.05986894,0.04076727,1.370546,-0.6456168,0.4672679,-0.02700818,0.7969694742037803,0.7974269775970476,3.7950830483055835,3.7994414629823847
35796571,1.201583,-2.169512,-10.08788,0.05718265,0.03544741,1.281882,-0.6258699,0.4200351,-0.03155989,0.7537523578457449,0.7544127806544849,3.3946521363241686,3.4006033955986203
35816224,0.9482521,-1.753156,-9.588204,0.04012875,0.02266434,1.152085,-0.6016697,0.3935717,-0.02682748,0.7189611331212418,0.719461482375624,3.088508037860405,3.0928083271172286
35836220,0.6659679,-1.224661,-9.807992,0.03135669,0.008949909,1.00851,-0.5944703,0.3744329,-0.03173194,0.7025631175805487,0.7032793543114028,2.9492297317523866,2.9552460549489648
35856264,0.4942242,-0.8198504,-9.716082,0.02232375,-0.00143632,0.860604,-0.5779395,0.3609525,-0.02393282,0.6813961937936696,0.68181636295241,2.7741971181760876,2.7776194779181735
35876215,0.3788058,-0.6496362,-9.742275,0.02496146,-0.006293516,0.7365496,-0.5615668,0.344149,-0.0283024,0.6586317674264126,0.65923958536256,2.591929935252859,2.596716064681275
35896822,0.50438,-0.6381408,-9.81824,0.02727782,-0.005077253,0.6309607,-0.545528,0.3325482,-0.03143387,0.6388967867404249,0.6396695961904215,2.438929897040759,2.444833723935241
35916224,0.4787255,-0.7812673,-9.718461,0.02508109,-0.003770733,0.5386615,-0.5272053,0.3117835,-0.02619108,0.6124984728310268,0.6130581961705646,2.2415474158415316,2.2456461025541405
35936237,0.4820801,-0.8925463,-9.868016,0.02503674,-0.003756547,0.4616038,-0.5137612,0.2936783,-0.03245374,0.591774884999634,0.5926641205238576,2.092430149235072,2.098723289543998
35956254,0.5375592,-0.7414162,-9.698942,0.01876234,0.0009662809,0.392022,-0.4980503,0.2855009,-0.02608799,0.5740774035188112,0.5746698604008567,1.9691500697546271,1.9732165545075118
35976212,0.4815291,-0.7218322,-9.706916,0.01776308,0.005025472,0.3218618,-0.4870611,0.2623577,-0.02254594,0.5532269677831153,0.5536861902675411,1.828708965347938,1.8317461738255774
35996572,0.5281085,-0.5963952,-9.870523,0.01465301,0.007469443,0.2523437,-0.4688155,0.2508582,-0.02903479,0.5317121491441492,0.5325042991167621,1.6892389120462525,1.6942759507525584
36016238,0.3639578,-0.2202336,-9.728437,0.009637421,0.009036396,0.1858231,-0.4618872,0.2559108,-0.02271002,0.5280436753531662,0.5285318042359234,1.6660099854058679,1.6690915618310607
36036224,0.2785829,0.02865433,-9.861663,0.007946624,0.008602495,0.1298855,-0.4464436,0.2555308,-0.02571261,0.5144005032361457,0.5150427322490941,1.5810320694343596,1.5849823708546071
36056435,0.2687213,-0.1220035,-9.775471,0.003635801,0.005370894,0.08921222,-0.4439152,0.2444686,-0.02400994,0.5067796376897952,0.5073480840565022,1.5345329670325754,1.5379774184149266
36076190,0.2172366,-0.03453615,-9.691677,0.000788003,0.004589166,0.06397903,-0.4396846,0.2508139,-0.01878078,0.506191821259856,0.5065401046390882,1.5309752054644603,1.5330826937064759
36096562,0.1078407,-0.0007484779,-9.738423,0.0002434225,0.005172709,0.05052572,-0.4251726,0.2481023,-0.02765864,0.492266686924933,0.4930430928658261,1.4479007840598985,1.45247166125063
36116256,0.1187513,0.08419225,-9.69613,0.00151778,0.008794371,0.04494926,-0.4148142,0.2444074,-0.01741027,0.4814621456525944,0.48177683132117605,1.38503964123599,1.3868507683072906
36136259,0.2990089,-0.1564147,-9.975245,0.005818828,0.00827892,0.04484781,-0.4120883,0.2392312,-0.02539255,0.47649589090602873,0.4771719979691102,1.3566137959507218,1.360466365983849
36156262,0.3053316,-0.1823702,-9.919106,0.001289087,0.004719159,0.04522502,-0.3948266,0.2396961,-0.03006966,0.46188988343843385,0.4628676364526749,1.2747200299260506,1.2801225320298317
36176176,0.1193389,-0.02284876,-9.661023,-0.0077352,-0.003693457,0.04714585,-0.3955767,0.2399849,-0.01610902,0.46268096763417876,0.4629613140817064,1.2790902249201273,1.2806407405591558
36196564,0.1117857,0.1265009,-9.649414,-0.005690604,-0.008772929,0.05620442,-0.3795637,0.2352907,-0.02178725,0.4465762150676858,0.44710736979694543,1.1915961372884751,1.1944323757572863
36216461,0.3286284,-0.1935582,-9.849508,-0.005398918,-0.009696551,0.06576932,-0.3556955,0.2311854,-0.02957546,0.42422397137998935,0.42525367220944915,1.075296717913125,1.080523097222539
36236215,0.2065968,-0.1784942,-9.738026,-0.007788423,-0.007822821,0.06562424,-0.3621888,0.2273745,-0.01297302,0.4276445838493573,0.42784131327352015,1.0927073433217473,1.0937129313280722
36256235,0.1653047,0.1017904,-9.830936,-0.004389322,-0.001759911,0.06106864,-0.3573298,0.2310408,-0.02118784,0.42551667092216255,0.42604384961708525,1.0818600124652629,1.0845423367343594
36276225,0.258596,0.01731827,-9.816353,-0.001379332,-0.0003066982,0.05578776,-0.3413172,0.2270335,-0.02096363,0.4099288244782135,0.4104645111588417,1.0040488058000876,1.0066746616521796
36296597,0.3385043,-0.0483759,-9.828344,0.003282725,-0.001859884,0.05049576,-0.3243649,0.2250672,-0.02552479,0.39480100413733754,0.39562526179756785,0.9313103013854038,0.9352031029400547
36316256,0.2560356,-0.06481311,-9.749138,0.004680919,-0.003211974,0.04540217,-0.3193329,0.2198339,-0.02373172,0.38768601291718013,0.38841168770491236,0.8980451565544293,0.9014102438960258
36336202,0.1924022,-0.08880638,-9.759853,0.003119766,-0.00593983,0.04038254,-0.3102067,0.2198458,-0.0191933,0.3802109578938119,0.3806950948822693,0.8637482257026167,0.8659493127228346
36356285,0.128023,-0.107391,-9.787111,0.001149682,-0.008363008,0.03824077,-0.3043289,0.215847,-0.02555554,0.3731032119725184,0.37397739558548404,0.8317558905356547,0.8356580771431871
36376456,0.2499117,-0.2145902,-9.771752,-0.0006600786,-0.008504834,0.04211888,-0.282932,0.2079215,-0.01728042,0.35111517595548336,0.351540153754342,0.7366091540478439,0.7383933662172177
36396555,0.3327032,0.03258519,-9.799477,-0.002088599,-0.01057647,0.04756308,-0.2777373,0.2125568,-0.01998248,0.34974047669311886,0.350310862726922,0.7308524461992418,0.7332382607532705
36416274,0.2358481,0.1513542,-9.73273,0.001050368,-0.009750067,0.04931525,-0.2670348,0.2126321,-0.01953468,0.34135025173778616,0.3419087569573971,0.6962069663096636,0.6984870485528107
36436194,0.2015657,0.1403704,-9.746872,0.004925463,-0.004932191,0.04515744,-0.2574895,0.2120233,-0.01585829,0.3335486806346864,0.33392545233160065,0.6647469660600116,0.6662495910963129
36456256,0.1710901,-0.1309738,-9.873147,0.009849348,-0.002268243,0.03868542,-0.2469868,0.2083588,-0.02362604,0.3231344440193276,0.32399700411849736,0.6238848167472878,0.6272200005996255
36476224,0.1473786,-0.1720027,-9.774096,0.01205623,-0.001033238,0.0339077,-0.2375796,0.204932,-0.02361775,0.3137533919500473,0.3146410479820179,0.588186115986956,0.5915189597244545
36496591,0.3359468,-0.1496863,-9.749224,0.01318647,-0.0001781191,0.03338407,-0.2165056,0.2030044,-0.01719417,0.2967919494371773,0.2972895906901365,0.526310630973052,0.5280770768779356
36516223,0.3533557,-0.0005393881,-9.751718,0.01432175,0.0002566582,0.03214605,-0.2078429,0.2032631,-0.01701365,0.2907138780691765,0.291211303332035,0.5049744894395695,0.5067040385503463
36536456,0.2109648,0.09340663,-9.782623,0.01538435,0.001882046,0.02841372,-0.2035929,0.2035758,-0.02083369,0.2879117491108169,0.2886645421853299,0.49528672227439857,0.4978801270425199
36556266,0.1776508,-0.2054401,-9.745702,0.01476073,0.00419565,0.02408516,-0.1924812,0.1925575,-0.015597,0.27226348113489257,0.2727098633505763,0.44291123387914777,0.44436475067292264
36576247,0.1186764,-0.1484867,-9.829363,0.01378635,0.005268902,0.01987274,-0.1838631,0.1927404,-0.01964797,0.26637286148136413,0.26709650701364646,0.42395314546927576,0.42625975075187306
36596572,0.2245202,-0.1897912,-9.869766,0.00934994,0.003696562,0.01853192,-0.1703982,0.1893424,-0.0223823,0.25472748379591864,0.25570893287933844,0.3876943937309749,0.3906876736668828
36616231,0.2474939,-0.1378121,-9.768447,0.002228182,0.0003159842,0.01962934,-0.161821,0.1854971,-0.01847071,0.24616094359059074,0.2468529466652446,0.3620563806427247,0.3640948542319517
36636217,0.4488273,-0.1487518,-9.794886,-0.001773259,-0.00505122,0.0241055,-0.1403492,0.1813652,-0.01675673,0.22932778661051959,0.22993916959050908,0.314232621427288,0.31591032972903804
36656263,0.5018087,-0.01257576,-9.755869,-0.004906646,-0.008194301,0.02632608,-0.1286153,0.1836786,-0.01693764,0.22423140612333944,0.2248702006509969,0.3004213478649987,0.3021354776663971
36676191,0.4350215,0.01010767,-9.733636,-0.004449743,-0.009320386,0.02595525,-0.1145149,0.1819246,-0.01367213,0.2149656307579656,0.21539997573330155,0.2761060788828408,0.2772229685367937
36696799,0.2835496,-0.09503676,-9.780542,-0.001456703,-0.009413099,0.02434282,-0.1058469,0.1783505,-0.0132914,0.20739447217768367,0.20781994226690564,0.25699949086191354,0.25805504221282444
36716246,0.2951505,-0.1080517,-9.788559,0.0007235093,-0.008552531,0.02139796,-0.09206323,0.1758091,-0.01599304,0.1984552291093457,0.19909860694963313,0.2353222558160363,0.23685052535347492
36736215,0.2873503,-0.1070961,-9.79379,0.0009339779,-0.007275826,0.0172712,-0.07840425,0.1722439,-0.013378,0.1892490092583644,0.1897212649896487,0.21399574534400317,0.21506509637590318
36756336,0.3932763,-0.1148803,-9.820045,0.0008701453,-0.006460698,0.01369494,-0.06455535,0.1719729,-0.01518254,0.1836901509282207,0.18431652413412128,0.20160887749949416,0.20298617188658255
36776211,0.3935167,-0.1925967,-9.727863,0.0005178837,-0.005568245,0.01102181,-0.05112322,0.1655591,-0.01290488,0.17327261530887791,0.17375251118701218,0.1793898103154709,0.18038486248416194
36796570,0.3471658,-0.06480858,-9.77335,-0.0003912268,-0.004098517,0.008947669,-0.03821958,0.1627675,-0.01147786,0.1671944836160165,0.1675879966519261,0.16702512222596777,0.1678122763152908
36816247,0.4537982,-0.1071594,-9.810371,0.0004161974,-0.003456079,0.007036133,-0.01992799,0.1630894,-0.01425134,0.1643023955327496,0.16491930714623956,0.1612967811373556,0.16251030777083433
36836175,0.498952,-0.08334086,-9.781356,-0.0001625388,-0.001955467,0.004205312,-0.005552454,0.1590419,-0.01210794,0.1591387938280045,0.1595987403210806,0.15131780531366693,0.1521937535246524
36856483,0.5246121,-0.2044274,-9.780945,0.0001036507,-0.000494619,0.00445632,0.01228567,0.1545441,-0.01185753,0.15503166299875293,0.15548446079869138,0.1436080287796494,0.14444811986041228
36876243,0.5244692,-0.1361217,-9.767397,-0.0005803798,0.0007667826,0.004363885,0.02759043,0.1531674,-0.01032526,0.15563252953783444,0.15597466218720432,0.14472336839581082,0.1453603690853647
36896547,0.4482654,-0.1664019,-9.779164,-0.0003533968,0.001007769,0.002021926,0.04149063,0.1462681,-0.009669472,0.15203890770262363,0.15234608017328732,0.13811708099605627,0.13867573566139
36916246,0.3170967,-0.2698523,-9.776283,-0.0001466646,0.0006110148,0.0008332008,0.05324467,0.14012,-0.009285387,0.14989532775710157,0.15018264778311996,0.1342499404683682,0.13476509547851329
36936200,0.2160897,-0.1951943,-9.773966,-0.0002778189,-0.0005301453,0.001272772,0.06194837,0.1383586,-0.009022629,0.15159387434727334,0.15186214331981668,0.13730969886921096,0.13779611067778902
36956285,0.05270891,-0.1018459,-9.786996,-0.0004013129,-0.001932394,0.0004719741,0.06660892,0.1356476,-0.008859072,0.15111922316279422,0.15137867341877317,0.13645119216572524,0.1369201290270148
36976220,-0.1172483,-0.1520507,-9.767284,-3.71069e-05,-0.002580812,-0.001113911,0.06799601,0.1302175,-0.007918882,0.14690151354621947,0.1471147965851839,0.12894082672596635,0.12931551116144271
36996614,-0.2569932,-0.1678405,-9.773767,-0.0002257416,-0.002253539,-0.00136967,0.06872796,0.1266744,-0.007628175,0.14411778551282836,0.1443195245105534,0.12410036820420155,0.12444804780083955
37016500,-0.2914301,-0.1254465,-9.79095,-0.0003921753,-0.00161921,-0.0008288347,0.06988186,0.1231155,-0.007634998,0.14156588818394633,0.1417716258345428,0.11974438166642483,0.12009268350332339
37036229,-0.2857184,-0.1315509,-9.786359,-0.000545142,-0.0009710702,-0.0006637134,0.07076237,0.1186181,-0.007421345,0.1381215647740312,0.13832079748626352,0.11398846076737071,0.11431754202798465
37056259,-0.2466382,-0.1588964,-9.785884,-0.0003929942,-0.0006717282,-0.0002544585,0.07265466,0.1150996,-0.007029798,0.1361125179396649,0.13629393089861486,0.11069653980075668,0.11099181270878349
37076242,-0.1951402,-0.1370611,-9.78213,-0.0003809738,-0.0003839532,0.0004994839,0.07502192,0.1125766,-0.006284107,0.1352840690844506,0.1354299425859505,0.10935313160457723,0.10958908435928225
37096598,-0.1948199,-0.124814,-9.783271,-0.0002365196,-0.0002098538,0.0003611704,0.07705667,0.1079346,-0.006066682,0.1326182802959264,0.13275696930533637,0.10508595940517718,0.10530586707234968
37116219,-0.2057123,-0.1670886,-9.787479,0.0001168363,-0.0006397932,0.0001037592,0.0800275,0.1032639,-0.006029665,0.1306439198717644,0.1307829907116068,0.10198030695177349,0.10219753919034656
37136225,-0.1363492,-0.1582993,-9.791574,0.0004911665,-0.001086379,0.0001405125,0.08499721,0.1001752,-0.00594243,0.1313757831673102,0.13151010941037575,0.103126088506874,0.10333708054084577
37156275,-0.06339275,-0.1328891,-9.789154,0.000211245,-0.0005474632,-1.365444e-05,0.09007782,0.0968264,-0.005413992,0.13224736440818927,0.13235813802818647,0.10449895822265162,0.10467409329617355
37176430,-0.05020645,-0.159812,-9.786376,-0.00010746,-7.010122e-05,-9.558978e-05,0.09443704,0.09309643,-0.00489995,0.13260957658746406,0.13270007276828824,0.1050721663211713,0.10521562314343623
37196648,-0.05413191,-0.1573928,-9.778028,-0.000284573,0.0001915542,5.850311e-05,0.09989401,0.08935038,-0.004661634,0.13402351898090314,0.134104565438968,0.10732476424914641,0.10745460596765735
37216218,-0.07928745,-0.1355887,-9.782448,-7.869959e-05,-0.00028992,9.590524e-05,0.1038836,0.08583647,-0.004054441,0.13475793828573107,0.1348189171549875,0.1085042190378499,0.10860243902648922
37236260,-0.1382899,-0.1576262,-9.769412,0.0003426776,-0.0006857528,4.635597e-05,0.1065048,0.08144537,-0.003109116,0.13407692089795656,0.13411296477141335,0.10741030878692447,0.10746806673567569
37256254,-0.1505522,-0.1531719,-9.772811,0.0005835604,-0.0008140496,0.0001867408,0.1101643,0.07840108,-0.002881336,0.13521428304604657,0.13524497934045943,0.10924034147944697,0.10928994650988774
37276229,-0.1113659,-0.1426064,-9.790571,0.000528438,-0.00122343,0.0001613981,0.1140861,0.0754805,-0.002908761,0.13679526341748824,0.13682618530096904,0.11180984095842347,0.11186039477949032
37296585,-0.08825558,-0.1531906,-9.791713,0.000373193,-0.001290516,-8.660924e-05,0.1188241,0.07121261,-0.002652861,0.13852942851185845,0.1385548275424116,0.11466265531883706,0.11470470540596184
37316254,-0.07887608,-0.1586152,-9.795628,0.0004166049,-0.001245683,-8.953065e-05,0.1234945,0.06751341,-0.00246702,0.14074427896038297,0.14076589873885825,0.11835848855896665,0.118394853530357
37336454,-0.07714054,-0.1523075,-9.789194,0.0007945669,-0.001603387,-2.944083e-05,0.1279169,0.0639729,-0.002066105,0.14302190475594986,0.143036827530154,0.12222020980911945,0.12224571582859886
37356250,-0.100324,-0.1566494,-9.78395,0.0009498418,-0.001921166,0.0002278722,0.131137,0.06058259,-0.001627557,0.14445470909633962,0.14446387756770324,0.12468129880614591,0.12469712623333068
37376232,-0.119436,-0.1457545,-9.780382,0.000876034,-0.001727588,0.0004280034,0.1343476,0.05814115,-0.00121173,0.14638876647162002,0.146393781420781,0.12804228392076794,0.12805105695108554
37396576,-0.1189398,-0.1314428,-9.784966,0.000560542,-0.001538736,0.0002975398,0.1383749,0.0544703,-0.001131377,0.14870987368732447,0.14871417735379544,0.13213489352929747,0.13214254161244632
37416219,-0.09942724,-0.1475636,-9.792652,0.0004293564,-0.001490346,0.0002024863,0.1429181,0.05055772,-0.001004633,0.15159705260726014,0.15160038141994595,0.13731545649627017,0.1373214869888717
