FMT, 128, 89, FMT, BBnNZ, Type,Length,Name,Format,Columns
FMT, 118, 44, FMTU, QBNN, TimeUS,FmtType,UnitIds,MultIds
FMT, 251, 43, DCM, Qffffffff, TimeUS,Roll,Pitch,Yaw,ErrRP,ErrYaw,VWN,VWE,VWD
DCM, 23905315, -0.1741666, -0.5657687, 359.3366, 0.001463063, 1, 0, 0, 0
FMT, 250, 51, EAHR, QffffffLLfI, TimeUS,Roll,Pitch,Yaw,VN,VE,VD,Lat,Lon,Alt,Flg
EAHR, 23905388, 0, 0, 0, 0, 0, 0, 0, 0, 0, 0
FMT, 72, 36, ATT, QffffffB, TimeUS,DesRoll,Roll,DesPitch,Pitch,DesYaw,Yaw,AEKF
ATT, 23905937, 0, 0.04847342, 0, -1.092706, 0, 359.8435, 3
FMT, 47, 44, XKF4, QBcccccfffHBIHb, TimeUS,C,SV,SP,SH,SM,SVT,errRP,OFN,OFE,FS,TS,SS,GPS,PI
XKF4, 23905415, 0, 0, 0, 0.01, 0, 0, 0.01074764, 0, 0, 0, 50, 65703, 0, 0
FMT, 44, 56, XKF1, QBccCfffffffccce, TimeUS,C,Roll,Pitch,Yaw,VN,VE,VD,dPD,PN,PE,PD,GX,GY,GZ,OH
XKF1, 23905415, 0, 0.04, -1.09, 359.84, 0.1936192, 0.1125885, -0.08850223, -0.0727752, 0, 0, -0.8274311, -0.03, 0.14, -0.03, 0
FMT, 45, 46, XKF2, QBccccchhhhhhfff, TimeUS,C,AX,AY,AZ,VWN,VWE,MN,ME,MD,MX,MY,MZ,IDX,IDY,IS
XKF2, 23905415, 0, 0, 0, 0.2, 0, 0, 0, 0, 0, 0, 0, 0, 0, 0, 0
FMT, 46, 42, XKF3, QBcccccchhhccff, TimeUS,C,IVN,IVE,IVD,IPN,IPE,IPD,IMX,IMY,IMZ,IYAW,IVT,RErr,ErSc
XKF3, 23905415, 0, 0, 0, 0, 0.14, 0.13, -0.1, 0, 0, 0, 0, 0, 0, 0
FMT, 48, 41, XKF5, QBBhhhcccCCfff, TimeUS,C,NI,FIX,FIY,AFI,HAGL,offset,RI,rng,Herr,eAng,eVel,ePos
XKF5, 23905415, 0, 0, 0, 0, 0, 1.05, 0.24, 0, 0, 0.5, 2.425558E-05, 0.009904337, 0.01771677
FMT, 51, 20, XKFS, QBBBBBBBBB, TimeUS,C,MI,BI,GI,AI,SS,GPS_GTA,GPS_CHK_WAIT,MAG_FUSION
XKFS, 23905415, 0, 0, 0, 0, 0, 0, 0, 0, 0
FMT, 52, 28, XKQ, QBffff, TimeUS,C,Q1,Q2,Q3,Q4
XKQ, 23905415, 0, 0.9993823, 0.01997232, -0.02890375, -0.0007866378
XKF4, 23905415, 1, 0, 0, 0.04, 0, 0, 0.01110343, 0, 0, 0, 50, 65703, 0, 0
XKF1, 23905415, 1, 2.17, 0.34, 359.98, 0.01341393, 0.1257168, -0.3247118, -0.1111353, 0, 0, -1.215381, 0.12, -0.1, 0.01, 0
XKF2, 23905415, 1, 0, 0, 0.03, 0, 0, 0, 0, 0, 0, 0, 0, 0, 0, 0
XKF3, 23905415, 1, 0, 0, 0, 0.01, 0.13, -0.45, 0, 0, 0, 0, 0, 0, 0
XKFS, 23905415, 1, 0, 0, 0, 0, 0, 0, 0, 0
XKQ, 23905415, 1, 0.9991215, 0.03858569, -0.01634408, 0.0004976603
FMT, 70, 45, AHR2, QccCfLLffff, TimeUS,Roll,Pitch,Yaw,Alt,Lat,Lng,Q1,Q2,Q3,Q4
AHR2, 23906181, -0.17, -0.56, 359.33, 0.82, 0, 0, 0.9999719, -0.001560105, -0.004932668, -0.005417253
FMT, 109, 52, PIDS, QffffffffffB, TimeUS,Tar,Act,Err,P,I,D,FF,DFF,Dmod,SRate,Flags
PIDS, 23906202, 0, 0, 0, 0, 0, 0, 0, 0, 0, 0, 0
FMT, 108, 52, PIDA, QffffffffffB, TimeUS,Tar,Act,Err,P,I,D,FF,DFF,Dmod,SRate,Flags
PIDA, 23906218, 0, 0, 0, 0, 0, 0, 0, 0, 0, 0, 0
FMT, 163, 54, IMU, QBffffffIIfBBHH, TimeUS,I,GyrX,GyrY,GyrZ,AccX,AccY,AccZ,EG,EA,T,GH,AH,GHz,AHz
IMU, 23906234, 0, 0.0003175053, -0.003199034, -0.0008849093, -0.4404143, -0.3412204, -9.602422, 0, 0, 43.35749, 1, 1, 1976, 1976
IMU, 23906234, 1, 0.003900765, -0.001054333, -3.616797E-06, -0.3213449, -0.7015502, -9.810127, 0, 0, 42, 1, 1, 2004, 2017
FMT, 119, 76, UNIT, QbZ, TimeUS,Id,Label
FMT, 120, 20, MULT, Qbd, TimeUS,Id,Mult
FMT, 32, 35, PARM, QNff, TimeUS,Name,Value,Default
FMT, 94, 51, GPS, QBBIHBcLLeffffB, TimeUS,I,Status,GMS,GWk,NSats,HDop,Lat,Lng,Alt,Spd,GCrs,VZ,Yaw,U
FMT, 95, 39, GPA, QBCCCCfBIHeHH, TimeUS,I,VDop,HAcc,VAcc,SAcc,YAcc,VV,SMS,Delta,AEl,RTCMFU,RTCMFD
FMT, 99, 22, UBX1, QBHBBHI, TimeUS,Instance,noisePerMS,jamInd,aPower,agcCnt,config
FMT, 100, 16, UBX2, QBbBbB, TimeUS,Instance,ofsI,magI,ofsQ,magQ
FMT, 96, 42, GRAW, QIHBBddfBbB, TimeUS,WkMS,Week,numSV,sv,cpMes,prMes,doMes,mesQI,cno,lli
FMT, 97, 24, GRXH, QdHbBB, TimeUS,rcvTime,week,leapS,numMeas,recStat
FMT, 98, 41, GRXS, QddfBBBHBBBBB, TimeUS,prMes,cpMes,doMes,gnss,sv,freq,lock,cno,prD,cpD,doD,trk
FMT, 101, 23, SBPH, QIII, TimeUS,CrcError,LastInject,IARhyp
FMT, 102, 67, SBRH, QQQQQQQQ, TimeUS,msg_flag,1,2,3,4,5,6
FMT, 103, 123, SBRM, QQQQQQQQQQQQQQQ, TimeUS,msg_flag,1,2,3,4,5,6,7,8,9,10,11,12,13
FMT, 104, 23, SBRE, QHIiBB, TimeUS,GWk,GMS,ns_residual,level,quality
FMT, 59, 75, MSG, QZ, TimeUS,Message
FMT, 60, 39, RCIN, QHHHHHHHHHHHHHH, TimeUS,C1,C2,C3,C4,C5,C6,C7,C8,C9,C10,C11,C12,C13,C14
FMT, 61, 18, RCI2, QHHHB, TimeUS,C15,C16,OMask,Flags
FMT, 62, 39, RCOU, QHHHHHHHHHHHHHH, TimeUS,C1,C2,C3,C4,C5,C6,C7,C8,C9,C10,C11,C12,C13,C14
FMT, 207, 19, RCO2, QHHHH, TimeUS,C15,C16,C17,C18
FMT, 208, 39, RCO3, QHHHHHHHHHHHHHH, TimeUS,C19,C20,C21,C22,C23,C24,C25,C26,C27,C28,C29,C30,C31,C32
FMT, 63, 19, RSSI, Qff, TimeUS,RXRSSI,RXLQ
FMT, 64, 43, BARO, QBfffcfIffB, TimeUS,I,Alt,AltAMSL,Press,Temp,CRt,SMS,Offset,GndTemp,Health
FMT, 65, 24, BARD, QBfff, TimeUS,I,DynPrX,DynPrY,DynPrZ
FMT, 66, 25, CANF, QBIBBBBBBBBB, TimeUS,Bus,Id,DLC,B0,B1,B2,B3,B4,B5,B6,B7
FMT, 67, 81, CAFD, QBIBQQQQQQQQ, TimeUS,Bus,Id,DLC,D0,D1,D2,D3,D4,D5,D6,D7
FMT, 196, 50, PL, QBBfffffffIIB, TimeUS,Heal,TAcq,pX,pY,vX,vY,mX,mY,mZ,LastMeasMS,EKFOutl,Est
FMT, 68, 24, POWR, QffHHB, TimeUS,Vcc,VServo,Flags,AccFlags,Safety
FMT, 69, 27, MCU, Qffff, TimeUS,MTemp,MVolt,MVmin,MVmax
FMT, 93, 46, CMD, QHHHffffLLfB, TimeUS,CTot,CNum,CId,Prm1,Prm2,Prm3,Prm4,Lat,Lng,Alt,Frame
FMT, 92, 46, MISE, QHHHffffLLfB, TimeUS,CTot,CNum,CId,Prm1,Prm2,Prm3,Prm4,Lat,Lng,Alt,Frame
FMT, 78, 48, MAVC, QBBBBBHffffiifBB, TimeUS,TS,TC,SS,SC,Fr,Cmd,P1,P2,P3,P4,X,Y,Z,Res,WL
FMT, 79, 20, RAD, QBBBBBHH, TimeUS,RSSI,RemRSSI,TxBuf,Noise,RemNoise,RxErrors,Fixed
FMT, 81, 46, CAM, QBHIHLLeeeccC, TimeUS,I,Img,GPSTime,GPSWeek,Lat,Lng,Alt,RelAlt,GPSAlt,R,P,Y
FMT, 82, 46, TRIG, QBHIHLLeeeccC, TimeUS,I,Img,GPSTime,GPSWeek,Lat,Lng,Alt,RelAlt,GPSAlt,R,P,Y
FMT, 83, 48, MNT, QBfffffffff, TimeUS,I,DRoll,Roll,DPitch,Pitch,DYawB,YawB,DYawE,YawE,Dist
FMT, 114, 41, ARSP, QBffcffBBffB, TimeUS,I,Airspeed,DiffPress,Temp,RawPress,Offset,U,H,Hp,TR,Pri
FMT, 88, 41, BAT, QBfffffcfBBB, TimeUS,Inst,Volt,VoltR,Curr,CurrTot,EnrgTot,Temp,Res,RemPct,H,SH
FMT, 89, 40, BCL, QBfHHHHHHHHHHHH, TimeUS,Instance,Volt,V1,V2,V3,V4,V5,V6,V7,V8,V9,V10,V11,V12
FMT, 113, 35, MAG, QBhhhhhhhhhBI, TimeUS,I,MagX,MagY,MagZ,OfsX,OfsY,OfsZ,MOX,MOY,MOZ,Health,S
FMT, 122, 14, MODE, QMBB, TimeUS,Mode,ModeNum,Rsn
FMT, 116, 17, RFND, QBCBBb, TimeUS,Instance,Dist,Stat,Orient,Quality
FMT, 117, 36, DMS, QIIIIBBBBBBBBB, TimeUS,N,Dp,RT,RS,Fa,Fmn,Fmx,Pa,Pmn,Pmx,Sa,Smn,Smx
FMT, 174, 41, BCN, QBBfffffff, TimeUS,Health,Cnt,D0,D1,D2,D3,PosX,PosY,PosZ
FMT, 175, 57, PRX, QBBfffffffffff, TimeUS,Layer,He,D0,D45,D90,D135,D180,D225,D270,D315,DUp,CAn,CDis
FMT, 176, 44, PRXR, QBffffffff, TimeUS,Layer,D0,D45,D90,D135,D180,D225,D270,D315
FMT, 179, 61, PM, QHHHIIHHIIIIIIQ, TimeUS,LR,NLon,NL,MaxT,Mem,Load,ErrL,InE,ErC,SPIC,I2CC,I2CI,Ex,R
FMT, 178, 29, SRTL, QBHHBfff, TimeUS,Active,NumPts,MaxPts,Action,N,E,D
FMT, 170, 48, OABR, QBBHHHBfLLiLLi, TimeUS,Type,Act,DYaw,Yaw,DP,RChg,Mar,DLt,DLg,DAlt,OLt,OLg,OAlt
FMT, 171, 31, OADJ, QBBBBLLLL, TimeUS,State,Err,CurrPoint,TotPoints,DLat,DLng,OALat,OALng
FMT, 172, 37, SA, QBffffffB, TimeUS,State,DVelX,DVelY,DVelZ,MVelX,MVelY,MVelZ,Back
FMT, 173, 21, OAVG, QBBLL, TimeUS,version,point_num,Lat,Lon
FMT, 77, 45, SIM, QccCfLLffff, TimeUS,Roll,Pitch,Yaw,Alt,Lat,Lng,Q1,Q2,Q3,Q4
FMT, 84, 38, TERR, QBLLHffHHf, TimeUS,Status,Lat,Lng,Spacing,TerrH,CHeight,Pending,Loaded,ROfs
FMT, 86, 40, ESC, QBffffcfcf, TimeUS,Instance,RPM,RawRPM,Volt,Curr,Temp,CTot,MotTemp,Err
FMT, 87, 15, EDT2, QBBBB, TimeUS,Instance,Stress,MaxStress,Status
FMT, 85, 46, CSRV, QBfffBfffffB, TimeUS,Id,Pos,Force,Speed,Pow,PosCmd,V,A,MotT,PCBT,Err
FMT, 105, 52, PIDR, QffffffffffB, TimeUS,Tar,Act,Err,P,I,D,FF,DFF,Dmod,SRate,Flags
FMT, 106, 52, PIDP, QffffffffffB, TimeUS,Tar,Act,Err,P,I,D,FF,DFF,Dmod,SRate,Flags
FMT, 107, 52, PIDY, QffffffffffB, TimeUS,Tar,Act,Err,P,I,D,FF,DFF,Dmod,SRate,Flags
FMT, 110, 52, PIDN, QffffffffffB, TimeUS,Tar,Act,Err,P,I,D,FF,DFF,Dmod,SRate,Flags
FMT, 111, 52, PIDE, QffffffffffB, TimeUS,Tar,Act,Err,P,I,D,FF,DFF,Dmod,SRate,Flags
FMT, 112, 56, DSTL, QBfLLeccfeffff, TimeUS,Stg,THdg,Lat,Lng,Alt,XT,Travel,L1I,Loiter,Des,P,I,D
FMT, 161, 32, ACC, QBQfff, TimeUS,I,SampleUS,AccX,AccY,AccZ
FMT, 162, 32, GYR, QBQfff, TimeUS,I,SampleUS,GyrX,GyrY,GyrZ
FMT, 166, 28, VIBE, QBfffI, TimeUS,IMU,VibeX,VibeY,VibeZ,Clip
FMT, 164, 31, ISBH, QHBBHHQf, TimeUS,N,type,instance,mul,smp_cnt,SampleUS,smp_rate
FMT, 165, 207, ISBD, QHHaaa, TimeUS,N,seqno,x,y,z
FMT, 129, 15, RFRH, QI, TimeUS,TF
FMT, 130, 5, RFRF, BB, FTypes,Slow
FMT, 138, 38, RFRN, IIIfIfffBBB, HLat,HLon,HAlt,E2T,AM,TX,TY,TZ,VC,EKT,Flags
FMT, 131, 4, REV2, B, Event
FMT, 132, 15, RSO2, III, Lat,Lon,Alt
FMT, 133, 11, RWA2, ff, Airspeed,uncertainty
FMT, 134, 4, REV3, B, Event
FMT, 135, 15, RSO3, III, Lat,Lon,Alt
FMT, 136, 11, RWA3, ff, Airspeed,Uncertainty
FMT, 137, 16, REY3, ffIB, yawangle,yawangleerr,timestamp_ms,type
FMT, 139, 13, RISH, HBBfBB, LR,PG,PA,LD,AC,GC
FMT, 140, 37, RISI, ffffffffBB, DVX,DVY,DVZ,DAX,DAY,DAZ,DVDT,DADT,Flags,I
FMT, 148, 5, RASH, BB, Primary,NumInst
FMT, 149, 14, RASI, fIBBB, pd,UpdateMS,H,Use,I
FMT, 141, 5, RBRH, BB, Primary,NumInst
FMT, 142, 13, RBRI, IfBB, LastUpdate,Alt,H,I
FMT, 143, 8, RRNH, hhB, GCl,MaxD,NumSensors
FMT, 144, 20, RRNI, fffHBBB, PX,PY,PZ,Dist,Orient,Status,I
FMT, 145, 5, RGPH, BB, NumInst,Primary
FMT, 146, 23, RGPI, ffffBBBB, OX,OY,OZ,Lg,Flags,Stat,NSats,I
FMT, 147, 58, RGPJ, IffffffIiiiffHB, TS,VX,VY,VZ,SA,Y,YA,YT,Lat,Lon,Alt,HA,VA,HD,I
FMT, 153, 14, RMGH, fBBBBBBB, Dec,Avail,NumInst,AutoDec,NumEna,LOE,C,FUsable
FMT, 154, 35, RMGI, IffffffBBBB, LU,OX,OY,OZ,FX,FY,FZ,UFY,H,HSF,I
FMT, 150, 33, RBCH, ffffiiiBB, PX,PY,PZ,AE,OLat,OLng,OAlt,Flags,NumInst
FMT, 151, 25, RBCI, IffffBB, LU,PX,PY,PZ,Dist,H,I
FMT, 152, 21, RVOH, fffIBB, OX,OY,OZ,Del,H,Ena
FMT, 155, 40, ROFH, ffffIffffB, FX,FY,GX,GY,Tms,PX,PY,PZ,HgtOvr,Qual
FMT, 156, 49, REPH, fffffffffIIH, PX,PY,PZ,Q1,Q2,Q3,Q4,PEr,AEr,TS,RT,D
FMT, 157, 19, RSLL, IIfI, Lat,Lng,PosAccSD,TS
FMT, 158, 25, REVH, ffffIH, VX,VY,VZ,Er,TS,D
FMT, 159, 31, RWOH, ffIffff, DA,DT,TS,PX,PY,PZ,R
FMT, 160, 53, RBOH, ffffffffIfffH, Q,DPX,DPY,DPZ,DAX,DAY,DAZ,DT,TS,OX,OY,OZ,D
FMT, 43, 37, XKF0, QBBccCCcccccccc, TimeUS,C,ID,rng,innov,SIV,TR,BPN,BPE,BPD,OFH,OFL,OFN,OFE,OFD
FMT, 49, 36, XKFD, QBffffff, TimeUS,C,IX,IY,IZ,IVX,IVY,IVZ
FMT, 50, 29, XKFM, QBBffff, TimeUS,C,OGNM,GLR,ALR,GDR,ADR
FMT, 53, 48, XKT, QBIffffffff, TimeUS,C,Cnt,IMUMin,IMUMax,EKFMin,EKFMax,AngMin,AngMax,VMin,VMax
FMT, 54, 20, XKTV, QBff, TimeUS,C,TVS,TVD
FMT, 55, 60, XKV1, QBffffffffffff, TimeUS,C,V00,V01,V02,V03,V04,V05,V06,V07,V08,V09,V10,V11
FMT, 56, 60, XKV2, QBffffffffffff, TimeUS,C,V12,V13,V14,V15,V16,V17,V18,V19,V20,V21,V22,V23
FMT, 57, 60, XKY0, QBffffffffffff, TimeUS,C,YC,YCS,Y0,Y1,Y2,Y3,Y4,W0,W1,W2,W3,W4
FMT, 58, 52, XKY1, QBffffffffff, TimeUS,C,IVN0,IVN1,IVN2,IVN3,IVN4,IVE0,IVE1,IVE2,IVE3,IVE4
FMT, 41, 60, NKY0, QBffffffffffff, TimeUS,C,YC,YCS,Y0,Y1,Y2,Y3,Y4,W0,W1,W2,W3,W4
FMT, 42, 52, NKY1, QBffffffffff, TimeUS,C,IVN0,IVN1,IVN2,IVN3,IVN4,IVE0,IVE1,IVE2,IVE3,IVE4
FMT, 71, 19, AOA, Qff, TimeUS,AOA,SSA
FMT, 73, 24, ORGN, QBLLe, TimeUS,Type,Lat,Lng,Alt
FMT, 74, 31, POS, QLLfff, TimeUS,Lat,Lng,Alt,RelHomeAlt,RelOriginAlt
FMT, 76, 35, ATSC, Qffffff, TimeUS,AngPScX,AngPScY,AngPScZ,PDScX,PDScY,PDScZ
FMT, 204, 51, VSTB, Qffffffffff, TimeUS,GyrX,GyrY,GyrZ,AccX,AccY,AccZ,Q1,Q2,Q3,Q4
FMT, 90, 38, MON, QIbIHHHHHII, TimeUS,Dly,Tsk,IErr,IErrCnt,IErrLn,MM,MC,SmLn,SPICnt,I2CCnt
FMT, 91, 47, WDOG, QbIHHHHHHHIBIIn, TimeUS,Tsk,IE,IEC,IEL,MvMsg,MvCmd,SmLn,FL,FT,FA,FP,ICSR,LR,TN
FMT, 210, 20, UART, QBff, TimeUS,I,Tx,Rx
FMT, 115, 21, RPM, QBffB, TimeUS,I,RPM,Qual,H
FMT, 209, 27, FNCE, QBBBLLBf, TimeUS,Tot,Seq,Type,Lat,Lng,Count,Radius
FMT, 177, 33, DSF, QIHIIII, TimeUS,Dp,Blk,Bytes,FMn,FMx,FAv
FMT, 121, 24, RALY, QBBLLhB, TimeUS,Tot,Seq,Lat,Lng,Alt,Flags
FMT, 183, 23, MAV, QBHHHBHH, TimeUS,chan,txp,rxp,rxdp,flags,ss,tf
FMT, 167, 43, VISO, Qffffffff, TimeUS,dt,AngDX,AngDY,AngDZ,PosDX,PosDY,PosDZ,conf
FMT, 168, 58, VISP, QQIffffffffBBb, TimeUS,RTimeUS,CTimeMS,PX,PY,PZ,R,P,Y,PErr,AErr,Rst,Ign,Q
FMT, 169, 42, VISV, QQIffffBBb, TimeUS,RTimeUS,CTimeMS,VX,VY,VZ,VErr,Rst,Ign,Q
FMT, 180, 28, OF, QBffff, TimeUS,Qual,flowX,flowY,bodyX,bodyY
FMT, 182, 21, WENC, Qfbfb, TimeUS,Dist0,Qual0,Dist1,Qual1
FMT, 185, 35, ADSB, QIiiiHHhH, TimeUS,ICAO_address,Lat,Lng,Alt,Heading,Hor_vel,Ver_vel,Squark
FMT, 181, 12, EV, QB, TimeUS,Id
FMT, 186, 18, ARM, QBIBB, TimeUS,ArmState,ArmChecks,Forced,Method
FMT, 184, 13, ERR, QBB, TimeUS,Subsys,ECode
FMT, 187, 35, WINC, QBBBBBfffHfb, TimeUS,Heal,ThEnd,Mov,Clut,Mode,DLen,Len,DRate,Tens,Vcc,Temp
ISBH, 23907429, 0, 1, 0, 938, 1024, 22926574, 1976.856
ISBD, 23907434, 0, 0, [0 1 -1 -1 0 0 0 1 1 0 0 0 1 0 1 0 0 -1 -1 0 3 0 0 0 1 1 -1 0 0 0 0 0], [0 -3 -2 -3 0 0 0 0 -1 -1 -1 -1 0 0 0 -2 -2 -1 2 1 -2 -4 -4 -1 -4 -5 -1 -2 -2 0 1 2], [-2 -1 0 0 -1 0 0 0 -1 0 -1 0 0 -2 -3 -4 -2 -1 0 0 0 0 0 -1 -1 0 -1 -1 -1 -1 0 0]
ATT, 23926201, 0, 0.04985867, 0, -1.099695, 0, 359.8424, 3
XKF4, 23925287, 0, 0, 0, 0, 0, 0, 0.01077581, 0, 0, 0, 50, 65703, 0, 0
XKF1, 23925287, 0, 0.04, -1.09, 359.84, 0.1959682, 0.1136284, -0.08856721, -0.07199991, 0, 0, -0.8287942, -0.03, 0.14, -0.03, 0
XKF2, 23925287, 0, 0, 0, 0.2, 0, 0, 0, 0, 0, 0, 0, 0, 0, 0, 0
XKF3, 23925287, 0, 0, 0, 0, 0.15, 0.14, 0, 0, 0, 0, 0, 0, 0, 0
XKF5, 23925287, 0, 0, 0, 0, 0, 1.05, 0.24, 0, 0, 0.5, 2.750232E-05, 0.009763177, 0.01760014
XKFS, 23925287, 0, 0, 0, 0, 0, 0, 0, 0, 0
XKQ, 23925287, 0, 0.9993804, 0.019984, -0.02896491, -0.0007948069
XKF4, 23925287, 1, 0, 0, 0.03, 0, 0, 0.01112712, 0, 0, 0, 50, 65703, 0, 0
XKF1, 23925287, 1, 2.17, 0.34, 359.98, 0.01343838, 0.1271239, -0.3249156, -0.1174045, 0, 0, -1.216995, 0.12, -0.1, 0.01, 0
XKF2, 23925287, 1, 0, 0, 0.03, 0, 0, 0, 0, 0, 0, 0, 0, 0, 0, 0
XKF3, 23925287, 1, 0, 0, 0, 0.01, 0.14, -0.35, 0, 0, 0, 0, 0, 0, 0
XKFS, 23925287, 1, 0, 0, 0, 0, 0, 0, 0, 0
XKQ, 23925287, 1, 0.9991212, 0.0385944, -0.01633989, 0.0004932154
AHR2, 23926298, -0.17, -0.56, 359.33, 0.82, 0, 0, 0.9999717, -0.001553147, -0.004965469, -0.00543136
PIDS, 23926303, 0, 0, 0, 0, 0, 0, 0, 0, 0, 0, 0
PIDA, 23926307, 0, 0, 0, 0, 0, 0, 0, 0, 0, 0, 0
IMU, 23926311, 0, 0.0003312558, -0.003320069, -0.0008926509, -0.4436077, -0.3413362, -9.601055, 0, 0, 43.35749, 1, 1, 1976, 1976
IMU, 23926311, 1, 0.003738777, -0.001403518, 0.000142497, -0.3210211, -0.7014762, -9.817644, 0, 0, 42, 1, 1, 2004, 2017
BARO, 23926379, 0, 0.8644629, 0.8644629, 101130.7, 22.98, -0.1139426, 23926, 0, 21.63189, 1
MAG, 23926399, 0, 278, -628, 745, 0, 0, 0, 0, 0, 0, 1, 23926397
FMT, 0, 29, THR, Qhffff, TimeUS,ThrIn,ThrOut,DesSpeed,Speed,AccX
THR, 23926406, 0, 0, 0, 0.1956587, -0.4436077
FMT, 1, 29, NTUN, QfffHf, TimeUS,WpDist,WpBrg,DesYaw,Yaw,XTrack
NTUN, 23926426, 0, 0, 0, 35985, 0
FMT, 2, 33, STER, Qhfffff, TimeUS,SteerIn,SteerOut,DesLatAcc,LatAcc,DesTurnRate,TurnRate
STER, 23926445, 0, 0, 0, -5.760317E-05, 0, -0.01686824
RCIN, 23926464, 1522, 1479, 1497, 1494, 2000, 1000, 1500, 1500, 0, 0, 0, 0, 0, 0
RCI2, 23926468, 0, 0, 0, 1
RCOU, 23926474, 1496, 1500, 1500, 0, 0, 0, 0, 0, 0, 0, 0, 0, 0, 0
RCO2, 23926478, 0, 0, 0, 0
VIBE, 23926482, 0, 0.008149562, 0.008875781, 0.009592158, 0
VIBE, 23926482, 1, 0.06124132, 0.04407336, 0.07098472, 0
POWR, 23926598, 5.130368, 5.857802, 1, 1, 6
MCU, 23926598, 23.8446, 3.365743, 3.356051, 3.375491
BAT, 23926612, 0, 24.02439, 24.90944, 0.3094513, 1.762241, 0.04234548, 0, 2.860075, 255, 0, 0
FMT, 188, 47, PSCN, Qfffffffff, TimeUS,DPN,TPN,PN,DVN,TVN,VN,DAN,TAN,AN
FMT, 189, 47, PSCE, Qfffffffff, TimeUS,DPE,TPE,PE,DVE,TVE,VE,DAE,TAE,AE
FMT, 190, 47, PSCD, Qfffffffff, TimeUS,DPD,TPD,PD,DVD,TVD,VD,DAD,TAD,AD
FMT, 191, 35, PSON, Qffffff, TimeUS,TPON,PON,TVON,VON,TAON,AON
FMT, 192, 35, PSOE, Qffffff, TimeUS,TPOE,POE,TVOE,VOE,TAOE,AOE
FMT, 193, 35, PSOD, Qffffff, TimeUS,TPOD,POD,TVOD,VOD,TAOD,AOD
FMT, 194, 35, PSOT, Qffffff, TimeUS,TPOT,POT,TVOT,VOT,TAOT,AOT
FMT, 75, 63, RATE, Qfffffffffffff, TimeUS,RDes,R,ROut,PDes,P,POut,YDes,Y,YOut,ADes,A,AOut,AOutSlew
FMT, 195, 39, ANG, Qfffffff, TimeUS,DesRoll,Roll,DesPitch,Pitch,DesYaw,Yaw,Dt
FMT, 201, 33, STAK, QBBHHN, TimeUS,Id,Pri,Total,Free,Name
FMT, 202, 88, FILE, NIBZ, FileName,Offset,Length,Data
FMT, 197, 78, AISR, QBBBZ, TimeUS,num,total,ID,payload
FMT, 198, 41, AIS1, QBBIBbHbLLHHBBbI, US,typ,rep,mmsi,nav,rot,sog,pos,lon,lat,cog,hed,sec,man,raim,rad
FMT, 199, 38, AIS4, QBIHBBBBBBLLBBI, US,rep,mmsi,year,mth,day,h,m,s,fix,lon,lat,epfd,raim,rad
FMT, 200, 175, AIS5, QBIBINZBHHBBBBZB, US,rep,mmsi,ver,imo,cal,nam,typ,bow,stn,prt,str,fix,dght,dst,dte
FMT, 203, 39, SCR, QNIii, TimeUS,Name,Runtime,Total_mem,Run_mem
FMT, 206, 90, VER, QBHBBBBIZHBB, TimeUS,BT,BST,Maj,Min,Pat,FWT,GH,FWS,APJ,BU,FV
FMT, 205, 32, MOTB, QfffffB, TimeUS,LiftMax,BatVolt,ThLimit,ThrAvMx,ThrOut,FailFlags
FMT, 3, 36, GUIP, QBffffff, TimeUS,Type,pX,pY,pZ,vX,vY,vZ
ISBD, 23927648, 0, 1, [0 2 2 0 0 0 0 1 2 1 0 1 2 0 0 -2 0 2 2 0 0 0 0 0 0 0 0 0 0 0 -1 0], [1 -1 -3 0 -1 -2 -2 -2 -5 -3 0 -3 -3 -5 -4 0 -2 -2 -4 -5 -4 -3 -1 -1 -2 -2 -1 -1 -2 -3 -3 -2], [0 -1 -1 -1 -2 -3 -2 -1 -1 -1 0 0 0 0 0 -2 -1 0 0 -1 -1 0 0 -1 -1 -2 -2 -1 0 0 0 0]
ATT, 23945797, 0, 0.05093784, 0, -1.105714, 0, 359.8416, 3
XKF4, 23945291, 0, 0, 0, 0, 0, 0, 0.01080102, 0, 0, 0, 50, 65703, 0, 0
XKF1, 23945291, 0, 0.05, -1.1, 359.84, 0.1985627, 0.1146135, -0.08873985, -0.07209537, 0, 0, -0.8301918, -0.03, 0.14, -0.03, 0
XKF2, 23945291, 0, 0, 0, 0.2, 0, 0, 0, 0, 0, 0, 0, 0, 0, 0, 0
XKF3, 23945291, 0, 0, 0, 0, 0.15, 0.14, 0, 0, 0, 0, 0, 0, 0, 0
XKF5, 23945291, 0, 0, 0, 0, 0, 1.06, 0.24, 0, 0, 0.5, 2.802819E-05, 0.009719709, 0.017593
XKFS, 23945291, 0, 0, 0, 0, 0, 0, 0, 0, 0
XKQ, 23945291, 0, 0.9993786, 0.0199931, -0.02901755, -0.0008005024
XKV1, 23945291, 0, 1.731537E-08, 1.387934E-05, 1.289772E-05, 0.001997353, 0.07387979, 0.07403947, 0.02270784, 0.1108742, 0.1109553, 0.2150639, 3.424515E-10, 3.265515E-10
XKV2, 23945291, 0, 2.285973E-08, 1.345604E-05, 1.345611E-05, 1.538498E-07, 0, 0, 0, 0, 0, 0, 0, 0
XKF4, 23945291, 1, 0, 0, 0.03, 0, 0, 0.0111512, 0, 0, 0, 50, 65703, 0, 0
XKF1, 23945291, 1, 2.18, 0.34, 359.98, 0.01372393, 0.1283957, -0.3252488, -0.1121888, 0, 0, -1.218993, 0.12, -0.1, 0.01, 0
XKF2, 23945291, 1, 0, 0, 0.03, 0, 0, 0, 0, 0, 0, 0, 0, 0, 0, 0
XKF3, 23945291, 1, 0, 0, 0, 0.01, 0.14, -0.35, 0, 0, 0, 0, 0, 0, 0
XKFS, 23945291, 1, 0, 0, 0, 0, 0, 0, 0, 0
XKQ, 23945291, 1, 0.9991205, 0.03861681, -0.01633315, 0.0005068381
AHR2, 23945876, -0.17, -0.57, 359.33, 0.86, 0, 0, 0.9999715, -0.00154868, -0.004989865, -0.005442833
PIDS, 23945881, 0, 0, 0, 0, 0, 0, 0, 0, 0, 0, 0
PIDA, 23945885, 0, 0, 0, 0, 0, 0, 0, 0, 0, 0, 0
IMU, 23945889, 0, 0.0003561268, -0.003323561, -0.001015889, -0.4416334, -0.3433298, -9.600537, 0, 0, 43.35749, 1, 1, 1976, 1976
IMU, 23945889, 1, 0.003853605, -0.001434011, 0.0002074616, -0.3156914, -0.6999531, -9.814856, 0, 0, 42, 1, 1, 2004, 2017
ISBD, 23947080, 0, 2, [0 0 1 -1 0 0 1 0 0 1 3 1 0 0 1 1 1 1 2 1 -1 0 1 2 0 0 2 1 2 0 0 0], [0 -3 -6 -5 -3 0 -4 -3 0 -2 -2 -1 0 0 -2 -3 -3 -3 -3 -2 0 3 1 -3 -1 -2 -1 -2 -2 2 0 -2], [0 0 -1 -1 0 0 -1 -1 -1 -2 -1 0 1 1 0 -1 -2 -2 -1 -1 0 0 0 -1 -2 0 0 0 1 0 0 -1]
ATT, 23965837, 0, 0.05182961, 0, -1.112417, 0, 359.8407, 3
XKF4, 23965310, 0, 0, 0, 0, 0, 0, 0.01082882, 0, 0, 0, 50, 65703, 0, 0
XKF1, 23965310, 0, 0.05, -1.11, 359.84, 0.2011413, 0.1156291, -0.08896323, -0.07272514, 0, 0, -0.8316677, -0.03, 0.14, -0.03, 0
XKF2, 23965310, 0, 0, 0, 0.2, 0, 0, 0, 0, 0, 0, 0, 0, 0, 0, 0
XKF3, 23965310, 0, 0, 0, 0, 0.15, 0.14, 0, 0, 0, 0, 0, 0, 0, 0
XKF5, 23965310, 0, 0, 0, 0, 0, 1.06, 0.24, 0, 0, 0.5, 2.848731E-05, 0.009673644, 0.01758692
XKFS, 23965310, 0, 0, 0, 0, 0, 0, 0, 0, 0
XKQ, 23965310, 0, 0.9993768, 0.02000054, -0.02907616, -0.0008068457
XKF4, 23965310, 1, 0, 0, 0.03, 0, 0, 0.01117914, 0, 0, 0, 50, 65703, 0, 0
XKF1, 23965310, 1, 2.18, 0.34, 359.98, 0.01380271, 0.1298821, -0.3255863, -0.1087935, 0, 0, -1.221187, 0.12, -0.1, 0.01, 0
XKF2, 23965310, 1, 0, 0, 0.03, 0, 0, 0, 0, 0, 0, 0, 0, 0, 0, 0
XKF3, 23965310, 1, 0, 0, 0, 0.01, 0.14, -0.35, 0, 0, 0, 0, 0, 0, 0
XKFS, 23965310, 1, 0, 0, 0, 0, 0, 0, 0, 0
XKQ, 23965310, 1, 0.9991202, 0.038641, -0.01628969, 0.000506608
AHR2, 23965912, -0.17, -0.57, 359.33, 0.86, 0, 0, 0.9999714, -0.00154602, -0.005019502, -0.005455209
PIDS, 23965917, 0, 0, 0, 0, 0, 0, 0, 0, 0, 0, 0
PIDA, 23965920, 0, 0, 0, 0, 0, 0, 0, 0, 0, 0, 0
IMU, 23965924, 0, 0.0003711641, -0.003291875, -0.001066584, -0.4390386, -0.3444938, -9.604322, 0, 0, 43.84058, 1, 1, 1976, 1976
IMU, 23965924, 1, 0.003949516, -0.001025599, 0.0003747512, -0.3182031, -0.696323, -9.821029, 0, 0, 42, 1, 1, 2004, 2017
ISBD, 23967101, 0, 3, [0 -1 -1 0 2 0 -1 -1 0 1 2 1 0 0 -1 0 1 0 1 0 -1 0 1 1 2 1 0 0 1 1 0 0], [-1 -2 -2 -2 -4 -2 0 0 -1 -1 0 2 1 -3 -2 -3 0 -2 -3 0 0 -1 -2 -1 -2 -2 -1 -1 0 0 -1 0], [0 0 0 -2 -2 0 -1 -3 -2 -1 -1 -1 -1 -1 -1 -1 -1 0 0 -1 -1 -3 -3 -1 0 -1 0 0 0 -1 -1 0]
ATT, 23985793, 0, 0.0529329, 0, -1.118401, 0, 359.8402, 3
XKF4, 23985301, 0, 0, 0, 0, 0, 0, 0.01085638, 0, 0, 0, 50, 65703, 0, 0
XKF1, 23985301, 0, 0.05, -1.11, 359.84, 0.2037168, 0.1166573, -0.08921742, -0.07377988, 0, 0, -0.8331311, -0.03, 0.14, -0.03, 0
XKF2, 23985301, 0, 0, 0, 0.2, 0, 0, 0, 0, 0, 0, 0, 0, 0, 0, 0
XKF3, 23985301, 0, 0, 0, 0, 0.15, 0.14, 0, 0, 0, 0, 0, 0, 0, 0
XKF5, 23985301, 0, 0, 0, 0, 0, 1.06, 0.24, 0, 0, 0.5, 2.882001E-05, 0.009626139, 0.01757138
XKFS, 23985301, 0, 0, 0, 0, 0, 0, 0, 0, 0
XKQ, 23985301, 0, 0.999375, 0.02000994, -0.02912845, -0.0008096974
XKF4, 23985301, 1, 0, 0, 0.03, 0, 0, 0.0112052, 0, 0, 0, 50, 65703, 0, 0
XKF1, 23985301, 1, 2.18, 0.34, 359.98, 0.0140498, 0.1315607, -0.3262896, -0.1090423, 0, 0, -1.223721, 0.12, -0.1, 0.01, 0
XKF2, 23985301, 1, 0, 0, 0.03, 0, 0, 0, 0, 0, 0, 0, 0, 0, 0, 0
XKF3, 23985301, 1, 0, 0, 0, 0.01, 0.14, -0.35, 0, 0, 0, 0, 0, 0, 0
XKFS, 23985301, 1, 0, 0, 0, 0, 0, 0, 0, 0
XKQ, 23985301, 1, 0.9991179, 0.0386906, -0.01631477, 0.0004920312
AHR2, 23985865, -0.17, -0.57, 359.33, 0.86, 0, 0, 0.9999712, -0.001541271, -0.005043606, -0.005463825
PIDS, 23985869, 0, 0, 0, 0, 0, 0, 0, 0, 0, 0, 0
PIDA, 23985873, 0, 0, 0, 0, 0, 0, 0, 0, 0, 0, 0
IMU, 23985877, 0, 0.0003726947, -0.003235803, -0.001047823, -0.4399651, -0.3446914, -9.607934, 0, 0, 43.84058, 1, 1, 1976, 1976
IMU, 23985877, 1, 0.004297227, -0.0008462526, 0.0003633141, -0.314434, -0.6878521, -9.821909, 0, 0, 42, 1, 1, 2004, 2017
ISBD, 23987052, 0, 4, [0 0 -1 0 0 0 1 0 -1 -3 0 0 0 2 2 0 0 0 0 0 0 0 0 1 2 0 -1 1 2 0 0 0], [1 3 0 -3 -3 -4 0 -1 -2 3 1 0 -2 -1 -1 -2 -2 -2 0 1 0 0 0 -1 -5 -4 -2 -1 0 -2 0 0], [0 -1 -1 -1 -2 -1 0 0 0 -1 -3 -1 -1 -1 -2 -2 0 -1 -1 0 0 0 -1 0 0 -1 0 1 0 0 0 -1]
DCM, 24005276, -0.1707877, -0.5827411, 359.33, 0.001463063, 1, 0, 0, 0
EAHR, 24005322, 0, 0, 0, 0, 0, 0, 0, 0, 0, 0
ATT, 24005901, 0, 0.05460437, 0, -1.125972, 0, 359.8394, 3
XKF4, 24005338, 0, 0, 0, 0, 0, 0, 0.01088458, 0, 0, 0, 50, 65703, 0, 0
XKF1, 24005338, 0, 0.05, -1.12, 359.83, 0.2063926, 0.1177437, -0.08948477, -0.07499816, 0, 0, -0.8346704, -0.03, 0.14, -0.03, 0
XKF2, 24005338, 0, 0, 0, 0.2, 0, 0, 0, 0, 0, 0, 0, 0, 0, 0, 0
XKF3, 24005338, 0, 0, 0, 0, 0.15, 0.14, 0, 0, 0, 0, 0, 0, 0, 0
XKF5, 24005338, 0, 0, 0, 0, 0, 1.06, 0.24, 0, 0, 0.5, 2.901245E-05, 0.009576637, 0.01755596
XKFS, 24005338, 0, 0, 0, 0, 0, 0, 0, 0, 0
XKQ, 24005338, 0, 0.9993728, 0.02002418, -0.02919462, -0.0008149167
XKF4, 24005338, 1, 0, 0, 0.03, 0, 0, 0.01123155, 0, 0, 0, 50, 65703, 0, 0
XKF1, 24005338, 1, 2.18, 0.34, 359.98, 0.01396521, 0.1332391, -0.3274218, -0.1139986, 0, 0, -1.22674, 0.12, -0.1, 0.01, 0
XKF2, 24005338, 1, 0, 0, 0.03, 0, 0, 0, 0, 0, 0, 0, 0, 0, 0, 0
XKF3, 24005338, 1, 0, 0, 0, 0.01, 0.14, -0.35, 0, 0, 0, 0, 0, 0, 0
XKFS, 24005338, 1, 0, 0, 0, 0, 0, 0, 0, 0
XKQ, 24005338, 1, 0.9991184, 0.03868267, -0.01630574, 0.0004947197
AHR2, 24005972, -0.17, -0.58, 359.33, 0.86, 0, 0, 0.9999709, -0.001531827, -0.005080867, -0.005475109
PIDS, 24005977, 0, 0, 0, 0, 0, 0, 0, 0, 0, 0, 0
PIDA, 24005983, 0, 0, 0, 0, 0, 0, 0, 0, 0, 0, 0
IMU, 24005988, 0, 0.0004425089, -0.003279017, -0.001006065, -0.4393088, -0.3437517, -9.607862, 0, 0, 43.84058, 1, 1, 1976, 1976
IMU, 24005988, 1, 0.004403173, -0.001190082, 0.0002954944, -0.3168693, -0.6841675, -9.836193, 0, 0, 42, 1, 1, 2004, 2017
ISBD, 24007178, 0, 5, [1 0 0 0 3 1 0 0 1 0 0 0 1 1 0 0 0 3 2 2 3 1 2 0 0 0 0 0 1 0 0 1], [-2 0 -1 -2 -1 -1 0 0 0 0 -3 -3 -2 -4 -9 -5 1 -1 0 -1 0 2 -2 -3 -1 0 -1 -3 -5 -4 -1 0], [-1 0 -1 -2 -2 0 0 -1 -1 -1 0 0 -1 0 0 0 1 0 1 1 0 0 -1 -1 -1 0 0 1 0 0 0 1]
ATT, 24026404, 0, 0.05566049, 0, -1.13289, 0, 359.8386, 3
XKF4, 24025309, 0, 0, 0, 0, 0, 0, 0.01091203, 0, 0, 0, 50, 65703, 0, 0
XKF1, 24025309, 0, 0.05, -1.13, 359.83, 0.2091714, 0.1189073, -0.0897072, -0.07630927, 0, 0, -0.8364004, -0.03, 0.14, -0.03, 0
XKF2, 24025309, 0, 0, 0, 0.2, 0, 0, 0, 0, 0, 0, 0, 0, 0, 0, 0
XKF3, 24025309, 0, 0, 0, 0, 0.17, 0.15, 0.03, 0, 0, 0, 0, 0, 0, 0
XKF5, 24025309, 0, 0, 0, 0, 0, 1.07, 0.24, 0, 0, 0.5, 3.268243E-05, 0.009454488, 0.01795593
XKFS, 24025309, 0, 0, 0, 0, 0, 0, 0, 0, 0
XKQ, 24025309, 0, 0.9993709, 0.02003306, -0.02925512, -0.0008208518
XKF4, 24025309, 1, 0, 0, 0.03, 0, 0, 0.01125723, 0, 0, 0, 50, 65703, 0, 0
XKF1, 24025309, 1, 2.19, 0.34, 359.98, 0.01381247, 0.1345068, -0.3279653, -0.1230393, 0, 0, -1.228354, 0.12, -0.1, 0.01, 0
XKF2, 24025309, 1, 0, 0, 0.03, 0, 0, 0, 0, 0, 0, 0, 0, 0, 0, 0
XKF3, 24025309, 1, 0, 0, 0, 0.01, 0.15, -0.32, 0, 0, 0, 0, 0, 0, 0
XKFS, 24025309, 1, 0, 0, 0, 0, 0, 0, 0, 0
XKQ, 24025309, 1, 0.9991167, 0.03871414, -0.01633137, 0.0004955888
AHR2, 24026483, -0.17, -0.58, 359.32, 0.86, 0, 0, 0.9999707, -0.00152771, -0.005112415, -0.00548709
PIDS, 24026488, 0, 0, 0, 0, 0, 0, 0, 0, 0, 0, 0
PIDA, 24026492, 0, 0, 0, 0, 0, 0, 0, 0, 0, 0, 0
IMU, 24026496, 0, 0.0004866495, -0.003378393, -0.001023957, -0.4367847, -0.3404753, -9.606181, 0, 0, 43.84058, 1, 1, 1976, 1976
IMU, 24026496, 1, 0.004352097, -0.001510361, 0.0002349336, -0.325769, -0.694661, -9.837101, 0, 0, 42, 1, 1, 2004, 2017
BARO, 24026567, 0, 0.7086248, 0.7086248, 101132.5, 22.99, 0.01469314, 24026, 0, 21.63189, 1
MAG, 24026612, 0, 279, -628, 741, 0, 0, 0, 0, 0, 0, 1, 24026608
THR, 24026620, 0, 0, 0, 0.2088401, -0.4367847
NTUN, 24026624, 0, 0, 0, 35984, 0
STER, 24026631, 0, 0, 0, -8.830759E-05, 0, -0.0242274
RCIN, 24026662, 1522, 1479, 1497, 1494, 2000, 1000, 1500, 1500, 0, 0, 0, 0, 0, 0
RCI2, 24026666, 0, 0, 0, 1
RCOU, 24026673, 1496, 1500, 1500, 0, 0, 0, 0, 0, 0, 0, 0, 0, 0, 0
RCO2, 24026681, 0, 0, 0, 0
VIBE, 24026685, 0, 0.007794498, 0.009623723, 0.01129446, 0
VIBE, 24026685, 1, 0.06692728, 0.0475946, 0.07036231, 0
POWR, 24026754, 5.122412, 5.860219, 1, 1, 6
MCU, 24026754, 23.88496, 3.365602, 3.355211, 3.375349
BAT, 24026776, 0, 24.02505, 24.89754, 0.3050568, 1.77073, 0.04254941, 0, 2.860075, 255, 0, 0
ISBD, 24027881, 0, 6, [2 1 1 0 -2 -1 1 0 1 1 1 3 0 0 1 0 0 0 0 0 1 2 1 2 0 0 -1 0 0 1 2 0], [-2 -1 0 0 0 -1 -3 -2 -2 2 0 -5 -3 -1 -1 -1 -1 -1 -1 0 0 0 0 -2 -2 -2 -3 -2 1 -2 -4 -2], [1 1 0 -1 -1 -1 0 1 2 1 1 -1 -2 0 -1 -1 -2 0 0 -2 -1 0 0 -1 0 0 0 -1 -2 -2 -2 -3]
ATT, 24045801, 0, 0.05618748, 0, -1.138759, 0, 359.8382, 3
XKF4, 24045297, 0, 0, 0, 0, 0, 0, 0.0109113, 0, 0, 0, 50, 65703, 0, 0
XKF1, 24045297, 0, 0.05, -1.13, 359.83, 0.211918, 0.1200381, -0.08990692, -0.07928871, 0, 0, -0.8381011, -0.03, 0.14, -0.03, 0
XKF2, 24045297, 0, 0, 0, 0.2, 0, 0, 0, 0, 0, 0, 0, 0, 0, 0, 0
XKF3, 24045297, 0, 0, 0, 0, 0.17, 0.15, 0.03, 0, 0, 0, 0, 0, 0, 0
XKF5, 24045297, 0, 0, 0, 0, 0, 1.07, 0.24, 0, 0, 0.5, 3.272371E-05, 0.009409954, 0.01791548
XKFS, 24045297, 0, 0, 0, 0, 0, 0, 0, 0, 0
XKQ, 24045297, 0, 0.9993693, 0.02003746, -0.02930637, -0.0008226647
XKF4, 24045297, 1, 0, 0, 0.03, 0, 0, 0.01124407, 0, 0, 0, 50, 65703, 0, 0
XKF1, 24045297, 1, 2.19, 0.34, 359.98, 0.01358858, 0.1359229, -0.3288543, -0.1192406, 0, 0, -1.230829, 0.12, -0.1, 0.01, 0
XKF2, 24045297, 1, 0, 0, 0.03, 0, 0, 0, 0, 0, 0, 0, 0, 0, 0, 0
XKF3, 24045297, 1, 0, 0, 0, 0.01, 0.15, -0.32, 0, 0, 0, 0, 0, 0, 0
XKFS, 24045297, 1, 0, 0, 0, 0, 0, 0, 0, 0
XKQ, 24045297, 1, 0.9991158, 0.03873811, -0.01632946, 0.0004866872
AHR2, 24045884, -0.17, -0.58, 359.32, 0.7, 0, 0, 0.9999706, -0.001527856, -0.005135585, -0.005494672
PIDS, 24045889, 0, 0, 0, 0, 0, 0, 0, 0, 0, 0, 0
PIDA, 24045893, 0, 0, 0, 0, 0, 0, 0, 0, 0, 0, 0
IMU, 24045897, 0, 0.0004548017, -0.003376732, -0.001014334, -0.4341052, -0.3381385, -9.602633, 0, 0, 43.84058, 1, 1, 1976, 1976
IMU, 24045897, 1, 0.004393752, -0.001942942, 0.0001455975, -0.3368222, -0.6994848, -9.840144, 0, 0, 42, 1, 1, 2004, 2017
ISBD, 24047094, 0, 7, [1 1 1 1 0 0 0 0 0 0 0 0 1 0 0 0 0 0 0 0 2 0 1 0 -1 0 0 0 0 0 0 0], [0 0 -4 -5 -2 -1 0 -1 -1 -1 0 -1 -2 -2 -3 -4 -3 -3 -2 -1 -1 -1 -5 -3 -2 1 1 -3 -3 -1 0 -1], [-3 -1 -2 -3 -1 0 -1 -1 0 0 0 -1 -1 -1 -1 -1 0 0 -1 -1 0 0 0 0 1 1 0 0 0 0 -1 0]
ATT, 24065860, 0, 0.05775138, 0, -1.145406, 0, 359.8376, 3
XKF4, 24065333, 0, 0, 0, 0, 0, 0, 0.0109392, 0, 0, 0, 50, 65703, 0, 0
XKF1, 24065333, 0, 0.05, -1.14, 359.83, 0.2146194, 0.1210851, -0.09012254, -0.08236927, 0, 0, -0.8398169, -0.03, 0.14, -0.03, 0
XKF2, 24065333, 0, 0, 0, 0.2, 0, 0, 0, 0, 0, 0, 0, 0, 0, 0, 0
XKF3, 24065333, 0, 0, 0, 0, 0.17, 0.15, 0.03, 0, 0, 0, 0, 0, 0, 0
XKF5, 24065333, 0, 0, 0, 0, 0, 1.07, 0.24, 0, 0, 0.5, 3.268795E-05, 0.009362858, 0.01786749
XKFS, 24065333, 0, 0, 0, 0, 0, 0, 0, 0, 0
XKQ, 24065333, 0, 0.9993673, 0.02005082, -0.02936445, -0.000826773
XKF4, 24065333, 1, 0, 0, 0.03, 0, 0, 0.01127038, 0, 0, 0, 50, 65703, 0, 0
XKF1, 24065333, 1, 2.19, 0.34, 359.98, 0.01391402, 0.1372761, -0.3293633, -0.1191389, 0, 0, -1.233329, 0.12, -0.1, 0.01, 0
XKF2, 24065333, 1, 0, 0, 0.03, 0, 0, 0, 0, 0, 0, 0, 0, 0, 0, 0
XKF3, 24065333, 1, 0, 0, 0, 0.01, 0.15, -0.32, 0, 0, 0, 0, 0, 0, 0
XKFS, 24065333, 1, 0, 0, 0, 0, 0, 0, 0, 0
XKQ, 24065333, 1, 0.9991158, 0.03873951, -0.01633044, 0.0004858555
AHR2, 24065958, -0.16, -0.59, 359.32, 0.7, 0, 0, 0.9999703, -0.001519522, -0.005164359, -0.00550454
PIDS, 24065964, 0, 0, 0, 0, 0, 0, 0, 0, 0, 0, 0
PIDA, 24065976, 0, 0, 0, 0, 0, 0, 0, 0, 0, 0, 0
IMU, 24065980, 0, 0.0004504657, -0.003335408, -0.0009489044, -0.4351553, -0.3400719, -9.602558, 0, 0, 43.84058, 1, 1, 1976, 1976
IMU, 24065980, 1, 0.004234553, -0.00215247, -4.712964E-05, -0.3270995, -0.7037584, -9.828578, 0, 0, 42, 1, 1, 2004, 2017
ISBD, 24067216, 0, 8, [0 0 0 0 0 1 1 1 1 1 0 0 0 0 0 0 0 0 0 1 0 0 0 1 2 1 0 1 1 0 0 2], [-1 -2 -2 -1 -1 0 0 0 0 -3 -1 -1 0 -3 -5 -1 -2 -3 -4 -4 -3 -2 -2 -2 -2 -3 -3 -3 -1 2 1 -3], [-1 -1 0 0 0 0 -1 -2 -3 -1 -1 0 0 0 0 0 0 -1 -2 -2 -2 0 0 0 0 -2 -2 -2 -1 0 0 -1]
ATT, 24085819, 0, 0.05872404, 0, -1.151978, 0, 359.8362, 3
XKF4, 24085300, 0, 0, 0, 0, 0, 0, 0.01096694, 0, 0, 0, 50, 65703, 0, 0
XKF1, 24085300, 0, 0.05, -1.15, 359.83, 0.2172346, 0.1221602, -0.09036136, -0.08513775, 0, 0, -0.8415478, -0.03, 0.14, -0.03, 0
XKF2, 24085300, 0, 0, 0, 0.2, 0, 0, 0, 0, 0, 0, 0, 0, 0, 0, 0
XKF3, 24085300, 0, 0, 0, 0, 0.17, 0.15, 0.03, 0, 0, 0, 0, 0, 0, 0
XKF5, 24085300, 0, 0, 0, 0, 0, 1.07, 0.24, 0, 0, 0.5, 3.257013E-05, 0.009313689, 0.01780779
XKFS, 24085300, 0, 0, 0, 0, 0, 0, 0, 0, 0
XKQ, 24085300, 0, 0.9993654, 0.02005884, -0.02942202, -0.0008372228
XKF4, 24085300, 1, 0, 0, 0.03, 0, 0, 0.01129673, 0, 0, 0, 50, 65703, 0, 0
XKF1, 24085300, 1, 2.19, 0.34, 359.98, 0.01405309, 0.1386074, -0.3301099, -0.1214694, 0, 0, -1.236153, 0.12, -0.1, 0.01, 0
XKF2, 24085300, 1, 0, 0, 0.03, 0, 0, 0, 0, 0, 0, 0, 0, 0, 0, 0
XKF3, 24085300, 1, 0, 0, 0, 0.01, 0.15, -0.32, 0, 0, 0, 0, 0, 0, 0
XKFS, 24085300, 1, 0, 0, 0, 0, 0, 0, 0, 0
XKQ, 24085300, 1, 0.9991156, 0.03874862, -0.01632197, 0.0004876771
AHR2, 24085912, -0.16, -0.59, 359.32, 0.7, 0, 0, 0.9999701, -0.001516436, -0.005192462, -0.005520821
PIDS, 24085917, 0, 0, 0, 0, 0, 0, 0, 0, 0, 0, 0
PIDA, 24085921, 0, 0, 0, 0, 0, 0, 0, 0, 0, 0, 0
IMU, 24085925, 0, 0.0004617714, -0.003355715, -0.001003034, -0.4390119, -0.3409706, -9.603048, 0, 0, 43.84058, 1, 1, 1976, 1976
IMU, 24085925, 1, 0.003856722, -0.002145837, -0.0001304533, -0.3144256, -0.702524, -9.830652, 0, 0, 42, 1, 1, 2004, 2017
ISBD, 24087067, 0, 9, [0 0 0 1 3 0 1 1 2 2 1 0 0 2 1 0 0 1 1 1 1 0 1 1 0 0 -3 0 1 1 0 0], [-3 -3 0 -4 -7 -3 -2 -1 -2 -3 -3 -2 -1 -1 -1 -1 0 -1 -3 -7 -6 -2 -1 0 -3 -3 -2 -2 0 -2 -2 -2], [-2 -2 -2 -1 -2 -4 0 2 0 -2 -1 0 -1 -1 0 0 0 0 0 -1 -2 -2 -1 0 0 -2 -1 0 0 -1 0 0]
DCM, 24105279, -0.1692122, -0.5982658, 359.3242, 0.001802239, 1, 0, 0, 0
EAHR, 24105301, 0, 0, 0, 0, 0, 0, 0, 0, 0, 0
ATT, 24105844, 0, 0.05904015, 0, -1.158246, 0, 359.8361, 3
XKF4, 24105314, 0, 0, 0, 0, 0, 0, 0.01099428, 0, 0, 0, 50, 65703, 0, 0
XKF1, 24105314, 0, 0.05, -1.15, 359.83, 0.2200931, 0.1233476, -0.09062991, -0.08762882, 0, 0, -0.8433843, -0.03, 0.14, -0.03, 0
XKF2, 24105314, 0, 0, 0, 0.2, 0, 0, 0, 0, 0, 0, 0, 0, 0, 0, 0
XKF3, 24105314, 0, 0, 0, 0, 0.17, 0.15, 0.03, 0, 0, 0, 0, 0, 0, 0
XKF5, 24105314, 0, 0, 0, 0, 0, 1.07, 0.24, 0, 0, 0.5, 3.225152E-05, 0.009261834, 0.01774191
XKFS, 24105314, 0, 0, 0, 0, 0, 0, 0, 0, 0
XKQ, 24105314, 0, 0.9993638, 0.02006146, -0.0294767, -0.0008367292
XKF4, 24105314, 1, 0, 0, 0.03, 0, 0, 0.01132348, 0, 0, 0, 50, 65703, 0, 0
XKF1, 24105314, 1, 2.19, 0.34, 359.98, 0.01388282, 0.1399526, -0.3307929, -0.1272794, 0, 0, -1.239447, 0.12, -0.1, 0.01, 0
XKF2, 24105314, 1, 0, 0, 0.03, 0, 0, 0, 0, 0, 0, 0, 0, 0, 0, 0
XKF3, 24105314, 1, 0, 0, 0, 0.01, 0.15, -0.32, 0, 0, 0, 0, 0, 0, 0
XKFS, 24105314, 1, 0, 0, 0, 0, 0, 0, 0, 0
XKQ, 24105314, 1, 0.9991146, 0.03877614, -0.01631507, 0.0004847268
AHR2, 24105915, -0.16, -0.59, 359.32, 0.7, 0, 0, 0.99997, -0.001519186, -0.005216348, -0.005526451
PIDS, 24105920, 0, 0, 0, 0, 0, 0, 0, 0, 0, 0, 0
PIDA, 24105924, 0, 0, 0, 0, 0, 0, 0, 0, 0, 0, 0
IMU, 24105928, 0, 0.000359764, -0.003306364, -0.0009952853, -0.4397493, -0.3411882, -9.603709, 0, 0, 43.84058, 1, 1, 1976, 1976
IMU, 24105928, 1, 0.003953163, -0.002048192, -0.0001945839, -0.3193769, -0.7002408, -9.825677, 0, 0, 42, 1, 1, 2004, 2017
ISBD, 24107136, 0, 10, [0 2 1 0 0 1 0 -1 0 0 0 0 1 -1 0 1 0 1 0 -1 1 1 1 1 0 0 -1 -2 0 0 -1 0], [0 0 0 -3 -3 -1 -1 -2 -2 0 2 -1 -5 -1 -1 0 -3 -4 0 0 0 -1 -1 -1 -1 -2 -3 -3 -1 -1 -2 0], [0 0 -1 0 0 0 -1 0 0 -1 -2 -2 -3 -2 -1 -1 0 -1 -1 -1 0 0 0 -1 0 0 0 0 0 0 0 1]
ATT, 24126257, 0, 0.05961346, 0, -1.164519, 0, 359.835, 3
XKF4, 24125319, 0, 0, 0, 0.01, 0, 0, 0.01102222, 0, 0, 0, 50, 65703, 0, 0
XKF1, 24125319, 0, 0.05, -1.16, 359.83, 0.2228768, 0.1245002, -0.0908254, -0.0896521, 0, 0, -0.8445953, -0.03, 0.14, -0.03, 0
XKF2, 24125319, 0, 0, 0, 0.2, 0, 0, 0, 0, 0, 0, 0, 0, 0, 0, 0
XKF3, 24125319, 0, 0, 0, 0, 0.19, 0.16, -0.12, 0, 0, 0, 0, 0, 0, 0
XKF5, 24125319, 0, 0, 0, 0, 0, 1.07, 0.24, 0, 0, 0.5, 3.482977E-05, 0.009029917, 0.01613417
XKFS, 24125319, 0, 0, 0, 0, 0, 0, 0, 0, 0
XKQ, 24125319, 0, 0.9993621, 0.02006607, -0.02953161, -0.0008451954
XKF4, 24125319, 1, 0, 0, 0.04, 0, 0, 0.01134928, 0, 0, 0, 50, 65703, 0, 0
XKF1, 24125319, 1, 2.2, 0.34, 359.98, 0.01387569, 0.1417014, -0.3308195, -0.1368805, 0, 0, -1.240754, 0.12, -0.1, 0.01, 0
XKF2, 24125319, 1, 0, 0, 0.03, 0, 0, 0, 0, 0, 0, 0, 0, 0, 0, 0
XKF3, 24125319, 1, 0, 0, 0, 0.02, 0.17, -0.49, 0, 0, 0, 0, 0, 0, 0
XKFS, 24125319, 1, 0, 0, 0, 0, 0, 0, 0, 0
XKQ, 24125319, 1, 0.9991133, 0.03880041, -0.01633765, 0.0004937836
AHR2, 24126331, -0.16, -0.6, 359.32, 0.7, 0, 0, 0.9999698, -0.001519535, -0.005241817, -0.005540761
PIDS, 24126336, 0, 0, 0, 0, 0, 0, 0, 0, 0, 0, 0
PIDA, 24126339, 0, 0, 0, 0, 0, 0, 0, 0, 0, 0, 0
IMU, 24126343, 0, 0.0002792583, -0.003183843, -0.0009821013, -0.4379494, -0.3391055, -9.605547, 0, 0, 43.84058, 1, 1, 1976, 1976
IMU, 24126343, 1, 0.00407482, -0.001991888, 3.22899E-06, -0.328094, -0.6932493, -9.822408, 0, 0, 42, 1, 1, 2004, 2017
BARO, 24126418, 0, 0.8203611, 0.8203611, 101131.2, 23, 0.09555578, 24126, 0, 21.63189, 1
MAG, 24126435, 0, 280, -627, 746, 0, 0, 0, 0, 0, 0, 1, 24126434
THR, 24126442, 0, 0, 0, 0.2225224, -0.4379494
NTUN, 24126446, 0, 0, 0, 35984, 0
STER, 24126453, 0, 0, 0, -8.559191E-05, 0, -0.02203848
RCIN, 24126459, 1522, 1479, 1497, 1494, 2000, 1000, 1500, 1500, 0, 0, 0, 0, 0, 0
RCI2, 24126476, 0, 0, 0, 1
RCOU, 24126495, 1496, 1500, 1500, 0, 0, 0, 0, 0, 0, 0, 0, 0, 0, 0
RCO2, 24126499, 0, 0, 0, 0
VIBE, 24126503, 0, 0.007881572, 0.008801719, 0.01089977, 0
VIBE, 24126503, 1, 0.06071311, 0.04498668, 0.06950434, 0
POWR, 24126581, 5.153531, 5.857802, 1, 1, 6
MCU, 24126581, 23.92533, 3.365461, 3.354231, 3.376199
BAT, 24126610, 0, 24.03384, 24.95503, 0.3220857, 1.779662, 0.0427641, 0, 2.860075, 255, 0, 0
ISBD, 24127656, 0, 11, [-1 0 3 0 0 0 2 1 0 2 1 1 0 -1 0 1 0 0 0 0 0 -1 -1 0 3 0 1 1 1 1 -2 -2], [3 2 0 -4 -2 1 -2 -4 -4 -2 -1 -2 -1 0 0 -1 -2 -2 -1 0 -1 0 2 -1 -4 -3 -3 0 -2 -2 0 0], [0 -1 -2 -1 0 0 -1 0 0 -1 -1 0 0 0 -3 -3 -2 0 0 0 0 0 0 0 0 -1 -1 0 0 0 0 1]
ATT, 24145837, 0, 0.05984206, 0, -1.170966, 0, 359.8349, 3
XKF4, 24145325, 0, 0, 0, 0.01, 0, 0, 0.01104675, 0, 0, 0, 50, 65703, 0, 0
XKF1, 24145325, 0, 0.05, -1.17, 359.83, 0.2256398, 0.125502, -0.09092505, -0.08566735, 0, 0, -0.8458549, -0.03, 0.14, -0.03, 0
XKF2, 24145325, 0, 0, 0, 0.2, 0, 0, 0, 0, 0, 0, 0, 0, 0, 0, 0
XKF3, 24145325, 0, 0, 0, 0, 0.19, 0.16, -0.12, 0, 0, 0, 0, 0, 0, 0
XKF5, 24145325, 0, 0, 0, 0, 0, 1.07, 0.24, 0, 0, 0.5, 3.442441E-05, 0.008975315, 0.01605032
XKFS, 24145325, 0, 0, 0, 0, 0, 0, 0, 0, 0
XKQ, 24145325, 0, 0.9993604, 0.02006792, -0.02958784, -0.0008448032
XKF4, 24145325, 1, 0, 0, 0.04, 0, 0, 0.01137538, 0, 0, 0, 50, 65703, 0, 0
XKF1, 24145325, 1, 2.2, 0.34, 359.98, 0.01398355, 0.1429888, -0.3309347, -0.1263198, 0, 0, -1.242623, 0.12, -0.1, 0.01, 0
XKF2, 24145325, 1, 0, 0, 0.03, 0, 0, 0, 0, 0, 0, 0, 0, 0, 0, 0
XKF3, 24145325, 1, 0, 0, 0, 0.02, 0.17, -0.49, 0, 0, 0, 0, 0, 0, 0
XKFS, 24145325, 1, 0, 0, 0, 0, 0, 0, 0, 0
XKQ, 24145325, 1, 0.9991123, 0.03882142, -0.01634747, 0.0004855727
AHR2, 24145917, -0.16, -0.6, 359.32, 0.82, 0, 0, 0.9999696, -0.001522715, -0.005268815, -0.005546212
PIDS, 24145923, 0, 0, 0, 0, 0, 0, 0, 0, 0, 0, 0
PIDA, 24145927, 0, 0, 0, 0, 0, 0, 0, 0, 0, 0, 0
IMU, 24145935, 0, 0.0001284654, -0.003138085, -0.0009335249, -0.437728, -0.3423301, -9.606175, 0, 0, 43.84058, 1, 1, 1976, 1976
IMU, 24145935, 1, 0.004071304, -0.002118758, 0.0002505823, -0.3225099, -0.6960754, -9.811887, 0, 0, 42, 1, 1, 2004, 2017
ISBD, 24147222, 0, 12, [-1 0 1 0 0 1 1 0 1 0 0 0 1 1 1 -1 0 2 1 1 0 1 0 1 1 2 1 1 0 1 2 3], [0 -2 -2 -3 -2 -2 -2 -2 -1 0 0 0 1 -1 -4 -1 -1 -1 -4 -4 0 -3 -3 -1 -1 -2 -2 -2 -1 0 0 0], [0 0 0 0 0 1 0 -2 -1 0 0 0 -1 -2 -2 -1 -1 -3 -2 0 0 -1 0 0 -2 -2 -2 -2 -1 0 0 -3]
ATT, 24165899, 0, 0.06077033, 0, -1.176699, 0, 359.8342, 3
XKF4, 24165371, 0, 0, 0, 0.01, 0, 0, 0.01107517, 0, 0, 0, 50, 65703, 0, 0
XKF1, 24165371, 0, 0.06, -1.17, 359.83, 0.2284172, 0.1265523, -0.0909722, -0.08082875, 0, 0, -0.8472041, -0.03, 0.14, -0.03, 0
XKF2, 24165371, 0, 0, 0, 0.2, 0, 0, 0, 0, 0, 0, 0, 0, 0, 0, 0
XKF3, 24165371, 0, 0, 0, 0, 0.19, 0.16, -0.12, 0, 0, 0, 0, 0, 0, 0
XKF5, 24165371, 0, 0, 0, 0, 0, 1.07, 0.24, 0, 0, 0.5, 3.40351E-05, 0.008920906, 0.01598451
XKFS, 24165371, 0, 0, 0, 0, 0, 0, 0, 0, 0
XKQ, 24165371, 0, 0.9993587, 0.02007572, -0.02963798, -0.0008502446
XKF4, 24165371, 1, 0, 0, 0.04, 0, 0, 0.01140054, 0, 0, 0, 50, 65703, 0, 0
XKF1, 24165371, 1, 2.2, 0.34, 359.98, 0.0139948, 0.1446878, -0.331377, -0.1178801, 0, 0, -1.244541, 0.12, -0.1, 0.01, 0
XKF2, 24165371, 1, 0, 0, 0.03, 0, 0, 0, 0, 0, 0, 0, 0, 0, 0, 0
XKF3, 24165371, 1, 0, 0, 0, 0.02, 0.17, -0.49, 0, 0, 0, 0, 0, 0, 0
XKFS, 24165371, 1, 0, 0, 0, 0, 0, 0, 0, 0
XKQ, 24165371, 1, 0.9991107, 0.03885519, -0.01636659, 0.0004914326
AHR2, 24165970, -0.16, -0.6, 359.32, 0.82, 0, 0, 0.9999694, -0.001519999, -0.005288881, -0.005557441
PIDS, 24165979, 0, 0, 0, 0, 0, 0, 0, 0, 0, 0, 0
PIDA, 24165983, 0, 0, 0, 0, 0, 0, 0, 0, 0, 0, 0
IMU, 24165987, 0, 1.697313E-05, -0.003025034, -0.0008423493, -0.4399016, -0.3442898, -9.601121, 0, 0, 43.84058, 1, 1, 1976, 1976
IMU, 24165987, 1, 0.004048983, -0.00231525, 0.0003015836, -0.323579, -0.6915445, -9.8181, 0, 0, 42, 1, 1, 2004, 2017
ISBD, 24167187, 0, 13, [0 0 0 2 0 1 2 0 0 0 2 1 1 0 1 1 0 0 0 0 0 0 0 1 3 2 0 -1 1 0 0 -2], [-1 -1 -3 -1 2 -2 -4 -2 -1 0 -4 -4 -2 -2 -2 -1 0 0 -1 -1 -1 -2 -1 0 -4 -6 0 2 0 -2 -2 1], [-3 -1 0 0 0 -1 0 -1 -1 0 -2 -2 0 0 0 -1 -2 -2 -3 -2 -1 -2 0 0 0 0 0 0 0 -1 -3 -2]
ATT, 24185954, 0, 0.06155622, 0, -1.182615, 0, 359.8337, 3
XKF4, 24185272, 0, 0, 0, 0.01, 0, 0, 0.01110324, 0, 0, 0, 50, 65703, 0, 0
XKF1, 24185272, 0, 0.06, -1.18, 359.83, 0.2312757, 0.1276132, -0.09106799, -0.07711586, 0, 0, -0.8485939, -0.03, 0.14, -0.03, 0
XKF2, 24185272, 0, 0, 0, 0.2, 0, 0, 0, 0, 0, 0, 0, 0, 0, 0, 0
XKF3, 24185272, 0, 0, 0, 0, 0.19, 0.16, -0.12, 0, 0, 0, 0, 0, 0, 0
XKF5, 24185272, 0, 0, 0, 0, 0, 1.07, 0.24, 0, 0, 0.5, 3.363667E-05, 0.008867305, 0.01592855
XKFS, 24185272, 0, 0, 0, 0, 0, 0, 0, 0, 0
XKQ, 24185272, 0, 0.999357, 0.02008235, -0.02968967, -0.0008527794
XKF4, 24185272, 1, 0, 0, 0.04, 0, 0, 0.01142836, 0, 0, 0, 50, 65703, 0, 0
XKF1, 24185272, 1, 2.21, 0.34, 359.98, 0.01410805, 0.146263, -0.3316926, -0.1115941, 0, 0, -1.247136, 0.12, -0.1, 0.01, 0
XKF2, 24185272, 1, 0, 0, 0.03, 0, 0, 0, 0, 0, 0, 0, 0, 0, 0, 0
XKF3, 24185272, 1, 0, 0, 0, 0.02, 0.17, -0.49, 0, 0, 0, 0, 0, 0, 0
XKFS, 24185272, 1, 0, 0, 0, 0, 0, 0, 0, 0
XKQ, 24185272, 1, 0.9991095, 0.03888578, -0.0163644, 0.0004944272
AHR2, 24186062, -0.16, -0.6, 359.31, 0.82, 0, 0, 0.9999692, -0.0015185, -0.005310531, -0.005565813
PIDS, 24186067, 0, 0, 0, 0, 0, 0, 0, 0, 0, 0, 0
PIDA, 24186089, 0, 0, 0, 0, 0, 0, 0, 0, 0, 0, 0
IMU, 24186093, 0, 2.846891E-06, -0.002892308, -0.0008177719, -0.4405117, -0.3439447, -9.601187, 0, 0, 43.35749, 1, 1, 1976, 1976
IMU, 24186093, 1, 0.004319775, -0.002540936, 0.0004127259, -0.3195172, -0.6922069, -9.818677, 0, 0, 42, 1, 1, 2004, 2017
ISBD, 24187343, 0, 14, [0 1 0 1 1 0 -1 -1 0 0 1 1 0 -1 0 0 -3 -2 2 1 0 -1 1 3 2 0 -1 0 0 0 0 1], [-2 -4 -1 -1 0 0 0 -1 -2 -2 -2 -3 -1 -1 -4 -5 -1 -1 0 -3 -3 0 -1 -3 -2 -3 -2 -2 -3 -2 -1 -2], [0 0 -1 -1 -1 -2 -2 0 0 -1 1 0 0 0 0 -1 -1 -1 -1 0 1 0 -2 -2 0 0 0 0 -1 0 0 0]
DCM, 24205313, -0.169208, -0.6126518, 359.3189, 0.001802239, 1, 0, 0, 0
EAHR, 24205330, 0, 0, 0, 0, 0, 0, 0, 0, 0, 0
ATT, 24205836, 0, 0.06196433, 0, -1.189555, 0, 359.8335, 3
XKF4, 24205343, 0, 0, 0, 0.01, 0, 0, 0.01110458, 0, 0, 0, 50, 65703, 0, 0
XKF1, 24205343, 0, 0.06, -1.18, 359.83, 0.2341049, 0.1286811, -0.09109167, -0.07462256, 0, 0, -0.8499756, -0.03, 0.14, -0.03, 0
XKF2, 24205343, 0, 0, 0, 0.2, 0, 0, 0, 0, 0, 0, 0, 0, 0, 0, 0
XKF3, 24205343, 0, 0, 0, 0, 0.19, 0.16, -0.12, 0, 0, 0, 0, 0, 0, 0
XKF5, 24205343, 0, 0, 0, 0, 0, 1.07, 0.24, 0, 0, 0.5, 3.296301E-05, 0.008814488, 0.0158751
XKFS, 24205343, 0, 0, 0, 0, 0, 0, 0, 0, 0
XKQ, 24205343, 0, 0.9993552, 0.02008573, -0.02975022, -0.0008532162
XKF4, 24205343, 1, 0, 0, 0.04, 0, 0, 0.01141911, 0, 0, 0, 50, 65703, 0, 0
XKF1, 24205343, 1, 2.21, 0.34, 359.98, 0.01412531, 0.1478042, -0.3325846, -0.1137229, 0, 0, -1.250065, 0.12, -0.1, 0.01, 0
XKF2, 24205343, 1, 0, 0, 0.03, 0, 0, 0, 0, 0, 0, 0, 0, 0, 0, 0
XKF3, 24205343, 1, 0, 0, 0, 0.02, 0.17, -0.49, 0, 0, 0, 0, 0, 0, 0
XKFS, 24205343, 1, 0, 0, 0, 0, 0, 0, 0, 0
XKQ, 24205343, 1, 0.9991091, 0.03889417, -0.01636778, 0.0004940059
AHR2, 24205917, -0.16, -0.61, 359.31, 0.82, 0, 0, 0.999969, -0.001520181, -0.005341817, -0.005572169
PIDS, 24205921, 0, 0, 0, 0, 0, 0, 0, 0, 0, 0, 0
PIDA, 24205925, 0, 0, 0, 0, 0, 0, 0, 0, 0, 0, 0
IMU, 24205930, 0, 3.309726E-05, -0.002903384, -0.0008087266, -0.4390318, -0.3436122, -9.60085, 0, 0, 43.84058, 1, 1, 1976, 1976
IMU, 24205930, 1, 0.004578156, -0.002483728, 0.0003222786, -0.3227825, -0.6942911, -9.825605, 0, 0, 42, 1, 1, 2004, 2017
ISBD, 24207130, 0, 15, [1 0 -2 -1 0 0 0 1 2 -1 1 1 1 1 0 -1 0 0 2 2 1 0 0 0 0 0 0 0 0 0 0 0], [-3 -2 0 -2 -7 -7 0 0 -3 -2 -1 2 0 -2 -1 -1 -1 -3 -3 -1 -1 -3 -3 -2 -1 -1 -1 1 2 -3 -4 -1], [-1 -1 0 -1 -1 -1 -2 -2 -1 0 1 0 -2 -3 -2 -1 0 -1 0 0 -1 0 0 0 0 0 0 -2 0 0 0 -1]
ATT, 24226198, 0, 0.06266399, 0, -1.196435, 0, 359.8328, 3
XKF4, 24225323, 0, 0, 0, 0, 0, 0, 0.01113219, 0, 0, 0, 50, 65703, 0, 0
XKF1, 24225323, 0, 0.06, -1.19, 359.83, 0.2369646, 0.1297287, -0.09124721, -0.0731381, 0, 0, -0.8513578, -0.03, 0.14, -0.03, 0
XKF2, 24225323, 0, 0, 0, 0.2, 0, 0, 0, 0, 0, 0, 0, 0, 0, 0, 0
XKF3, 24225323, 0, 0, 0, 0, 0.21, 0.18, -0.01, 0, 0, 0, 0, 0, 0, 0
XKF5, 24225323, 0, 0, 0, 0, 0, 1.08, 0.24, 0, 0, 0.5, 3.690998E-05, 0.008597018, 0.01543224
XKFS, 24225323, 0, 0, 0, 0, 0, 0, 0, 0, 0
XKQ, 24225323, 0, 0.9993532, 0.02009152, -0.02981036, -0.0008583541
XKF4, 24225323, 1, 0, 0, 0.03, 0, 0, 0.01144456, 0, 0, 0, 50, 65703, 0, 0
XKF1, 24225323, 1, 2.21, 0.34, 359.98, 0.01403285, 0.1492363, -0.3329895, -0.1205722, 0, 0, -1.251326, 0.12, -0.1, 0.01, 0
XKF2, 24225323, 1, 0, 0, 0.03, 0, 0, 0, 0, 0, 0, 0, 0, 0, 0, 0
XKF3, 24225323, 1, 0, 0, 0, 0.02, 0.18, -0.38, 0, 0, 0, 0, 0, 0, 0
XKFS, 24225323, 1, 0, 0, 0, 0, 0, 0, 0, 0
XKQ, 24225323, 1, 0.9991089, 0.03890336, -0.01636413, 0.0004947893
AHR2, 24226335, -0.16, -0.61, 359.31, 0.82, 0, 0, 0.9999688, -0.001519555, -0.005371845, -0.005583322
PIDS, 24226340, 0, 0, 0, 0, 0, 0, 0, 0, 0, 0, 0
PIDA, 24226344, 0, 0, 0, 0, 0, 0, 0, 0, 0, 0, 0
IMU, 24226348, 0, 1.349392E-05, -0.003052039, -0.0007762341, -0.4388546, -0.3443908, -9.600673, 0, 0, 43.84058, 1, 1, 1976, 1976
IMU, 24226348, 1, 0.004491468, -0.002535196, 0.0002615195, -0.3302214, -0.697129, -9.837193, 0, 0, 42, 1, 1, 2004, 2017
BARO, 24226418, 0, 0.7703733, 0.7703733, 101131.8, 23.01, -0.05880475, 24226, 0, 21.63189, 1
MAG, 24226436, 0, 287, -624, 750, 0, 0, 0, 0, 0, 0, 1, 24226434
THR, 24226443, 0, 0, 0, 0.2365905, -0.4388546
NTUN, 24226447, 0, 0, 0, 35984, 0
STER, 24226453, 0, 0, 0, -4.357237E-05, 0, -0.01055204
RCIN, 24226459, 1522, 1479, 1497, 1494, 2000, 1000, 1500, 1500, 0, 0, 0, 0, 0, 0
RCI2, 24226463, 0, 0, 0, 1
RCOU, 24226470, 1496, 1500, 1500, 0, 0, 0, 0, 0, 0, 0, 0, 0, 0, 0
RCO2, 24226473, 0, 0, 0, 0
VIBE, 24226477, 0, 0.007490934, 0.008701109, 0.01037378, 0
VIBE, 24226477, 1, 0.06391335, 0.0440533, 0.0676071, 0
POWR, 24226533, 5.133087, 5.865055, 1, 1, 6
MCU, 24226533, 23.94551, 3.365743, 3.354651, 3.375066
BAT, 24226545, 0, 24.05609, 25.10925, 0.3682288, 1.789885, 0.04301002, 0, 2.860075, 255, 0, 0
ISBD, 24227629, 0, 16, [3 2 0 0 -1 0 0 0 0 0 0 1 0 -1 -1 0 0 0 0 0 0 0 3 3 2 0 0 0 -1 0 1 0], [-2 -1 -4 -2 2 0 -2 -1 -2 -2 -2 -4 -3 -3 -3 -1 -1 1 4 -1 -3 0 0 0 -3 -2 1 0 -3 -4 -1 -1], [-2 -2 -3 -3 0 0 0 0 -2 -1 0 -1 0 -1 -1 0 -1 0 0 0 0 0 0 0 -3 -2 -1 0 0 0 0 0]
ATT, 24245796, 0, 0.06287979, 0, -1.202482, 0, 359.8318, 3
XKF4, 24245297, 0, 0, 0, 0, 0, 0, 0.01115639, 0, 0, 0, 50, 65703, 0, 0
XKF1, 24245297, 0, 0.06, -1.2, 359.83, 0.2397822, 0.1308551, -0.0913693, -0.071776, 0, 0, -0.8527337, -0.03, 0.14, -0.03, 0
XKF2, 24245297, 0, 0, 0, 0.2, 0, 0, 0, 0, 0, 0, 0, 0, 0, 0, 0
XKF3, 24245297, 0, 0, 0, 0, 0.21, 0.18, -0.01, 0, 0, 0, 0, 0, 0, 0
XKF5, 24245297, 0, 0, 0, 0, 0, 1.08, 0.24, 0, 0, 0.5, 3.622992E-05, 0.008553668, 0.01538867
XKFS, 24245297, 0, 0, 0, 0, 0, 0, 0, 0, 0
XKQ, 24245297, 0, 0.9993516, 0.02009303, -0.02986327, -0.0008660289
XKF4, 24245297, 1, 0, 0, 0.03, 0, 0, 0.01146756, 0, 0, 0, 50, 65703, 0, 0
XKF1, 24245297, 1, 2.21, 0.34, 359.98, 0.01389141, 0.1507134, -0.3333398, -0.1116025, 0, 0, -1.253478, 0.12, -0.1, 0.01, 0
XKF2, 24245297, 1, 0, 0, 0.03, 0, 0, 0, 0, 0, 0, 0, 0, 0, 0, 0
XKF3, 24245297, 1, 0, 0, 0, 0.02, 0.18, -0.38, 0, 0, 0, 0, 0, 0, 0
XKFS, 24245297, 1, 0, 0, 0, 0, 0, 0, 0, 0
XKQ, 24245297, 1, 0.9991083, 0.03892056, -0.016354, 0.000506435
AHR2, 24245867, -0.16, -0.61, 359.31, 0.77, 0, 0, 0.9999686, -0.001522898, -0.00539544, -0.005596751
PIDS, 24245872, 0, 0, 0, 0, 0, 0, 0, 0, 0, 0, 0
PIDA, 24245876, 0, 0, 0, 0, 0, 0, 0, 0, 0, 0, 0
IMU, 24245882, 0, -3.771715E-05, -0.003154378, -0.0007988052, -0.4404261, -0.3416192, -9.60263, 0, 0, 43.84058, 1, 1, 1976, 1976
IMU, 24245882, 1, 0.004125914, -0.002090956, 0.0002921207, -0.328311, -0.7012135, -9.828391, 0, 0, 42, 1, 1, 2004, 2017
ISBD, 24247052, 0, 17, [0 1 1 0 0 2 0 0 1 0 0 0 0 2 0 1 0 0 0 0 0 0 1 0 0 0 1 1 0 0 0 0], [-2 -1 -2 -3 -3 -1 -1 -2 0 -1 -4 -1 0 -2 -4 -4 -1 -2 -2 -1 -1 -2 -2 -2 -2 -2 -1 0 -1 0 3 -1], [0 0 -1 0 0 -2 -2 -3 -2 0 -1 -1 -1 0 -1 0 0 -1 0 -2 -2 0 0 1 1 0 -2 -1 -1 0 0 0]
ATT, 24265875, 0, 0.06386034, 0, -1.209092, 0, 359.8311, 3
XKF4, 24265337, 0, 0, 0, 0, 0, 0, 0.0111844, 0, 0, 0, 50, 65703, 0, 0
XKF1, 24265337, 0, 0.06, -1.2, 359.83, 0.2427173, 0.1318564, -0.09155948, -0.07095501, 0, 0, -0.8541931, -0.03, 0.14, -0.03, 0
XKF2, 24265337, 0, 0, 0, 0.2, 0, 0, 0, 0, 0, 0, 0, 0, 0, 0, 0
XKF3, 24265337, 0, 0, 0, 0, 0.21, 0.18, -0.01, 0, 0, 0, 0, 0, 0, 0
XKF5, 24265337, 0, 0, 0, 0, 0, 1.08, 0.24, 0, 0, 0.5, 3.56164E-05, 0.008509018, 0.01535848
XKFS, 24265337, 0, 0, 0, 0, 0, 0, 0, 0, 0
XKQ, 24265337, 0, 0.9993498, 0.02010128, -0.02992104, -0.0008705629
XKF4, 24265337, 1, 0, 0, 0.03, 0, 0, 0.01149454, 0, 0, 0, 50, 65703, 0, 0
XKF1, 24265337, 1, 2.21, 0.33, 359.98, 0.01394965, 0.1520327, -0.3337485, -0.1079144, 0, 0, -1.255508, 0.12, -0.1, 0.01, 0
XKF2, 24265337, 1, 0, 0, 0.03, 0, 0, 0, 0, 0, 0, 0, 0, 0, 0, 0
XKF3, 24265337, 1, 0, 0, 0, 0.02, 0.18, -0.38, 0, 0, 0, 0, 0, 0, 0
XKFS, 24265337, 1, 0, 0, 0, 0, 0, 0, 0, 0
XKQ, 24265337, 1, 0.9991072, 0.03893703, -0.01638605, 0.000488626
AHR2, 24265974, -0.16, -0.62, 359.31, 0.77, 0, 0, 0.9999684, -0.001519728, -0.005423223, -0.005607168
PIDS, 24265979, 0, 0, 0, 0, 0, 0, 0, 0, 0, 0, 0
PIDA, 24265983, 0, 0, 0, 0, 0, 0, 0, 0, 0, 0, 0
IMU, 24265987, 0, -3.213227E-05, -0.003192236, -0.0008859468, -0.4402662, -0.3426395, -9.604822, 0, 0, 43.84058, 1, 1, 1976, 1976
IMU, 24265987, 1, 0.004112735, -0.002173593, 0.0002155536, -0.3285744, -0.7043126, -9.825609, 0, 0, 42, 1, 1, 2004, 2017
ISBD, 24267204, 0, 18, [0 0 0 0 1 2 0 0 0 0 -1 0 1 2 2 0 0 0 1 1 2 2 2 2 0 0 0 0 1 0 0 1], [-5 -4 -3 0 -6 -5 -1 -1 -2 -1 -1 0 0 -1 -2 -4 -2 0 0 -2 -1 -2 -6 -5 0 -1 -3 -3 -3 1 -2 -4], [-1 0 0 -1 -2 -2 0 0 0 0 0 0 0 -1 -2 -3 -1 1 0 0 0 -1 -2 -2 -2 0 1 0 -2 -3 -1 0]
ATT, 24285802, 0, 0.06406397, 0, -1.215801, 0, 359.8304, 3
XKF4, 24285287, 0, 0, 0, 0, 0, 0, 0.01121167, 0, 0, 0, 50, 65703, 0, 0
XKF1, 24285287, 0, 0.06, -1.21, 359.83, 0.2455639, 0.1329136, -0.09170453, -0.07086707, 0, 0, -0.8556415, -0.03, 0.14, -0.03, 0
XKF2, 24285287, 0, 0, 0, 0.2, 0, 0, 0, 0, 0, 0, 0, 0, 0, 0, 0
XKF3, 24285287, 0, 0, 0, 0, 0.21, 0.18, -0.01, 0, 0, 0, 0, 0, 0, 0
XKF5, 24285287, 0, 0, 0, 0, 0, 1.08, 0.24, 0, 0, 0.5, 3.495881E-05, 0.008464453, 0.01532178
XKFS, 24285287, 0, 0, 0, 0, 0, 0, 0, 0, 0
XKQ, 24285287, 0, 0.9993479, 0.02010274, -0.02997969, -0.0008757736
XKF4, 24285287, 1, 0, 0, 0.03, 0, 0, 0.01152163, 0, 0, 0, 50, 65703, 0, 0
XKF1, 24285287, 1, 2.21, 0.34, 359.98, 0.01395861, 0.1532516, -0.3341831, -0.105689, 0, 0, -1.258379, 0.12, -0.1, 0.01, 0
XKF2, 24285287, 1, 0, 0, 0.03, 0, 0, 0, 0, 0, 0, 0, 0, 0, 0, 0
XKF3, 24285287, 1, 0, 0, 0, 0.02, 0.18, -0.38, 0, 0, 0, 0, 0, 0, 0
XKFS, 24285287, 1, 0, 0, 0, 0, 0, 0, 0, 0
XKQ, 24285287, 1, 0.9991069, 0.0389518, -0.01636949, 0.0004859792
AHR2, 24285874, -0.16, -0.62, 359.31, 0.77, 0, 0, 0.9999682, -0.001523071, -0.005451566, -0.005618252
PIDS, 24285879, 0, 0, 0, 0, 0, 0, 0, 0, 0, 0, 0
PIDA, 24285883, 0, 0, 0, 0, 0, 0, 0, 0, 0, 0, 0
IMU, 24285887, 0, -1.09221E-05, -0.003242258, -0.0009450342, -0.4409808, -0.3443784, -9.604538, 0, 0, 43.84058, 1, 1, 1976, 1976
IMU, 24285887, 1, 0.003814352, -0.002182551, 3.735943E-05, -0.3239939, -0.7093832, -9.817686, 0, 0, 42, 1, 1, 2004, 2017
ISBD, 24287022, 0, 19, [1 1 1 1 0 0 0 0 0 0 -1 -2 -1 -1 0 0 1 0 1 2 0 1 0 -1 0 0 0 0 0 0 1 1], [-1 -1 -1 0 1 0 -1 -3 -3 -2 -2 -2 -7 -8 0 0 -4 -4 -2 0 -2 -3 -1 -1 0 0 -1 0 -1 -1 -2 -2], [-1 0 0 0 -1 0 0 -1 -1 0 0 0 -1 -1 0 -1 -3 -1 0 0 0 0 0 0 0 0 -1 0 0 -3 -2 0]
DCM, 24305281, -0.1692743, -0.6284477, 359.3122, 0.002171276, 1, 0, 0, 0
EAHR, 24305301, 0, 0, 0, 0, 0, 0, 0, 0, 0, 0
ATT, 24305830, 0, 0.06480163, 0, -1.222558, 0, 359.8294, 3
XKF4, 24305314, 0, 0, 0, 0, 0, 0, 0.01123894, 0, 0, 0, 50, 65703, 0, 0
XKF1, 24305314, 0, 0.06, -1.22, 359.82, 0.2485599, 0.1341355, -0.09192728, -0.07132348, 0, 0, -0.8571694, -0.03, 0.14, -0.03, 0
XKF2, 24305314, 0, 0, 0, 0.2, 0, 0, 0, 0, 0, 0, 0, 0, 0, 0, 0
XKF3, 24305314, 0, 0, 0, 0, 0.21, 0.18, -0.01, 0, 0, 0, 0, 0, 0, 0
XKF5, 24305314, 0, 0, 0, 0, 0, 1.08, 0.24, 0, 0, 0.5, 3.414701E-05, 0.008418869, 0.01528662
XKFS, 24305314, 0, 0, 0, 0, 0, 0, 0, 0, 0
XKQ, 24305314, 0, 0.9993461, 0.0201088, -0.03003879, -0.0008826718
XKF4, 24305314, 1, 0, 0, 0.03, 0, 0, 0.01154867, 0, 0, 0, 50, 65703, 0, 0
XKF1, 24305314, 1, 2.22, 0.34, 359.98, 0.01403563, 0.1547609, -0.3344835, -0.1113629, 0, 0, -1.261243, 0.12, -0.1, 0.01, 0
XKF2, 24305314, 1, 0, 0, 0.03, 0, 0, 0, 0, 0, 0, 0, 0, 0, 0, 0
XKF3, 24305314, 1, 0, 0, 0, 0.02, 0.18, -0.38, 0, 0, 0, 0, 0, 0, 0
XKFS, 24305314, 1, 0, 0, 0, 0, 0, 0, 0, 0
XKQ, 24305314, 1, 0.9991065, 0.03896222, -0.01636937, 0.0004718456
AHR2, 24305901, -0.16, -0.62, 359.31, 0.77, 0, 0, 0.9999679, -0.001521951, -0.00547956, -0.005631106
PIDS, 24305906, 0, 0, 0, 0, 0, 0, 0, 0, 0, 0, 0
PIDA, 24305910, 0, 0, 0, 0, 0, 0, 0, 0, 0, 0, 0
IMU, 24305914, 0, -3.771859E-05, -0.003277285, -0.0009812252, -0.4405937, -0.3419023, -9.605855, 0, 0, 43.84058, 1, 1, 1976, 1976
IMU, 24305914, 1, 0.003685689, -0.002026107, -0.0002688988, -0.3192807, -0.7068745, -9.808351, 0, 0, 42, 1, 1, 2004, 2017
ISBD, 24307150, 0, 20, [0 0 1 0 0 0 0 2 1 0 1 0 -1 -1 0 1 1 0 0 0 0 0 0 1 1 1 1 2 2 0 1 1], [-1 0 2 1 -2 -1 1 -1 -2 -5 -1 1 0 -2 -4 -4 -2 -2 -3 -2 -2 -2 -1 -2 -4 0 2 -2 -2 -1 -1 0], [0 -1 -2 -2 -2 0 1 -1 -1 0 0 0 -1 -1 0 -2 -1 0 -1 -1 0 0 0 -2 -3 -1 -1 -2 0 0 0 0]
ATT, 24326247, 0, 0.0655553, 0, -1.229283, 0, 359.8286, 3
XKF4, 24325321, 0, 0, 0, 0, 0, 0, 0.0112665, 0, 0, 0, 50, 65703, 0, 0
XKF1, 24325321, 0, 0.06, -1.22, 359.82, 0.2515259, 0.135231, -0.09202342, -0.07222297, 0, 0, -0.8583562, -0.03, 0.14, -0.03, 0
XKF2, 24325321, 0, 0, 0, 0.2, 0, 0, 0, 0, 0, 0, 0, 0, 0, 0, 0
XKF3, 24325321, 0, 0, 0, 0, 0.23, 0.19, -0.07, 0, 0, 0, 0, 0, 0, 0
XKF5, 24325321, 0, 0, 0, 0, 0, 1.08, 0.24, 0, 0, 0.5, 3.840762E-05, 0.008211326, 0.01461017
XKFS, 24325321, 0, 0, 0, 0, 0, 0, 0, 0, 0
XKQ, 24325321, 0, 0.9993442, 0.02011504, -0.03009759, -0.0008885282
XKF4, 24325321, 1, 0, 0, 0.04, 0, 0, 0.01157617, 0, 0, 0, 50, 65703, 0, 0
XKF1, 24325321, 1, 2.22, 0.33, 359.97, 0.01440693, 0.1558985, -0.334695, -0.1196814, 0, 0, -1.262507, 0.12, -0.1, 0.01, 0
XKF2, 24325321, 1, 0, 0, 0.03, 0, 0, 0, 0, 0, 0, 0, 0, 0, 0, 0
XKF3, 24325321, 1, 0, 0, 0, 0.02, 0.2, -0.45, 0, 0, 0, 0, 0, 0, 0
XKFS, 24325321, 1, 0, 0, 0, 0, 0, 0, 0, 0
XKQ, 24325321, 1, 0.9991056, 0.0389742, -0.01639785, 0.0004606528
AHR2, 24326319, -0.16, -0.63, 359.31, 0.77, 0, 0, 0.9999678, -0.001520548, -0.005508042, -0.005642795
PIDS, 24326323, 0, 0, 0, 0, 0, 0, 0, 0, 0, 0, 0
PIDA, 24326327, 0, 0, 0, 0, 0, 0, 0, 0, 0, 0, 0
IMU, 24326331, 0, -1.18893E-05, -0.003346281, -0.001048067, -0.4387392, -0.3388448, -9.604549, 0, 0, 43.84058, 1, 1, 1976, 1976
IMU, 24326331, 1, 0.003635503, -0.002082758, -0.0003920079, -0.3180493, -0.7075868, -9.819762, 0, 0, 42, 1, 1, 2004, 2017
BARO, 24326399, 0, 0.7821341, 0.7821341, 101131.7, 23.02, -0.1130128, 24326, 0, 21.63189, 1
MAG, 24326417, 0, 278, -627, 747, 0, 0, 0, 0, 0, 0, 1, 24326415
THR, 24326423, 0, 0, 0, 0.2511261, -0.4387392
NTUN, 24326427, 0, 0, 0, 35983, 0
STER, 24326434, 0, 0, 0, -0.000114657, 0, -0.02615961
RCIN, 24326440, 1522, 1479, 1497, 1494, 2000, 1000, 1500, 1500, 0, 0, 0, 0, 0, 0
RCI2, 24326446, 0, 0, 0, 1
RCOU, 24326453, 1496, 1500, 1500, 0, 0, 0, 0, 0, 0, 0, 0, 0, 0, 0
RCO2, 24326456, 0, 0, 0, 0
VIBE, 24326460, 0, 0.007232809, 0.009206131, 0.01025749, 0
VIBE, 24326460, 1, 0.06752846, 0.04123414, 0.07050195, 0
POWR, 24326566, 5.133994, 5.857802, 1, 1, 6
MCU, 24326566, 23.94551, 3.365743, 3.355911, 3.375349
BAT, 24326595, 0, 24.04016, 24.99696, 0.334537, 1.799183, 0.04323354, 0, 2.860075, 255, 0, 0
ISBD, 24327696, 0, 21, [1 1 -1 0 0 0 1 1 1 1 0 0 0 -1 0 0 -2 -2 0 1 1 0 1 0 -2 -2 0 1 2 2 1 1], [-3 -4 -2 -4 -5 -3 -1 0 0 -1 -2 0 -1 0 2 0 -3 -5 0 -4 -4 0 -1 -2 -3 -2 -2 -4 -5 -3 -2 -2], [-1 -2 -1 0 0 0 -1 -1 -1 0 0 1 0 0 0 0 -2 -1 0 -1 -2 -1 0 0 0 0 -1 -3 -1 -1 0 -1]
ATT, 24346016, 0, 0.06638154, 0, -1.235599, 0, 359.8273, 3
XKF4, 24345289, 0, 0, 0, 0, 0, 0, 0.01129036, 0, 0, 0, 50, 65703, 0, 0
XKF1, 24345289, 0, 0.06, -1.23, 359.82, 0.2546263, 0.1362896, -0.092144, -0.07000375, 0, 0, -0.8596394, -0.03, 0.14, -0.03, 0
XKF2, 24345289, 0, 0, 0, 0.2, 0, 0, 0, 0, 0, 0, 0, 0, 0, 0, 0
XKF3, 24345289, 0, 0, 0, 0, 0.23, 0.19, -0.07, 0, 0, 0, 0, 0, 0, 0
XKF5, 24345289, 0, 0, 0, 0, 0, 1.08, 0.24, 0, 0, 0.5, 3.764333E-05, 0.008162866, 0.01450936
XKFS, 24345289, 0, 0, 0, 0, 0, 0, 0, 0, 0
XKQ, 24345289, 0, 0.9993423, 0.02012179, -0.0301529, -0.0008983627
XKF4, 24345289, 1, 0, 0, 0.04, 0, 0, 0.01160014, 0, 0, 0, 50, 65703, 0, 0
XKF1, 24345289, 1, 2.22, 0.34, 359.98, 0.01445191, 0.1574858, -0.3356532, -0.1115113, 0, 0, -1.264352, 0.12, -0.1, 0.01, 0
XKF2, 24345289, 1, 0, 0, 0.03, 0, 0, 0, 0, 0, 0, 0, 0, 0, 0, 0
XKF3, 24345289, 1, 0, 0, 0, 0.02, 0.2, -0.45, 0, 0, 0, 0, 0, 0, 0
XKFS, 24345289, 1, 0, 0, 0, 0, 0, 0, 0, 0
XKQ, 24345289, 1, 0.9991053, 0.03899003, -0.01637379, 0.0004661679
AHR2, 24346092, -0.16, -0.63, 359.3, 0.78, 0, 0, 0.9999675, -0.00151861, -0.005532301, -0.005658441
PIDS, 24346126, 0, 0, 0, 0, 0, 0, 0, 0, 0, 0, 0
PIDA, 24346163, 0, 0, 0, 0, 0, 0, 0, 0, 0, 0, 0
IMU, 24346182, 0, 4.700889E-05, -0.003369027, -0.001094158, -0.4365499, -0.3412488, -9.605671, 0, 0, 43.84058, 1, 1, 1976, 1976
IMU, 24346182, 1, 0.003612696, -0.002123706, -0.0004513735, -0.3197058, -0.7065455, -9.84076, 0, 0, 42, 1, 1, 2004, 2017
ISBD, 24347353, 0, 22, [1 0 0 1 1 2 2 0 -2 1 0 0 1 2 3 0 0 0 2 2 0 0 0 0 1 0 -1 0 0 -1 -1 0], [-3 -2 -2 -2 -1 -2 -5 -2 -1 -1 -1 -3 0 -1 -4 -3 -4 -3 -2 -2 -2 -1 -1 -2 -2 -3 -2 -3 -6 -3 0 0], [-1 -1 -1 0 0 0 0 0 0 -2 -1 0 -1 -1 -1 -1 -1 0 0 0 0 0 0 0 0 1 0 0 0 0 2 1]
ATT, 24365833, 0, 0.06734332, 0, -1.242777, 0, 359.8264, 3
XKF4, 24365305, 0, 0, 0, 0, 0, 0, 0.01129237, 0, 0, 0, 50, 65703, 0, 0
XKF1, 24365305, 0, 0.06, -1.24, 359.82, 0.2576412, 0.1373863, -0.0923136, -0.06801601, 0, 0, -0.8609238, -0.03, 0.14, -0.03, 0
XKF2, 24365305, 0, 0, 0, 0.2, 0, 0, 0, 0, 0, 0, 0, 0, 0, 0, 0
XKF3, 24365305, 0, 0, 0, 0, 0.23, 0.19, -0.07, 0, 0, 0, 0, 0, 0, 0
XKF5, 24365305, 0, 0, 0, 0, 0, 1.08, 0.24, 0, 0, 0.5, 3.687587E-05, 0.008115906, 0.01442466
XKFS, 24365305, 0, 0, 0, 0, 0, 0, 0, 0, 0
XKQ, 24365305, 0, 0.9993403, 0.02012982, -0.03021565, -0.0009041777
XKF4, 24365305, 1, 0, 0, 0.04, 0, 0, 0.01159065, 0, 0, 0, 50, 65703, 0, 0
XKF1, 24365305, 1, 2.22, 0.34, 359.97, 0.01473019, 0.1587444, -0.3359002, -0.1048276, 0, 0, -1.266417, 0.12, -0.1, 0.01, 0
XKF2, 24365305, 1, 0, 0, 0.03, 0, 0, 0, 0, 0, 0, 0, 0, 0, 0, 0
XKF3, 24365305, 1, 0, 0, 0, 0.02, 0.2, -0.45, 0, 0, 0, 0, 0, 0, 0
XKFS, 24365305, 1, 0, 0, 0, 0, 0, 0, 0, 0
XKQ, 24365305, 1, 0.999104, 0.03902664, -0.01637004, 0.0004492364
AHR2, 24365906, -0.16, -0.63, 359.3, 0.78, 0, 0, 0.9999672, -0.001515347, -0.005564834, -0.005670064
PIDS, 24365911, 0, 0, 0, 0, 0, 0, 0, 0, 0, 0, 0
PIDA, 24365915, 0, 0, 0, 0, 0, 0, 0, 0, 0, 0, 0
IMU, 24365925, 0, 0.0001217677, -0.003419279, -0.001129145, -0.437075, -0.3434937, -9.60593, 0, 0, 44.32367, 1, 1, 1976, 1976
IMU, 24365925, 1, 0.003760752, -0.001862077, -0.0004913001, -0.3171253, -0.707912, -9.834196, 0, 0, 42, 1, 1, 2004, 2017
ISBD, 24367117, 0, 23, [0 0 0 0 3 1 0 0 0 2 1 0 0 0 0 0 0 0 0 -1 -1 2 1 1 -1 0 1 0 0 0 1 0], [0 -3 -2 0 -5 -4 -2 -2 -3 -3 -3 -2 -1 -1 -3 -3 -2 -2 -1 0 0 0 -3 -4 -1 -2 -1 -2 -3 -2 -2 -4], [0 0 -1 0 0 0 0 0 -2 -4 -3 -2 0 -1 0 0 -1 -2 -2 -1 -1 -1 -1 0 0 1 1 0 -2 -2 -1 -1]
ATT, 24385816, 0, 0.06818215, 0, -1.250198, 0, 359.826, 3
XKF4, 24385300, 0, 0, 0, 0, 0, 0, 0.01132021, 0, 0, 0, 50, 65703, 0, 0
XKF1, 24385300, 0, 0.06, -1.25, 359.82, 0.2608494, 0.1384463, -0.09240684, -0.06655767, 0, 0, -0.8622988, -0.03, 0.14, -0.03, 0
XKF2, 24385300, 0, 0, 0, 0.2, 0, 0, 0, 0, 0, 0, 0, 0, 0, 0, 0
XKF3, 24385300, 0, 0, 0, 0, 0.23, 0.19, -0.07, 0, 0, 0, 0, 0, 0, 0
XKF5, 24385300, 0, 0, 0, 0, 0, 1.09, 0.24, 0, 0, 0.5, 3.619105E-05, 0.00806978, 0.01436001
XKFS, 24385300, 0, 0, 0, 0, 0, 0, 0, 0, 0
