FMT, 128, 89, FMT, BBnNZ, Type,Length,Name,Format,Columns
FMT, 118, 44, FMTU, QBNN, TimeUS,FmtType,UnitIds,MultIds
FMT, 72, 36, ATT, QffffffB, TimeUS,DesRoll,Roll,DesPitch,Pitch,DesYaw,Yaw,AEKF
ATT, 5647979, 0, 0.5082109, 0, -0.8880534, 0, 0.01194489, 0
FMT, 47, 44, XKF4, QBcccccfffHBIHb, TimeUS,C,SV,SP,SH,SM,SVT,errRP,OFN,OFE,FS,TS,SS,GPS,PI
XKF4, 5647528, 0, 0, 0, 0, 0, 0, 0.1413268, 0, 0, 0, 50, 0, 0, 0
FMT, 44, 56, XKF1, QBccCfffffffccce, TimeUS,C,Roll,Pitch,Yaw,VN,VE,VD,dPD,PN,PE,PD,GX,GY,GZ,OH
XKF1, 5647528, 0, 0.52, -0.88, 0, -2.89311E-06, 0.0001111807, 0.00826028, 0.006163109, 0, 0, 0.0001434456, 0, 0, 0, 0
FMT, 45, 46, XKF2, QBccccchhhhhhfff, TimeUS,C,AX,AY,AZ,VWN,VWE,MN,ME,MD,MX,MY,MZ,IDX,IDY,IS
XKF2, 5647528, 0, 0, 0, 0, 0, 0, 0, 0, 0, 0, 0, 0, 0, 0, 0
FMT, 46, 42, XKF3, QBcccccchhhccff, TimeUS,C,IVN,IVE,IVD,IPN,IPE,IPD,IMX,IMY,IMZ,IYAW,IVT,RErr,ErSc
XKF3, 5647528, 0, 0, 0, 0, 0, 0, 0, 0, 0, 0, 0, 0, 0, 0
FMT, 48, 41, XKF5, QBBhhhcccCCfff, TimeUS,C,NI,FIX,FIY,AFI,HAGL,offset,RI,rng,Herr,eAng,eVel,ePos
XKF5, 5647528, 0, 0, 0, 0, 0, 0.05, 0.05, 0, 0, 0.5, 3.670753E-18, 0.02356688, 2.939298E-05
FMT, 51, 20, XKFS, QBBBBBBBBB, TimeUS,C,MI,BI,GI,AI,SS,GPS_GTA,GPS_CHK_WAIT,MAG_FUSION
XKFS, 5647528, 0, 0, 0, 0, 0, 0, 0, 0, 0
FMT, 52, 28, XKQ, QBffff, TimeUS,C,Q1,Q2,Q3,Q4
XKQ, 5647528, 0, 0.9993404, 0.02418018, -0.02708699, 0.000659782
XKF4, 5647528, 1, 0, 0, 0, 0, 0, 0.1412693, 0, 0, 0, 50, 0, 0, 0
XKF1, 5647528, 1, 2.19, -0.59, 0, -0.0001189954, -3.142068E-05, 0.003079969, 0.001235267, 0, 0, 4.24897E-05, 0, 0, 0, 0
XKF2, 5647528, 1, 0, 0, 0, 0, 0, 0, 0, 0, 0, 0, 0, 0, 0, 0
XKF3, 5647528, 1, 0, 0, 0, 0, 0, 0, 0, 0, 0, 0, 0, 0, 0
XKFS, 5647528, 1, 0, 0, 0, 0, 0, 0, 0, 0
XKQ, 5647528, 1, 0.9989488, 0.03874174, -0.02448349, 0.0009556247
FMT, 70, 45, AHR2, QccCfLLffff, TimeUS,Roll,Pitch,Yaw,Alt,Lat,Lng,Q1,Q2,Q3,Q4
AHR2, 5648260, 0.52, -0.88, 0, 0, 0, 0, 0.9999593, 0.004575192, -0.007754264, 0.0005965773
FMT, 109, 52, PIDS, QffffffffffB, TimeUS,Tar,Act,Err,P,I,D,FF,DFF,Dmod,SRate,Flags
PIDS, 5648277, 0, 0, 0, 0, 0, 0, 0, 0, 0, 0, 0
FMT, 108, 52, PIDA, QffffffffffB, TimeUS,Tar,Act,Err,P,I,D,FF,DFF,Dmod,SRate,Flags
PIDA, 5648292, 0, 0, 0, 0, 0, 0, 0, 0, 0, 0, 0
FMT, 163, 54, IMU, QBffffffIIfBBHH, TimeUS,I,GyrX,GyrY,GyrZ,AccX,AccY,AccZ,EG,EA,T,GH,AH,GHz,AHz
IMU, 5648308, 0, 0.000689492, -0.0004727044, -2.958724E-05, -0.5222415, -0.4632384, -9.621125, 0, 0, 35.14493, 1, 1, 2007, 2007
IMU, 5648308, 1, 4.738191E-05, -0.001313249, 0.0001337461, -0.4829052, -0.7576322, -9.73178, 0, 0, 31.5, 1, 1, 2017, 2010
FMT, 119, 76, UNIT, QbZ, TimeUS,Id,Label
FMT, 120, 20, MULT, Qbd, TimeUS,Id,Mult
FMT, 32, 35, PARM, QNff, TimeUS,Name,Value,Default
FMT, 94, 51, GPS, QBBIHBcLLeffffB, TimeUS,I,Status,GMS,GWk,NSats,HDop,Lat,Lng,Alt,Spd,GCrs,VZ,Yaw,U
FMT, 95, 39, GPA, QBCCCCfBIHeHH, TimeUS,I,VDop,HAcc,VAcc,SAcc,YAcc,VV,SMS,Delta,AEl,RTCMFU,RTCMFD
FMT, 99, 22, UBX1, QBHBBHI, TimeUS,Instance,noisePerMS,jamInd,aPower,agcCnt,config
FMT, 100, 16, UBX2, QBbBbB, TimeUS,Instance,ofsI,magI,ofsQ,magQ
FMT, 96, 42, GRAW, QIHBBddfBbB, TimeUS,WkMS,Week,numSV,sv,cpMes,prMes,doMes,mesQI,cno,lli
FMT, 97, 24, GRXH, QdHbBB, TimeUS,rcvTime,week,leapS,numMeas,recStat
FMT, 98, 41, GRXS, QddfBBBHBBBBB, TimeUS,prMes,cpMes,doMes,gnss,sv,freq,lock,cno,prD,cpD,doD,trk
FMT, 101, 23, SBPH, QIII, TimeUS,CrcError,LastInject,IARhyp
FMT, 102, 67, SBRH, QQQQQQQQ, TimeUS,msg_flag,1,2,3,4,5,6
FMT, 103, 123, SBRM, QQQQQQQQQQQQQQQ, TimeUS,msg_flag,1,2,3,4,5,6,7,8,9,10,11,12,13
FMT, 104, 23, SBRE, QHIiBB, TimeUS,GWk,GMS,ns_residual,level,quality
FMT, 59, 75, MSG, QZ, TimeUS,Message
FMT, 60, 39, RCIN, QHHHHHHHHHHHHHH, TimeUS,C1,C2,C3,C4,C5,C6,C7,C8,C9,C10,C11,C12,C13,C14
FMT, 61, 18, RCI2, QHHHB, TimeUS,C15,C16,OMask,Flags
FMT, 62, 39, RCOU, QHHHHHHHHHHHHHH, TimeUS,C1,C2,C3,C4,C5,C6,C7,C8,C9,C10,C11,C12,C13,C14
FMT, 207, 19, RCO2, QHHHH, TimeUS,C15,C16,C17,C18
FMT, 208, 39, RCO3, QHHHHHHHHHHHHHH, TimeUS,C19,C20,C21,C22,C23,C24,C25,C26,C27,C28,C29,C30,C31,C32
FMT, 63, 19, RSSI, Qff, TimeUS,RXRSSI,RXLQ
FMT, 64, 43, BARO, QBfffcfIffB, TimeUS,I,Alt,AltAMSL,Press,Temp,CRt,SMS,Offset,GndTemp,Health
FMT, 65, 24, BARD, QBfff, TimeUS,I,DynPrX,DynPrY,DynPrZ
FMT, 66, 25, CANF, QBIBBBBBBBBB, TimeUS,Bus,Id,DLC,B0,B1,B2,B3,B4,B5,B6,B7
FMT, 67, 81, CAFD, QBIBQQQQQQQQ, TimeUS,Bus,Id,DLC,D0,D1,D2,D3,D4,D5,D6,D7
FMT, 196, 50, PL, QBBfffffffIIB, TimeUS,Heal,TAcq,pX,pY,vX,vY,mX,mY,mZ,LastMeasMS,EKFOutl,Est
FMT, 68, 24, POWR, QffHHB, TimeUS,Vcc,VServo,Flags,AccFlags,Safety
FMT, 69, 27, MCU, Qffff, TimeUS,MTemp,MVolt,MVmin,MVmax
FMT, 93, 46, CMD, QHHHffffLLfB, TimeUS,CTot,CNum,CId,Prm1,Prm2,Prm3,Prm4,Lat,Lng,Alt,Frame
FMT, 92, 46, MISE, QHHHffffLLfB, TimeUS,CTot,CNum,CId,Prm1,Prm2,Prm3,Prm4,Lat,Lng,Alt,Frame
FMT, 78, 48, MAVC, QBBBBBHffffiifBB, TimeUS,TS,TC,SS,SC,Fr,Cmd,P1,P2,P3,P4,X,Y,Z,Res,WL
FMT, 79, 20, RAD, QBBBBBHH, TimeUS,RSSI,RemRSSI,TxBuf,Noise,RemNoise,RxErrors,Fixed
FMT, 81, 46, CAM, QBHIHLLeeeccC, TimeUS,I,Img,GPSTime,GPSWeek,Lat,Lng,Alt,RelAlt,GPSAlt,R,P,Y
FMT, 82, 46, TRIG, QBHIHLLeeeccC, TimeUS,I,Img,GPSTime,GPSWeek,Lat,Lng,Alt,RelAlt,GPSAlt,R,P,Y
FMT, 83, 48, MNT, QBfffffffff, TimeUS,I,DRoll,Roll,DPitch,Pitch,DYawB,YawB,DYawE,YawE,Dist
FMT, 114, 41, ARSP, QBffcffBBffB, TimeUS,I,Airspeed,DiffPress,Temp,RawPress,Offset,U,H,Hp,TR,Pri
FMT, 88, 41, BAT, QBfffffcfBBB, TimeUS,Inst,Volt,VoltR,Curr,CurrTot,EnrgTot,Temp,Res,RemPct,H,SH
FMT, 89, 40, BCL, QBfHHHHHHHHHHHH, TimeUS,Instance,Volt,V1,V2,V3,V4,V5,V6,V7,V8,V9,V10,V11,V12
FMT, 113, 35, MAG, QBhhhhhhhhhBI, TimeUS,I,MagX,MagY,MagZ,OfsX,OfsY,OfsZ,MOX,MOY,MOZ,Health,S
FMT, 122, 14, MODE, QMBB, TimeUS,Mode,ModeNum,Rsn
FMT, 116, 17, RFND, QBCBBb, TimeUS,Instance,Dist,Stat,Orient,Quality
FMT, 117, 36, DMS, QIIIIBBBBBBBBB, TimeUS,N,Dp,RT,RS,Fa,Fmn,Fmx,Pa,Pmn,Pmx,Sa,Smn,Smx
FMT, 174, 41, BCN, QBBfffffff, TimeUS,Health,Cnt,D0,D1,D2,D3,PosX,PosY,PosZ
FMT, 175, 57, PRX, QBBfffffffffff, TimeUS,Layer,He,D0,D45,D90,D135,D180,D225,D270,D315,DUp,CAn,CDis
FMT, 176, 44, PRXR, QBffffffff, TimeUS,Layer,D0,D45,D90,D135,D180,D225,D270,D315
FMT, 179, 61, PM, QHHHIIHHIIIIIIQ, TimeUS,LR,NLon,NL,MaxT,Mem,Load,ErrL,InE,ErC,SPIC,I2CC,I2CI,Ex,R
FMT, 178, 29, SRTL, QBHHBfff, TimeUS,Active,NumPts,MaxPts,Action,N,E,D
FMT, 170, 48, OABR, QBBHHHBfLLiLLi, TimeUS,Type,Act,DYaw,Yaw,DP,RChg,Mar,DLt,DLg,DAlt,OLt,OLg,OAlt
FMT, 171, 31, OADJ, QBBBBLLLL, TimeUS,State,Err,CurrPoint,TotPoints,DLat,DLng,OALat,OALng
FMT, 172, 37, SA, QBffffffB, TimeUS,State,DVelX,DVelY,DVelZ,MVelX,MVelY,MVelZ,Back
FMT, 173, 21, OAVG, QBBLL, TimeUS,version,point_num,Lat,Lon
FMT, 77, 45, SIM, QccCfLLffff, TimeUS,Roll,Pitch,Yaw,Alt,Lat,Lng,Q1,Q2,Q3,Q4
FMT, 84, 38, TERR, QBLLHffHHf, TimeUS,Status,Lat,Lng,Spacing,TerrH,CHeight,Pending,Loaded,ROfs
FMT, 86, 40, ESC, QBffffcfcf, TimeUS,Instance,RPM,RawRPM,Volt,Curr,Temp,CTot,MotTemp,Err
FMT, 87, 15, EDT2, QBBBB, TimeUS,Instance,Stress,MaxStress,Status
FMT, 85, 46, CSRV, QBfffBfffffB, TimeUS,Id,Pos,Force,Speed,Pow,PosCmd,V,A,MotT,PCBT,Err
FMT, 105, 52, PIDR, QffffffffffB, TimeUS,Tar,Act,Err,P,I,D,FF,DFF,Dmod,SRate,Flags
FMT, 106, 52, PIDP, QffffffffffB, TimeUS,Tar,Act,Err,P,I,D,FF,DFF,Dmod,SRate,Flags
FMT, 107, 52, PIDY, QffffffffffB, TimeUS,Tar,Act,Err,P,I,D,FF,DFF,Dmod,SRate,Flags
FMT, 110, 52, PIDN, QffffffffffB, TimeUS,Tar,Act,Err,P,I,D,FF,DFF,Dmod,SRate,Flags
FMT, 111, 52, PIDE, QffffffffffB, TimeUS,Tar,Act,Err,P,I,D,FF,DFF,Dmod,SRate,Flags
FMT, 112, 56, DSTL, QBfLLeccfeffff, TimeUS,Stg,THdg,Lat,Lng,Alt,XT,Travel,L1I,Loiter,Des,P,I,D
FMT, 161, 32, ACC, QBQfff, TimeUS,I,SampleUS,AccX,AccY,AccZ
FMT, 162, 32, GYR, QBQfff, TimeUS,I,SampleUS,GyrX,GyrY,GyrZ
FMT, 166, 28, VIBE, QBfffI, TimeUS,IMU,VibeX,VibeY,VibeZ,Clip
FMT, 164, 31, ISBH, QHBBHHQf, TimeUS,N,type,instance,mul,smp_cnt,SampleUS,smp_rate
FMT, 165, 207, ISBD, QHHaaa, TimeUS,N,seqno,x,y,z
FMT, 129, 15, RFRH, QI, TimeUS,TF
FMT, 130, 5, RFRF, BB, FTypes,Slow
FMT, 138, 38, RFRN, IIIfIfffBBB, HLat,HLon,HAlt,E2T,AM,TX,TY,TZ,VC,EKT,Flags
FMT, 131, 4, REV2, B, Event
FMT, 132, 15, RSO2, III, Lat,Lon,Alt
FMT, 133, 11, RWA2, ff, Airspeed,uncertainty
FMT, 134, 4, REV3, B, Event
FMT, 135, 15, RSO3, III, Lat,Lon,Alt
FMT, 136, 11, RWA3, ff, Airspeed,Uncertainty
FMT, 137, 16, REY3, ffIB, yawangle,yawangleerr,timestamp_ms,type
FMT, 139, 13, RISH, HBBfBB, LR,PG,PA,LD,AC,GC
FMT, 140, 37, RISI, ffffffffBB, DVX,DVY,DVZ,DAX,DAY,DAZ,DVDT,DADT,Flags,I
FMT, 148, 5, RASH, BB, Primary,NumInst
FMT, 149, 14, RASI, fIBBB, pd,UpdateMS,H,Use,I
FMT, 141, 5, RBRH, BB, Primary,NumInst
FMT, 142, 13, RBRI, IfBB, LastUpdate,Alt,H,I
FMT, 143, 8, RRNH, hhB, GCl,MaxD,NumSensors
FMT, 144, 20, RRNI, fffHBBB, PX,PY,PZ,Dist,Orient,Status,I
FMT, 145, 5, RGPH, BB, NumInst,Primary
FMT, 146, 23, RGPI, ffffBBBB, OX,OY,OZ,Lg,Flags,Stat,NSats,I
FMT, 147, 58, RGPJ, IffffffIiiiffHB, TS,VX,VY,VZ,SA,Y,YA,YT,Lat,Lon,Alt,HA,VA,HD,I
FMT, 153, 14, RMGH, fBBBBBBB, Dec,Avail,NumInst,AutoDec,NumEna,LOE,C,FUsable
FMT, 154, 35, RMGI, IffffffBBBB, LU,OX,OY,OZ,FX,FY,FZ,UFY,H,HSF,I
FMT, 150, 33, RBCH, ffffiiiBB, PX,PY,PZ,AE,OLat,OLng,OAlt,Flags,NumInst
FMT, 151, 25, RBCI, IffffBB, LU,PX,PY,PZ,Dist,H,I
FMT, 152, 21, RVOH, fffIBB, OX,OY,OZ,Del,H,Ena
FMT, 155, 40, ROFH, ffffIffffB, FX,FY,GX,GY,Tms,PX,PY,PZ,HgtOvr,Qual
FMT, 156, 49, REPH, fffffffffIIH, PX,PY,PZ,Q1,Q2,Q3,Q4,PEr,AEr,TS,RT,D
FMT, 157, 19, RSLL, IIfI, Lat,Lng,PosAccSD,TS
FMT, 158, 25, REVH, ffffIH, VX,VY,VZ,Er,TS,D
FMT, 159, 31, RWOH, ffIffff, DA,DT,TS,PX,PY,PZ,R
FMT, 160, 53, RBOH, ffffffffIfffH, Q,DPX,DPY,DPZ,DAX,DAY,DAZ,DT,TS,OX,OY,OZ,D
FMT, 43, 37, XKF0, QBBccCCcccccccc, TimeUS,C,ID,rng,innov,SIV,TR,BPN,BPE,BPD,OFH,OFL,OFN,OFE,OFD
FMT, 49, 36, XKFD, QBffffff, TimeUS,C,IX,IY,IZ,IVX,IVY,IVZ
FMT, 50, 29, XKFM, QBBffff, TimeUS,C,OGNM,GLR,ALR,GDR,ADR
FMT, 53, 48, XKT, QBIffffffff, TimeUS,C,Cnt,IMUMin,IMUMax,EKFMin,EKFMax,AngMin,AngMax,VMin,VMax
FMT, 54, 20, XKTV, QBff, TimeUS,C,TVS,TVD
FMT, 55, 60, XKV1, QBffffffffffff, TimeUS,C,V00,V01,V02,V03,V04,V05,V06,V07,V08,V09,V10,V11
FMT, 56, 60, XKV2, QBffffffffffff, TimeUS,C,V12,V13,V14,V15,V16,V17,V18,V19,V20,V21,V22,V23
FMT, 57, 60, XKY0, QBffffffffffff, TimeUS,C,YC,YCS,Y0,Y1,Y2,Y3,Y4,W0,W1,W2,W3,W4
FMT, 58, 52, XKY1, QBffffffffff, TimeUS,C,IVN0,IVN1,IVN2,IVN3,IVN4,IVE0,IVE1,IVE2,IVE3,IVE4
FMT, 41, 60, NKY0, QBffffffffffff, TimeUS,C,YC,YCS,Y0,Y1,Y2,Y3,Y4,W0,W1,W2,W3,W4
FMT, 42, 52, NKY1, QBffffffffff, TimeUS,C,IVN0,IVN1,IVN2,IVN3,IVN4,IVE0,IVE1,IVE2,IVE3,IVE4
FMT, 71, 19, AOA, Qff, TimeUS,AOA,SSA
FMT, 73, 24, ORGN, QBLLe, TimeUS,Type,Lat,Lng,Alt
FMT, 74, 31, POS, QLLfff, TimeUS,Lat,Lng,Alt,RelHomeAlt,RelOriginAlt
FMT, 76, 35, ATSC, Qffffff, TimeUS,AngPScX,AngPScY,AngPScZ,PDScX,PDScY,PDScZ
FMT, 204, 51, VSTB, Qffffffffff, TimeUS,GyrX,GyrY,GyrZ,AccX,AccY,AccZ,Q1,Q2,Q3,Q4
FMT, 90, 38, MON, QIbIHHHHHII, TimeUS,Dly,Tsk,IErr,IErrCnt,IErrLn,MM,MC,SmLn,SPICnt,I2CCnt
FMT, 91, 47, WDOG, QbIHHHHHHHIBIIn, TimeUS,Tsk,IE,IEC,IEL,MvMsg,MvCmd,SmLn,FL,FT,FA,FP,ICSR,LR,TN
FMT, 210, 20, UART, QBff, TimeUS,I,Tx,Rx
FMT, 115, 21, RPM, QBffB, TimeUS,I,RPM,Qual,H
FMT, 209, 27, FNCE, QBBBLLBf, TimeUS,Tot,Seq,Type,Lat,Lng,Count,Radius
FMT, 177, 33, DSF, QIHIIII, TimeUS,Dp,Blk,Bytes,FMn,FMx,FAv
FMT, 121, 24, RALY, QBBLLhB, TimeUS,Tot,Seq,Lat,Lng,Alt,Flags
FMT, 183, 23, MAV, QBHHHBHH, TimeUS,chan,txp,rxp,rxdp,flags,ss,tf
FMT, 167, 43, VISO, Qffffffff, TimeUS,dt,AngDX,AngDY,AngDZ,PosDX,PosDY,PosDZ,conf
FMT, 168, 58, VISP, QQIffffffffBBb, TimeUS,RTimeUS,CTimeMS,PX,PY,PZ,R,P,Y,PErr,AErr,Rst,Ign,Q
FMT, 169, 42, VISV, QQIffffBBb, TimeUS,RTimeUS,CTimeMS,VX,VY,VZ,VErr,Rst,Ign,Q
FMT, 180, 28, OF, QBffff, TimeUS,Qual,flowX,flowY,bodyX,bodyY
FMT, 182, 21, WENC, Qfbfb, TimeUS,Dist0,Qual0,Dist1,Qual1
FMT, 185, 35, ADSB, QIiiiHHhH, TimeUS,ICAO_address,Lat,Lng,Alt,Heading,Hor_vel,Ver_vel,Squark
FMT, 181, 12, EV, QB, TimeUS,Id
FMT, 186, 18, ARM, QBIBB, TimeUS,ArmState,ArmChecks,Forced,Method
FMT, 184, 13, ERR, QBB, TimeUS,Subsys,ECode
FMT, 187, 35, WINC, QBBBBBfffHfb, TimeUS,Heal,ThEnd,Mov,Clut,Mode,DLen,Len,DRate,Tens,Vcc,Temp
FMT, 188, 47, PSCN, Qfffffffff, TimeUS,DPN,TPN,PN,DVN,TVN,VN,DAN,TAN,AN
FMT, 189, 47, PSCE, Qfffffffff, TimeUS,DPE,TPE,PE,DVE,TVE,VE,DAE,TAE,AE
FMT, 190, 47, PSCD, Qfffffffff, TimeUS,DPD,TPD,PD,DVD,TVD,VD,DAD,TAD,AD
FMT, 191, 35, PSON, Qffffff, TimeUS,TPON,PON,TVON,VON,TAON,AON
FMT, 192, 35, PSOE, Qffffff, TimeUS,TPOE,POE,TVOE,VOE,TAOE,AOE
ISBH, 5649516, 0, 1, 0, 938, 1024, 5207997, 2007.363
ISBD, 5649520, 0, 0, [5 2 3 2 2 4 3 2 0 1 4 2 1 2 2 2 1 2 2 2 3 4 4 0 0 1 4 3 1 0 -2 0], [-7 -2 -1 1 -1 -1 -3 0 0 -2 -3 -3 -3 -3 -3 -3 -2 -1 -1 -1 0 -3 -4 -1 -1 2 0 0 -2 0 0 -1], [0 0 0 0 0 -1 -2 -2 -1 0 0 0 0 0 0 -1 0 2 1 0 0 0 0 -1 -1 0 2 2 1 0 -1 -1]
ATT, 5667983, 0, 0.5105213, 0, -0.8897325, 0, 0.0120234, 0
XKF4, 5667535, 0, 0, 0, 0, 0, 0, 0.1413269, 0, 0, 0, 50, 0, 0, 0
XKF1, 5667535, 0, 0.52, -0.88, 0, 7.182724E-05, 3.351615E-05, 0.01330375, 0.009223026, 0, 0, 0.0003391909, 0, 0, 0, 0
XKF2, 5667535, 0, 0, 0, 0, 0, 0, 0, 0, 0, 0, 0, 0, 0, 0, 0
XKF3, 5667535, 0, 0, 0, 0, 0, 0, 0, 0, 0, 0, 0, 0, 0, 0
XKF5, 5667535, 0, 0, 0, 0, 0, 0.05, 0.05, 0, 0, 0.5, 3.670753E-18, 0.03468189, 6.591047E-05
XKFS, 5667535, 0, 0, 0, 0, 0, 0, 0, 0, 0
XKQ, 5667535, 0, 0.9993395, 0.02420001, -0.02710139, 0.0006605864
XKF4, 5667535, 1, 0, 0, 0, 0, 0, 0.1412694, 0, 0, 0, 50, 0, 0, 0
XKF1, 5667535, 1, 2.19, -0.59, 0, -0.0001955379, -6.632694E-05, 0.005483136, 0.001954591, 0, 0, 0.0001152057, 0, 0, 0, 0
XKF2, 5667535, 1, 0, 0, 0, 0, 0, 0, 0, 0, 0, 0, 0, 0, 0, 0
XKF3, 5667535, 1, 0, 0, 0, 0, 0, 0, 0, 0, 0, 0, 0, 0, 0
XKFS, 5667535, 1, 0, 0, 0, 0, 0, 0, 0, 0
XKQ, 5667535, 1, 0.9989471, 0.03875986, -0.02452536, 0.0009536875
AHR2, 5668108, 0.52, -0.88, 0, 0, 0, 0, 0.9999591, 0.004595013, -0.007768692, 0.0005974829
PIDS, 5668112, 0, 0, 0, 0, 0, 0, 0, 0, 0, 0, 0
PIDA, 5668116, 0, 0, 0, 0, 0, 0, 0, 0, 0, 0, 0
IMU, 5668120, 0, 0.0006655847, -0.0004399942, -6.521837E-06, -0.5209334, -0.4673101, -9.615402, 0, 0, 35.14493, 1, 1, 2007, 2007
IMU, 5668120, 1, -0.0002443882, -0.001263074, 0.0002245526, -0.4862749, -0.7581423, -9.736176, 0, 0, 31.5, 1, 1, 2017, 2010
FMT, 193, 35, PSOD, Qffffff, TimeUS,TPOD,POD,TVOD,VOD,TAOD,AOD
FMT, 194, 35, PSOT, Qffffff, TimeUS,TPOT,POT,TVOT,VOT,TAOT,AOT
FMT, 75, 63, RATE, Qfffffffffffff, TimeUS,RDes,R,ROut,PDes,P,POut,YDes,Y,YOut,ADes,A,AOut,AOutSlew
FMT, 195, 39, ANG, Qfffffff, TimeUS,DesRoll,Roll,DesPitch,Pitch,DesYaw,Yaw,Dt
FMT, 201, 33, STAK, QBBHHN, TimeUS,Id,Pri,Total,Free,Name
FMT, 202, 88, FILE, NIBZ, FileName,Offset,Length,Data
FMT, 197, 78, AISR, QBBBZ, TimeUS,num,total,ID,payload
FMT, 198, 41, AIS1, QBBIBbHbLLHHBBbI, US,typ,rep,mmsi,nav,rot,sog,pos,lon,lat,cog,hed,sec,man,raim,rad
FMT, 199, 38, AIS4, QBIHBBBBBBLLBBI, US,rep,mmsi,year,mth,day,h,m,s,fix,lon,lat,epfd,raim,rad
FMT, 200, 175, AIS5, QBIBINZBHHBBBBZB, US,rep,mmsi,ver,imo,cal,nam,typ,bow,stn,prt,str,fix,dght,dst,dte
FMT, 203, 39, SCR, QNIii, TimeUS,Name,Runtime,Total_mem,Run_mem
FMT, 206, 90, VER, QBHBBBBIZHBB, TimeUS,BT,BST,Maj,Min,Pat,FWT,GH,FWS,APJ,BU,FV
FMT, 205, 32, MOTB, QfffffB, TimeUS,LiftMax,BatVolt,ThLimit,ThrAvMx,ThrOut,FailFlags
FMT, 0, 29, THR, Qhffff, TimeUS,ThrIn,ThrOut,DesSpeed,Speed,AccX
FMT, 1, 29, NTUN, QfffHf, TimeUS,WpDist,WpBrg,DesYaw,Yaw,XTrack
FMT, 2, 33, STER, Qhfffff, TimeUS,SteerIn,SteerOut,DesLatAcc,LatAcc,DesTurnRate,TurnRate
FMT, 3, 36, GUIP, QBffffff, TimeUS,Type,pX,pY,pZ,vX,vY,vZ
ISBD, 5669321, 0, 1, [0 0 0 -1 -1 -2 -2 -2 -2 -2 0 0 -1 -2 -1 -1 0 -2 -1 -2 0 -1 -1 -1 -1 -1 0 0 0 -1 -1 0], [0 0 0 0 0 0 0 0 0 0 0 1 3 -1 0 0 1 3 3 1 -1 0 1 1 1 2 1 0 -1 0 0 0], [-1 0 0 0 0 0 0 0 1 3 1 0 -1 0 1 0 -1 0 1 1 0 -1 0 1 2 1 1 1 0 0 0 0]
ATT, 5687963, 0, 0.5104777, 0, -0.8894361, 0, 0.01168239, 0
XKF4, 5687493, 0, 0, 0, 0, 0, 0, 0.1413269, 0, 0, 0, 50, 0, 0, 0
XKF1, 5687493, 0, 0.52, -0.88, 0, 5.255309E-05, -4.930759E-06, 0.01882952, 0.01249056, 0, 0, 0.0006420972, 0, 0, 0, 0
XKF2, 5687493, 0, 0, 0, 0, 0, 0, 0, 0, 0, 0, 0, 0, 0, 0, 0
XKF3, 5687493, 0, 0, 0, 0, 0, 0, 0, 0, 0, 0, 0, 0, 0, 0
XKF5, 5687493, 0, 0, 0, 0, 0, 0.05, 0.05, 0, 0, 0.5, 3.670753E-18, 0.04536242, 0.0001166929
XKFS, 5687493, 0, 0, 0, 0, 0, 0, 0, 0, 0
XKQ, 5687493, 0, 0.9993396, 0.0241992, -0.02709865, 0.0006575592
XKF4, 5687493, 1, 0, 0, 0, 0, 0, 0.1412694, 0, 0, 0, 50, 0, 0, 0
XKF1, 5687493, 1, 2.2, -0.59, 359.99, -0.0006733374, -0.0001594169, 0.008162416, 0.002653944, 0, 0, 0.0002337187, 0, 0, 0, 0
XKF2, 5687493, 1, 0, 0, 0, 0, 0, 0, 0, 0, 0, 0, 0, 0, 0, 0
XKF3, 5687493, 1, 0, 0, 0, 0, 0, 0, 0, 0, 0, 0, 0, 0, 0
XKFS, 5687493, 1, 0, 0, 0, 0, 0, 0, 0, 0
XKQ, 5687493, 1, 0.998946, 0.03878374, -0.02453044, 0.0009430119
AHR2, 5688033, 0.52, -0.88, 0, 0, 0, 0, 0.9999591, 0.004594264, -0.007765887, 0.000594495
PIDS, 5688037, 0, 0, 0, 0, 0, 0, 0, 0, 0, 0, 0
PIDA, 5688041, 0, 0, 0, 0, 0, 0, 0, 0, 0, 0, 0
IMU, 5688045, 0, 0.0007719773, -0.0004822303, -1.957364E-05, -0.5215039, -0.4688769, -9.617482, 0, 0, 35.14493, 1, 1, 2007, 2007
IMU, 5688045, 1, 0.0001522327, -0.001471929, 3.846947E-05, -0.492163, -0.7589802, -9.74429, 0, 0, 31.5, 1, 1, 2017, 2010
ISBD, 5689236, 0, 2, [-1 0 1 0 -1 0 -1 1 2 3 0 0 2 3 3 3 1 1 1 0 0 1 3 4 2 0 2 4 6 4 2 3], [1 2 0 0 -1 -1 0 0 0 -2 0 -2 -2 -1 0 0 0 -1 0 0 0 -2 -2 -1 0 1 -1 -3 -7 -4 -2 0], [0 1 0 0 3 2 0 0 0 1 0 0 0 -1 0 0 0 1 1 0 0 0 1 0 -1 0 0 1 0 0 0 -1]
FMT, 251, 43, DCM, Qffffffff, TimeUS,Roll,Pitch,Yaw,ErrRP,ErrYaw,VWN,VWE,VWD
DCM, 5707507, 0.5117483, -0.8903167, 0.01179289, 0.1347164, 1, 0, 0, 0
FMT, 250, 51, EAHR, QffffffLLfI, TimeUS,Roll,Pitch,Yaw,VN,VE,VD,Lat,Lon,Alt,Flg
EAHR, 5707548, 0, 0, 0, 0, 0, 0, 0, 0, 0, 0
ATT, 5708023, 0, 0.5117483, 0, -0.8903167, 0, 0.01179289, 0
XKF4, 5707655, 0, 0, 0, 0, 0, 0, 0.141327, 0, 0, 0, 50, 0, 0, 0
XKF1, 5707655, 0, 0.52, -0.89, 0, 0.0001174307, -5.018883E-05, 0.02510385, 0.01641499, 0, 0, 0.00106036, 0, 0, 0, 0
XKF2, 5707655, 0, 0, 0, 0, 0, 0, 0, 0, 0, 0, 0, 0, 0, 0, 0
XKF3, 5707655, 0, 0, 0, 0, 0, 0, 0, 0, 0, 0, 0, 0, 0, 0
XKF5, 5707655, 0, 0, 0, 0, 0, 0.05, 0.05, 0, 0, 0.5, 3.670753E-18, 0.05561062, 0.000181492
XKFS, 5707655, 0, 0, 0, 0, 0, 0, 0, 0, 0
XKQ, 5707655, 0, 0.9993392, 0.02420996, -0.02710607, 0.0006585818
XKF4, 5707655, 1, 0, 0, 0, 0, 0, 0.1412695, 0, 0, 0, 50, 0, 0, 0
XKF1, 5707655, 1, 2.2, -0.59, 359.99, -0.0002888844, -0.0001483185, 0.01157276, 0.003949327, 0, 0, 0.0004106085, 0, 0, 0, 0
XKF2, 5707655, 1, 0, 0, 0, 0, 0, 0, 0, 0, 0, 0, 0, 0, 0, 0
XKF3, 5707655, 1, 0, 0, 0, 0, 0, 0, 0, 0, 0, 0, 0, 0, 0
XKFS, 5707655, 1, 0, 0, 0, 0, 0, 0, 0, 0
XKQ, 5707655, 1, 0.9989457, 0.03878601, -0.02454096, 0.0009421675
AHR2, 5708180, 0.52, -0.89, 0, 0, 0, 0, 0.9999591, 0.004605005, -0.007773335, 0.0005955799
PIDS, 5708185, 0, 0, 0, 0, 0, 0, 0, 0, 0, 0, 0
PIDA, 5708189, 0, 0, 0, 0, 0, 0, 0, 0, 0, 0, 0
IMU, 5708193, 0, 0.000673282, -0.0004082811, 5.97958E-06, -0.5217515, -0.4694691, -9.616166, 0, 0, 35.14493, 1, 1, 2007, 2007
IMU, 5708193, 1, 0.00037956, -0.001311083, 1.617326E-05, -0.4857601, -0.7586688, -9.741373, 0, 0, 31.5, 1, 1, 2017, 2010
BARO, 5708261, 0, 0.04998779, 0.04998779, 101127.9, 24.97, 0.3515326, 5708, 0, 24.9791, 1
MAG, 5708278, 0, 212, -1143, 1290, 0, 0, 0, 0, 0, 0, 1, 5708277
THR, 5708285, 0, 0, 0, NaN, -0.5217515
NTUN, 5708289, 0, 0, 0, 1, 0
STER, 5708295, 0, 0, 0, NaN, 0, 0.0007330506
RCIN, 5708302, 1522, 1479, 1507, 1494, 2000, 1000, 1500, 1500, 0, 0, 0, 0, 0, 0
RCI2, 5708306, 0, 0, 0, 1
RCOU, 5708312, 1496, 1500, 1500, 0, 0, 0, 0, 0, 0, 0, 0, 0, 0, 0
RCO2, 5708315, 0, 0, 0, 0
VIBE, 5708320, 0, 0.008378436, 0.008799103, 0.01140285, 0
VIBE, 5708320, 1, 0.05970963, 0.03779781, 0.070154, 0
POWR, 5708374, 5.109521, 5.857802, 1, 1, 6
MCU, 5708374, 24.71241, 3.365602, 3.355631, 3.375066
BAT, 5708417, 0, 24.00313, 24.73415, 0.2762885, 0.183726, 0.004411822, 0, 2.645869, 255, 0, 0
ISBD, 5709489, 0, 3, [3 5 3 3 4 3 4 4 2 2 3 3 1 1 0 0 0 2 0 1 1 0 0 0 1 1 0 -1 -1 -2 -1 -1], [-4 -6 -2 -1 -3 -4 -3 -2 -2 -2 -4 -5 -2 0 0 3 1 -3 -2 -2 1 0 0 -2 -1 0 1 0 0 1 0 0], [-1 -2 -1 0 0 0 -1 -1 -1 -2 -1 -1 0 0 0 0 0 -1 0 0 0 1 1 0 0 0 -1 0 0 0 0 0]
ATT, 5727970, 0, 0.5132503, 0, -0.8915158, 0, 0.01114334, 0
XKF4, 5727526, 0, 0, 0, 0, 0, 0, 0.1413271, 0, 0, 0, 50, 0, 0, 0
XKF1, 5727526, 0, 0.53, -0.89, 359.99, 8.477925E-05, 2.467753E-05, 0.03152753, 0.02041811, 0, 0, 0.001577354, 0, 0, 0, 0
XKF2, 5727526, 0, 0, 0, 0, 0, 0, 0, 0, 0, 0, 0, 0, 0, 0, 0
XKF3, 5727526, 0, 0, 0, 0, 0, 0, 0, 0, 0, 0, 0, 0, 0, 0
XKF5, 5727526, 0, 0, 0, 0, 0, 0.05, 0.05, 0, 0, 0.5, 3.670753E-18, 0.06541109, 0.0002598898
XKFS, 5727526, 0, 0, 0, 0, 0, 0, 0, 0, 0
XKQ, 5727526, 0, 0.9993386, 0.02422257, -0.02711644, 0.0006530192
XKV1, 5727526, 0, 3.293266E-06, 0.002498551, 0.002498194, 0.002403833, 0.2500352, 0.2500352, 0.4900352, 0.2503575, 0.2503575, 4.0007, 0, 0
XKV2, 5727526, 0, 0, 5E-08, 5E-08, 5E-08, 0, 0, 0, 0, 0, 0, 0, 0
XKF4, 5727526, 1, 0, 0, 0, 0, 0, 0.1412696, 0, 0, 0, 50, 0, 0, 0
XKF1, 5727526, 1, 2.2, -0.59, 359.99, -0.0001535947, -0.0003665008, 0.01590103, 0.006128252, 0, 0, 0.0006691302, 0, 0, 0, 0
XKF2, 5727526, 1, 0, 0, 0, 0, 0, 0, 0, 0, 0, 0, 0, 0, 0, 0
XKF3, 5727526, 1, 0, 0, 0, 0, 0, 0, 0, 0, 0, 0, 0, 0, 0
XKFS, 5727526, 1, 0, 0, 0, 0, 0, 0, 0, 0
XKQ, 5727526, 1, 0.9989452, 0.03881193, -0.02451787, 0.0009342225
AHR2, 5728070, 0.53, -0.89, 359.99, 0, 0, 0, 0.9999589, 0.004617734, -0.007783606, 0.0005900602
PIDS, 5728074, 0, 0, 0, 0, 0, 0, 0, 0, 0, 0, 0
PIDA, 5728078, 0, 0, 0, 0, 0, 0, 0, 0, 0, 0, 0
IMU, 5728082, 0, 0.0008320728, -0.000551857, -5.555393E-05, -0.5224472, -0.4665394, -9.619011, 0, 0, 35.14493, 1, 1, 2007, 2007
IMU, 5728082, 1, 0.0009243159, -0.001087552, -4.114931E-05, -0.4706004, -0.7627866, -9.734339, 0, 0, 31.5, 1, 1, 2017, 2010
ISBD, 5729276, 0, 4, [0 0 0 0 0 -1 -2 0 0 -1 -2 -3 -1 -1 0 -2 -3 -1 0 -1 -1 0 0 0 0 0 1 0 0 2 2 1], [1 0 1 2 2 4 5 0 0 0 3 3 1 -1 -3 -1 0 0 0 1 2 0 0 0 1 1 0 2 1 -1 -3 -3], [0 0 0 1 0 0 0 -2 -2 0 0 0 0 1 1 0 -1 0 0 -1 -1 -1 -1 0 0 0 -1 -1 0 0 -2 -1]
ATT, 5748010, 0, 0.5130517, 0, -0.8917567, 0, 0.01057229, 0
XKF4, 5747590, 0, 0, 0, 0, 0, 0, 0.1413271, 0, 0, 0, 50, 0, 0, 0
XKF1, 5747590, 0, 0.53, -0.89, 359.99, 0.0001357173, 1.361275E-05, 0.03907043, 0.0256939, 0, 0, 0.00225957, 0, 0, 0, 0
XKF2, 5747590, 0, 0, 0, 0, 0, 0, 0, 0, 0, 0, 0, 0, 0, 0, 0
XKF3, 5747590, 0, 0, 0, 0, 0, 0, 0, 0, 0, 0, 0, 0, 0, 0
XKF5, 5747590, 0, 0, 0, 0, 0, 0.05, 0.05, 0, 0, 0.5, 3.670753E-18, 0.07479522, 0.0003517235
XKFS, 5747590, 0, 0, 0, 0, 0, 0, 0, 0, 0
XKQ, 5747590, 0, 0.9993386, 0.02422035, -0.02711843, 0.0006481132
XKF4, 5747590, 1, 0, 0, 0, 0, 0, 0.1412696, 0, 0, 0, 50, 0, 0, 0
XKF1, 5747590, 1, 2.2, -0.59, 359.99, 5.587074E-05, -0.0004155305, 0.0207892, 0.008819524, 0, 0, 0.001012949, 0, 0, 0, 0
XKF2, 5747590, 1, 0, 0, 0, 0, 0, 0, 0, 0, 0, 0, 0, 0, 0, 0
XKF3, 5747590, 1, 0, 0, 0, 0, 0, 0, 0, 0, 0, 0, 0, 0, 0
XKFS, 5747590, 1, 0, 0, 0, 0, 0, 0, 0, 0
XKQ, 5747590, 1, 0.9989455, 0.03880214, -0.02452447, 0.0009358426
AHR2, 5748127, 0.53, -0.89, 359.99, 0, 0, 0, 0.9999589, 0.004615613, -0.007785499, 0.0005850742
PIDS, 5748132, 0, 0, 0, 0, 0, 0, 0, 0, 0, 0, 0
PIDA, 5748136, 0, 0, 0, 0, 0, 0, 0, 0, 0, 0, 0
IMU, 5748140, 0, 0.0007518196, -0.0005653952, -0.0001575465, -0.5214531, -0.4641158, -9.615066, 0, 0, 35.14493, 1, 1, 2007, 2007
IMU, 5748140, 1, 0.0008349339, -0.0005440604, -6.992056E-05, -0.4667469, -0.7639126, -9.727866, 0, 0, 31.5, 1, 1, 2017, 2010
ISBD, 5749340, 0, 5, [-1 0 1 2 4 2 0 0 1 2 0 0 2 2 2 2 1 0 0 3 2 2 1 2 1 1 3 2 2 3 3 1], [1 0 0 -2 -3 -3 -2 -1 0 -1 -2 -1 -2 -2 -2 -2 -3 0 0 -3 -5 -8 -2 -1 0 -3 -4 -2 0 0 -1 -2], [0 0 0 0 0 0 1 1 0 -1 0 -1 -1 -1 0 1 1 0 -1 -1 -1 0 0 0 0 0 0 0 0 0 0 0]
ATT, 5767975, 0, 0.5153939, 0, -0.8929006, 0, 0.01014421, 0
XKF4, 5767512, 0, 0, 0, 0, 0, 0, 0.1413272, 0, 0, 0, 50, 0, 0, 0
XKF1, 5767512, 0, 0.53, -0.89, 359.99, 0.0002390556, 0.0001402446, 0.04683481, 0.03128403, 0, 0, 0.00309479, 0, 0, 0, 0
XKF2, 5767512, 0, 0, 0, 0, 0, 0, 0, 0, 0, 0, 0, 0, 0, 0, 0
XKF3, 5767512, 0, 0, 0, 0, 0, 0, 0, 0, 0, 0, 0, 0, 0, 0
XKF5, 5767512, 0, 0, 0, 0, 0, 0.05, 0.05, 0, 0, 0.5, 3.670753E-18, 0.08376376, 0.0004566706
XKFS, 5767512, 0, 0, 0, 0, 0, 0, 0, 0, 0
XKQ, 5767512, 0, 0.9993378, 0.02424013, -0.02712865, 0.0006444008
XKF4, 5767512, 1, 0, 0, 0, 0, 0, 0.1412697, 0, 0, 0, 50, 0, 0, 0
XKF1, 5767512, 1, 2.2, -0.59, 359.99, 0.0001538643, -0.0005261276, 0.02605896, 0.01196539, 0, 0, 0.001458334, 0, 0, 0, 0
XKF2, 5767512, 1, 0, 0, 0, 0, 0, 0, 0, 0, 0, 0, 0, 0, 0, 0
XKF3, 5767512, 1, 0, 0, 0, 0, 0, 0, 0, 0, 0, 0, 0, 0, 0
XKFS, 5767512, 1, 0, 0, 0, 0, 0, 0, 0, 0
XKQ, 5767512, 1, 0.9989457, 0.03880625, -0.02450766, 0.0009454893
AHR2, 5768091, 0.53, -0.89, 359.99, 0, 0, 0, 0.9999587, 0.004635468, -0.00779565, 0.0005815457
PIDS, 5768121, 0, 0, 0, 0, 0, 0, 0, 0, 0, 0, 0
PIDA, 5768125, 0, 0, 0, 0, 0, 0, 0, 0, 0, 0, 0
IMU, 5768129, 0, 0.0008295369, -0.0006844196, -0.000253467, -0.5189884, -0.4621997, -9.612641, 0, 0, 35.14493, 1, 1, 2007, 2007
IMU, 5768129, 1, 0.0008760357, -0.0001835269, -5.856775E-05, -0.4722064, -0.7630858, -9.72276, 0, 0, 31.5, 1, 1, 2017, 2010
ISBD, 5769262, 0, 6, [2 2 2 2 3 1 1 0 0 3 1 0 -2 0 2 2 2 1 0 0 0 0 0 0 -2 -1 0 0 -1 -2 -3 -1], [-2 -3 -3 -2 0 0 0 1 1 -3 -3 -2 2 0 -1 -4 -4 -2 -1 0 0 0 0 1 1 1 0 0 -1 0 1 3], [0 0 -1 -1 0 1 1 0 0 -1 0 1 3 1 -2 -2 1 0 0 0 0 0 -1 -1 0 0 0 0 0 0 0 0]
ATT, 5788177, 0, 0.5147237, 0, -0.8917209, 0, 0.00972678, 0
XKF4, 5787495, 0, 0, 0, 0, 0, 0, 0.1413281, 0, 0, 0, 50, 0, 0, 0
XKF1, 5787495, 0, 0.53, -0.89, 359.99, 0.0003128118, 2.453765E-05, 0.05475607, 0.03774561, 0, 0, 0.004304621, 0, 0, 0, 0
XKF2, 5787495, 0, 0, 0, 0, 0, 0, 0, 0, 0, 0, 0, 0, 0, 0, 0
XKF3, 5787495, 0, 0, 0, 0, 0, 0, 0, 0, 0, 0, 0, 0, 0, 0
XKF5, 5787495, 0, 0, 0, 0, 0, 0.05, 0.05, 0, 0, 0.5, 2.982806E-05, 0.08249204, 0.004513983
XKFS, 5787495, 0, 0, 0, 0, 0, 0, 0, 0, 0
XKQ, 5787495, 0, 0.9993382, 0.02423364, -0.0271186, 0.0006406003
XKF4, 5787495, 1, 0, 0, 0, 0, 0, 0.141271, 0, 0, 0, 50, 0, 0, 0
XKF1, 5787495, 1, 2.2, -0.59, 359.99, 0.0004477001, -0.0006418998, 0.03133123, 0.01601129, 0, 0, 0.002237981, 0, 0, 0, 0
XKF2, 5787495, 1, 0, 0, 0, 0, 0, 0, 0, 0, 0, 0, 0, 0, 0, 0
XKF3, 5787495, 1, 0, 0, 0, 0, 0, 0, 0, 0, 0, 0, 0, 0, 0
XKFS, 5787495, 1, 0, 0, 0, 0, 0, 0, 0, 0
XKQ, 5787495, 1, 0.9989463, 0.03879162, -0.02450724, 0.0009446556
AHR2, 5788247, 0.53, -0.89, 359.99, 0, 0, 0, 0.9999588, 0.004629046, -0.007785519, 0.000577818
PIDS, 5788252, 0, 0, 0, 0, 0, 0, 0, 0, 0, 0, 0
PIDA, 5788255, 0, 0, 0, 0, 0, 0, 0, 0, 0, 0, 0
IMU, 5788259, 0, 0.0007446589, -0.000507399, -0.0003376766, -0.5193716, -0.4670064, -9.616273, 0, 0, 35.14493, 1, 1, 2007, 2007
IMU, 5788259, 1, 0.0004942404, 0.0001619878, 8.766128E-05, -0.4712026, -0.7611829, -9.726405, 0, 0, 31.5, 1, 1, 2017, 2010
ISBD, 5789442, 0, 7, [-1 0 -1 -1 -4 0 0 -1 0 0 0 0 -1 -2 -1 0 0 0 0 -1 -3 0 1 3 0 0 -2 0 1 0 1 2], [0 0 1 0 3 2 0 0 0 1 1 0 0 1 1 1 0 0 0 0 -1 0 0 -4 -4 -1 1 0 0 -1 0 0], [2 2 0 0 -1 -1 -2 -1 0 0 1 2 2 0 -2 -2 -1 -1 -1 0 0 0 0 0 -1 -1 0 0 0 0 0 0]
DCM, 5807505, 0.5173648, -0.8933543, 0.009508722, 0.1078303, 1, 0, 0, 0
EAHR, 5807523, 0, 0, 0, 0, 0, 0, 0, 0, 0, 0
ATT, 5808408, 0, 0.5173648, 0, -0.8933543, 0, 0.009508722, 0
XKF4, 5807535, 0, 0, 0, 0, 0, 0, 0.1413255, 0, 0, 0, 50, 0, 0, 0
XKF1, 5807535, 0, 0.53, -0.89, 359.99, 0.0003695577, 0.0001354298, 0.0623124, 0.04674347, 0, 0, 0.004204601, 0, 0, 0, 0
XKF2, 5807535, 0, 0, 0, 0, 0, 0, 0, 0, 0, 0, 0, 0, 0, 0, 0
XKF3, 5807535, 0, 0, 0, 0, 0, 0, 0.05, 0, 0, 0, 0, 0, 0, 0
XKF5, 5807535, 0, 0, 0, 0, 0, 0.07, 0.05, 0, 0, 0.5, 2.879404E-05, 0.07760816, 0.02208319
XKFS, 5807535, 0, 0, 0, 0, 0, 0, 0, 0, 0
XKQ, 5807535, 0, 0.9993373, 0.02425678, -0.02713366, 0.0006388709
XKF4, 5807535, 1, 0, 0, 0, 0, 0, 0.1412664, 0, 0, 0, 50, 0, 0, 0
XKF1, 5807535, 1, 2.2, -0.59, 0, 0.0003596315, -0.0009122799, 0.0357306, 0.02209198, 0, 0, 0.001663018, 0, 0, 0, 0
XKF2, 5807535, 1, 0, 0, 0, 0, 0, 0, 0, 0, 0, 0, 0, 0, 0, 0
XKF3, 5807535, 1, 0, 0, 0, 0, 0, 0.05, 0, 0, 0, 0, 0, 0, 0
XKFS, 5807535, 1, 0, 0, 0, 0, 0, 0, 0, 0
XKQ, 5807535, 1, 0.9989465, 0.03878303, -0.02451366, 0.0009535847
AHR2, 5808528, 0.53, -0.89, 359.99, 0, 0, 0, 0.9999586, 0.004652227, -0.007800565, 0.0005762416
PIDS, 5808533, 0, 0, 0, 0, 0, 0, 0, 0, 0, 0, 0
PIDA, 5808537, 0, 0, 0, 0, 0, 0, 0, 0, 0, 0, 0
IMU, 5808541, 0, 0.0007660502, -0.0004301075, -0.000377578, -0.518691, -0.467667, -9.614246, 0, 0, 35.14493, 1, 1, 2007, 2007
IMU, 5808541, 1, 8.598703E-05, 0.0004952058, 0.0001455394, -0.4749665, -0.7654943, -9.739116, 0, 0, 31.5, 1, 1, 2017, 2010
BARO, 5808609, 0, -0.1176147, -0.1176147, 101129.9, 24.97, 0.3194633, 5808, 0, 24.9791, 1
MAG, 5808693, 0, 211, -1143, 1283, 0, 0, 0, 0, 0, 0, 1, 5808681
THR, 5808701, 0, 0, 0, NaN, -0.518691
NTUN, 5808705, 0, 0, 0, 0, 0
STER, 5808712, 0, 0, 0, NaN, 0, -0.02116828
RCIN, 5808718, 1522, 1479, 1507, 1494, 2000, 1000, 1500, 1500, 0, 0, 0, 0, 0, 0
RCI2, 5808722, 0, 0, 0, 1
RCOU, 5808728, 1496, 1500, 1500, 0, 0, 0, 0, 0, 0, 0, 0, 0, 0, 0
RCO2, 5808731, 0, 0, 0, 0
VIBE, 5808735, 0, 0.008419386, 0.009496139, 0.01158717, 0
VIBE, 5808735, 1, 0.05826111, 0.03828497, 0.06897056, 0
POWR, 5808806, 5.121002, 5.857802, 1, 1, 6
MCU, 5808806, 24.73259, 3.365743, 3.354931, 3.374924
BAT, 5808819, 0, 24.00848, 24.77855, 0.286746, 0.1917239, 0.004603838, 0, 2.68557, 255, 0, 0
ISBD, 5809861, 0, 8, [1 2 3 2 2 0 1 2 4 5 3 0 0 -1 3 3 3 3 1 2 3 3 4 2 0 1 0 1 2 2 2 1], [0 0 0 -1 0 0 0 0 -1 -4 -4 -3 -2 0 -2 -1 -5 -4 -4 -2 0 -1 -2 -2 -2 -1 -1 -3 -4 -3 -3 -1], [0 -1 0 0 -1 0 0 0 0 1 0 0 0 0 -1 0 0 -1 0 2 2 1 0 0 0 0 0 0 -1 -2 0 0]
ATT, 5828005, 0, 0.5167922, 0, -0.8927584, 0, 0.009524298, 0
XKF4, 5827536, 0, 0, 0, 0, 0, 0, 0.1413258, 0, 0, 0, 50, 0, 0, 0
XKF1, 5827536, 0, 0.53, -0.89, 359.99, 0.0003143622, 0.000112895, 0.06969801, 0.04228462, 0, 0, 0.004406834, 0, 0, 0, 0
XKF2, 5827536, 0, 0, 0, 0, 0, 0, 0, 0, 0, 0, 0, 0, 0, 0, 0
XKF3, 5827536, 0, 0, 0, 0, 0, 0, 0.05, 0, 0, 0, 0, 0, 0, 0
XKF5, 5827536, 0, 0, 0, 0, 0, 0.07, 0.05, 0, 0, 0.5, 2.782363E-05, 0.07326345, 0.01892328
XKFS, 5827536, 0, 0, 0, 0, 0, 0, 0, 0, 0
XKQ, 5827536, 0, 0.9993375, 0.02425187, -0.02712925, 0.0006390397
XKF4, 5827536, 1, 0, 0, 0, 0, 0, 0.1412667, 0, 0, 0, 50, 0, 0, 0
XKF1, 5827536, 1, 2.19, -0.59, 0, 0.0001103865, -0.00079735, 0.04082493, 0.01493249, 0, 0, 0.00136042, 0, 0, 0, 0
XKF2, 5827536, 1, 0, 0, 0, 0, 0, 0, 0, 0, 0, 0, 0, 0, 0, 0
XKF3, 5827536, 1, 0, 0, 0, 0, 0, 0.05, 0, 0, 0, 0, 0, 0, 0
XKFS, 5827536, 1, 0, 0, 0, 0, 0, 0, 0, 0
XKQ, 5827536, 1, 0.9989482, 0.03875316, -0.02449102, 0.0009615396
AHR2, 5828127, 0.53, -0.89, 359.99, 0, 0, 0, 0.9999586, 0.004647313, -0.007796152, 0.000576402
PIDS, 5828132, 0, 0, 0, 0, 0, 0, 0, 0, 0, 0, 0
PIDA, 5828135, 0, 0, 0, 0, 0, 0, 0, 0, 0, 0, 0
IMU, 5828139, 0, 0.0008078463, -0.0004145603, -0.0003513297, -0.5233865, -0.4664502, -9.616182, 0, 0, 35.14493, 1, 1, 2006, 2006
IMU, 5828139, 1, -0.0002794447, 0.0006525745, 0.0001324642, -0.486304, -0.7594061, -9.737597, 0, 0, 31.5, 1, 1, 2016, 2010
ISBD, 5829341, 0, 9, [1 2 2 0 0 0 3 1 2 0 0 1 0 0 0 0 0 1 0 -1 0 -1 -1 -2 0 0 0 1 0 -1 -4 0], [-1 -3 -2 -2 0 2 1 0 -4 0 0 0 0 0 0 0 2 1 0 -1 0 0 -1 0 0 2 1 0 -2 0 4 1], [-1 -2 -1 0 0 0 0 0 0 1 0 1 0 0 0 0 0 -2 -3 -1 0 0 0 0 -2 -2 0 1 0 0 -2 0]
FMT, 252, 28, HEAT, Qfbfff, TimeUS,Temp,Targ,P,I,Out
HEAT, 5847479, 35.14493, 45, 492.7536, 3.877747, 100
ATT, 5848162, 0, 0.5193441, 0, -0.8937536, 0, 0.009172284, 0
XKF4, 5847581, 0, 0, 0, 0, 0, 0, 0.1413265, 0, 0, 0, 50, 0, 0, 0
XKF1, 5847581, 0, 0.53, -0.89, 359.99, 0.0003473373, 0.0001411986, 0.07722937, 0.03742572, 0, 0, 0.004942723, 0, 0, 0, 0
XKF2, 5847581, 0, 0, 0, 0, 0, 0, 0, 0, 0, 0, 0, 0, 0, 0, 0
XKF3, 5847581, 0, 0, 0, 0, 0, 0, 0.05, 0, 0, 0, 0, 0, 0, 0
XKF5, 5847581, 0, 0, 0, 0, 0, 0.07, 0.05, 0, 0, 0.5, 2.686956E-05, 0.0690919, 0.01590324
XKFS, 5847581, 0, 0, 0, 0, 0, 0, 0, 0, 0
XKQ, 5847581, 0, 0.9993367, 0.02427408, -0.02713879, 0.0006360215
XKF4, 5847581, 1, 0, 0, 0, 0, 0, 0.1412672, 0, 0, 0, 50, 0, 0, 0
XKF1, 5847581, 1, 2.19, -0.59, 0, -3.69453E-05, -0.0005905119, 0.04530387, 0.007584533, 0, 0, 0.001286098, 0, 0, 0, 0
XKF2, 5847581, 1, 0, 0, 0, 0, 0, 0, 0, 0, 0, 0, 0, 0, 0, 0
XKF3, 5847581, 1, 0, 0, 0, 0, 0, 0.05, 0, 0, 0, 0, 0, 0, 0
XKFS, 5847581, 1, 0, 0, 0, 0, 0, 0, 0, 0
XKQ, 5847581, 1, 0.998948, 0.03874299, -0.02451105, 0.0009774421
AHR2, 5848237, 0.53, -0.89, 359.99, 0, 0, 0, 0.9999585, 0.004669585, -0.007805644, 0.0005736277
PIDS, 5848242, 0, 0, 0, 0, 0, 0, 0, 0, 0, 0, 0
PIDA, 5848246, 0, 0, 0, 0, 0, 0, 0, 0, 0, 0, 0
IMU, 5848250, 0, 0.0008047773, -0.0003332318, -0.0002840699, -0.5229548, -0.4655848, -9.609681, 0, 0, 35.14493, 1, 1, 2006, 2006
IMU, 5848250, 1, -0.0009216818, 0.0005941361, 0.0004166317, -0.4898948, -0.7512882, -9.727735, 0, 0, 31.5, 1, 1, 2016, 2010
ISBD, 5849480, 0, 10, [0 -1 -2 -2 -2 -1 -2 -3 -1 0 0 0 0 1 3 0 2 1 3 1 0 0 -2 0 0 1 2 1 2 2 1 2], [0 -1 0 0 1 1 0 1 0 0 0 1 0 -4 -3 0 0 0 -3 -2 -4 1 2 0 -2 -3 -3 -3 -2 -1 -1 0], [0 0 0 0 -1 0 0 0 0 0 -1 -1 0 0 0 0 -1 -2 0 0 -1 0 1 0 0 1 0 0 -1 -1 0 0]
ATT, 5868016, 0, 0.5196148, 0, -0.8940639, 0, 0.009069898, 0
XKF4, 5867514, 0, 0, 0, 0, 0, 0, 0.1413271, 0, 0, 0, 50, 0, 0, 0
XKF1, 5867514, 0, 0.53, -0.89, 359.99, 0.0003309767, 0.0001399804, 0.08438433, 0.03608042, 0, 0, 0.005770791, 0, 0, 0, 0
XKF2, 5867514, 0, 0, 0, 0, 0, 0, 0, 0, 0, 0, 0, 0, 0, 0, 0
XKF3, 5867514, 0, 0, 0, 0, 0, 0, 0.05, 0, 0, 0, 0, 0, 0, 0
XKF5, 5867514, 0, 0, 0, 0, 0, 0.07, 0.05, 0, 0, 0.5, 2.59618E-05, 0.06508797, 0.0130809
XKFS, 5867514, 0, 0, 0, 0, 0, 0, 0, 0, 0
XKQ, 5867514, 0, 0.9993365, 0.02427641, -0.0271423, 0.0006352687
XKF4, 5867514, 1, 0, 0, 0, 0, 0, 0.1412678, 0, 0, 0, 50, 0, 0, 0
XKF1, 5867514, 1, 2.2, -0.59, 0, -0.0002995557, -0.0006425355, 0.04974503, 0.003641169, 0, 0, 0.001444438, 0, 0, 0, 0
XKF2, 5867514, 1, 0, 0, 0, 0, 0, 0, 0, 0, 0, 0, 0, 0, 0, 0
XKF3, 5867514, 1, 0, 0, 0, 0, 0, 0.05, 0, 0, 0, 0, 0, 0, 0
XKFS, 5867514, 1, 0, 0, 0, 0, 0, 0, 0, 0
XKQ, 5867514, 1, 0.9989464, 0.0387803, -0.02452161, 0.0009763721
AHR2, 5868168, 0.53, -0.89, 359.99, 0, 0, 0, 0.9999584, 0.004671932, -0.007809147, 0.0005728513
PIDS, 5868173, 0, 0, 0, 0, 0, 0, 0, 0, 0, 0, 0
PIDA, 5868177, 0, 0, 0, 0, 0, 0, 0, 0, 0, 0, 0
IMU, 5868181, 0, 0.0009172816, -0.0003922411, -0.0002111356, -0.5229713, -0.4675786, -9.611934, 0, 0, 35.14493, 1, 1, 2006, 2006
IMU, 5868181, 1, -0.0005627745, -5.259269E-05, 0.0004843604, -0.4882908, -0.7527265, -9.731506, 0, 0, 31.5, 1, 1, 2016, 2010
ISBD, 5869316, 0, 11, [3 4 4 3 3 2 3 2 4 4 2 0 0 0 0 3 4 4 1 1 2 2 2 2 1 2 1 0 1 1 2 1], [-2 -3 -4 -8 -6 -2 -2 0 -3 -1 -4 -2 -2 -4 -2 -2 -2 -2 -2 -3 -4 -4 -2 -1 -1 -3 -3 0 0 1 -2 -2], [-1 -2 -1 0 0 0 -1 -2 0 0 -1 0 1 1 1 0 -1 -1 0 0 0 0 -2 -3 -2 0 1 0 0 0 0 0]
ATT, 5888012, 0, 0.5206783, 0, -0.8950005, 0, 0.008156572, 0
XKF4, 5887497, 0, 0, 0, 0, 0, 0, 0.1413275, 0, 0, 0, 50, 0, 0, 0
XKF1, 5887497, 0, 0.53, -0.89, 359.99, 0.0003902355, 0.0001112515, 0.09166715, 0.03906559, 0, 0, 0.006833082, 0, 0, 0, 0
XKF2, 5887497, 0, 0, 0, 0, 0, 0, 0, 0, 0, 0, 0, 0, 0, 0, 0
XKF3, 5887497, 0, 0, 0, 0, 0, 0, 0.05, 0, 0, 0, 0, 0, 0, 0
XKF5, 5887497, 0, 0, 0, 0, 0, 0.06, 0.05, 0, 0, 0.5, 2.514689E-05, 0.06124777, 0.01055429
XKFS, 5887497, 0, 0, 0, 0, 0, 0, 0, 0, 0
XKQ, 5887497, 0, 0.9993361, 0.02428542, -0.02715144, 0.0006274954
XKF4, 5887497, 1, 0, 0, 0, 0, 0, 0.1412684, 0, 0, 0, 50, 0, 0, 0
XKF1, 5887497, 1, 2.19, -0.59, 0, -4.450261E-05, -0.0007069024, 0.05412959, 0.003618301, 0, 0, 0.001829291, 0, 0, 0, 0
XKF2, 5887497, 1, 0, 0, 0, 0, 0, 0, 0, 0, 0, 0, 0, 0, 0, 0
XKF3, 5887497, 1, 0, 0, 0, 0, 0, 0.05, 0, 0, 0, 0, 0, 0, 0
XKFS, 5887497, 1, 0, 0, 0, 0, 0, 0, 0, 0
XKQ, 5887497, 1, 0.9989473, 0.03876413, -0.02451109, 0.0009638414
AHR2, 5888155, 0.53, -0.89, 359.99, 0, 0, 0, 0.9999583, 0.004681105, -0.00781814, 0.0005650764
PIDS, 5888160, 0, 0, 0, 0, 0, 0, 0, 0, 0, 0, 0
PIDA, 5888164, 0, 0, 0, 0, 0, 0, 0, 0, 0, 0, 0
IMU, 5888168, 0, 0.0007572814, -0.0003690384, -0.0002535186, -0.5225278, -0.4689862, -9.607282, 0, 0, 35.14493, 1, 1, 2006, 2006
IMU, 5888168, 1, -0.0005003452, -0.000267341, 0.0003871892, -0.4826503, -0.7591907, -9.728947, 0, 0, 31.5, 1, 1, 2016, 2010
ISBD, 5889306, 0, 12, [0 0 -1 0 0 -1 -2 -1 1 2 0 0 0 -1 0 0 -1 0 0 -1 -2 -2 1 0 0 0 -2 -2 0 -1 -2 -2], [-4 0 2 1 0 0 0 0 -1 -2 0 0 0 1 0 2 4 0 -1 -1 4 3 3 2 0 0 0 1 0 0 0 -1], [0 -1 -1 0 0 0 1 2 2 0 0 1 0 0 -1 -1 0 0 0 0 0 1 1 2 1 0 1 1 0 0 0 -1]
DCM, 5907524, 0.5223835, -0.8961112, 0.008037294, 0.1078303, 1, 0, 0, 0
EAHR, 5907541, 0, 0, 0, 0, 0, 0, 0, 0, 0, 0
ATT, 5908453, 0, 0.5223835, 0, -0.8961112, 0, 0.008037294, 0
XKF4, 5907577, 0, 0, 0, 0.01, 0, 0, 0.1413282, 0, 0, 0, 50, 0, 0, 0
XKF1, 5907577, 0, 0.54, -0.89, 359.99, 0.0003794626, 6.458671E-05, 0.09851898, 0.04468206, 0, 0, 0.01058006, 0, 0, 0, 0
XKF2, 5907577, 0, 0, 0, 0, 0, 0, 0, 0, 0, 0, 0, 0, 0, 0, 0
XKF3, 5907577, 0, 0, 0, 0, 0, 0, -0.12, 0, 0, 0, 0, 0, 0, 0
XKF5, 5907577, 0, 0, 0, 0, 0, 0.02, 0.05, 0, 0, 0.5, 2.429479E-05, 0.05909962, 0.034583
XKFS, 5907577, 0, 0, 0, 0, 0, 0, 0, 0, 0
XKQ, 5907577, 0, 0.9993355, 0.02430018, -0.02716194, 0.0006266203
XKF4, 5907577, 1, 0, 0, 0.01, 0, 0, 0.141269, 0, 0, 0, 50, 0, 0, 0
XKF1, 5907577, 1, 2.2, -0.59, 0, -3.713421E-05, -0.000546272, 0.05831534, 0.006868158, 0, 0, 0.004907897, 0, 0, 0, 0
XKF2, 5907577, 1, 0, 0, 0, 0, 0, 0, 0, 0, 0, 0, 0, 0, 0, 0
XKF3, 5907577, 1, 0, 0, 0, 0, 0, -0.12, 0, 0, 0, 0, 0, 0, 0
XKFS, 5907577, 1, 0, 0, 0, 0, 0, 0, 0, 0
XKQ, 5907577, 1, 0.9989455, 0.03879806, -0.02452669, 0.0009628942
AHR2, 5908524, 0.54, -0.89, 359.99, 0, 0, 0, 0.9999582, 0.004695887, -0.007828625, 0.0005642815
PIDS, 5908529, 0, 0, 0, 0, 0, 0, 0, 0, 0, 0, 0
PIDA, 5908547, 0, 0, 0, 0, 0, 0, 0, 0, 0, 0, 0
IMU, 5908563, 0, 0.0009079258, -0.0005821635, -0.0002881014, -0.5214794, -0.4691885, -9.605753, 0, 0, 35.14493, 1, 1, 2006, 2006
IMU, 5908563, 1, 0.000114165, -0.0004101078, 0.000111772, -0.4745149, -0.754959, -9.734366, 0, 0, 31.5, 1, 1, 2016, 2010
BARO, 5908655, 0, 0.01764297, 0.01764297, 101128.3, 24.97, -0.01476816, 5908, 0, 24.9791, 1
MAG, 5908673, 0, 213, -1143, 1291, 0, 0, 0, 0, 0, 0, 1, 5908671
THR, 5908680, 0, 0, 0, NaN, -0.5214794
NTUN, 5908684, 0, 0, 0, 0, 0
STER, 5908690, 0, 0, 0, NaN, 0, -0.01599479
RCIN, 5908697, 1522, 1479, 1507, 1494, 2000, 1000, 1500, 1500, 0, 0, 0, 0, 0, 0
RCI2, 5908700, 0, 0, 0, 1
RCOU, 5908732, 1496, 1500, 1500, 0, 0, 0, 0, 0, 0, 0, 0, 0, 0, 0
RCO2, 5908735, 0, 0, 0, 0
VIBE, 5908769, 0, 0.008253748, 0.009736635, 0.01346622, 0
VIBE, 5908769, 1, 0.05402532, 0.03717094, 0.06922726, 0
POWR, 5908854, 5.126742, 5.857802, 1, 1, 6
MCU, 5908854, 24.77296, 3.365743, 3.353532, 3.375774
BAT, 5908867, 0, 24.0082, 24.78358, 0.2852812, 0.1996528, 0.004794197, 0, 2.717947, 255, 0, 0
ISBD, 5909902, 0, 13, [0 0 0 -1 -1 0 0 0 0 2 3 0 -1 -2 0 0 1 3 1 2 3 1 1 1 1 2 2 3 2 2 1 2], [0 0 0 0 0 -1 -1 0 0 0 0 -2 -1 1 1 2 -1 -3 -2 -1 0 0 0 0 -1 -3 -2 -1 -1 -4 -2 -2], [-2 -1 0 0 0 0 1 1 0 0 0 0 0 0 0 0 1 0 0 0 0 -1 -1 0 1 1 1 1 0 0 0 1]
ATT, 5928023, 0, 0.5221548, 0, -0.8963454, 0, 0.007599053, 0
XKF4, 5927512, 0, 0, 0, 0.01, 0, 0, 0.1413111, 0, 0, 0, 50, 0, 0, 0
XKF1, 5927512, 0, 0.53, -0.89, 359.99, 0.0004855458, 7.155376E-05, 0.1055338, 0.07808893, 0, 0, 0.01453037, 0, 0, 0, 0
XKF2, 5927512, 0, 0, 0, 0, 0, 0, 0, 0, 0, 0, 0, 0, 0, 0, 0
XKF3, 5927512, 0, 0, 0, 0, 0, 0, -0.12, 0, 0, 0, 0, 0, 0, 0
XKF5, 5927512, 0, 0, 0, 0, 0, 0.05, 0.08, 0, 0, 0.5, 2.355545E-05, 0.05549325, 0.03440708
XKFS, 5927512, 0, 0, 0, 0, 0, 0, 0, 0, 0
XKQ, 5927512, 0, 0.9993354, 0.02429794, -0.02716486, 0.0006229763
XKF4, 5927512, 1, 0, 0, 0.01, 0, 0, 0.1412506, 0, 0, 0, 50, 0, 0, 0
XKF1, 5927512, 1, 2.2, -0.59, 0, -6.847071E-05, -0.0006059884, 0.06201892, 0.03755633, 0, 0, 0.008051736, 0, 0, 0, 0
XKF2, 5927512, 1, 0, 0, 0, 0, 0, 0, 0, 0, 0, 0, 0, 0, 0, 0
XKF3, 5927512, 1, 0, 0, 0, 0, 0, -0.12, 0, 0, 0, 0, 0, 0, 0
XKFS, 5927512, 1, 0, 0, 0, 0, 0, 0, 0, 0
XKQ, 5927512, 1, 0.998947, 0.03878386, -0.02449223, 0.000963375
AHR2, 5928166, 0.53, -0.89, 359.99, 0, 0, 0, 0.9999582, 0.004693718, -0.007831471, 0.0005605383
PIDS, 5928171, 0, 0, 0, 0, 0, 0, 0, 0, 0, 0, 0
PIDA, 5928175, 0, 0, 0, 0, 0, 0, 0, 0, 0, 0, 0
IMU, 5928179, 0, 0.0007982891, -0.0005651963, -0.0003051021, -0.5217956, -0.4680763, -9.608562, 0, 0, 35.62802, 1, 1, 2006, 2006
IMU, 5928179, 1, 0.0004428938, 4.405142E-05, -3.431856E-05, -0.4790599, -0.7547511, -9.743374, 0, 0, 31.5, 1, 1, 2016, 2010
ISBD, 5929407, 0, 14, [5 3 4 2 3 2 2 4 3 2 3 4 2 2 2 2 1 2 2 2 2 1 0 0 0 1 3 2 1 1 1 0], [-3 -5 -4 -3 -1 0 -1 -1 -1 0 -2 -3 -1 -1 -2 -2 0 -1 -1 0 -1 -4 -2 0 3 -1 -2 -3 -1 0 0 0], [0 1 1 -1 -2 -1 0 -2 0 0 0 -2 -3 -1 0 0 1 1 1 1 0 0 0 0 0 -1 -1 0 0 0 0 1]
ATT, 5948258, 0, 0.5247232, 0, -0.8980821, 0, 0.007775865, 0
XKF4, 5947530, 0, 0, 0, 0.01, 0, 0, 0.1413118, 0, 0, 0, 50, 0, 0, 0
XKF1, 5947530, 0, 0.54, -0.89, 359.99, 0.0004626697, 8.962269E-05, 0.1122381, 0.1154037, 0, 0, 0.01862964, 0, 0, 0, 0
XKF2, 5947530, 0, 0, 0, 0, 0, 0, 0, 0, 0, 0, 0, 0, 0, 0, 0
XKF3, 5947530, 0, 0, 0, 0, 0, 0, -0.12, 0, 0, 0, 0, 0, 0, 0
XKF5, 5947530, 0, 0, 0, 0, 0, 0.05, 0.08, 0, 0, 0.5, 2.288459E-05, 0.05204131, 0.03412356
XKFS, 5947530, 0, 0, 0, 0, 0, 0, 0, 0, 0
XKQ, 5947530, 0, 0.9993345, 0.02432019, -0.02718075, 0.0006247309
XKF4, 5947530, 1, 0, 0, 0.01, 0, 0, 0.1412513, 0, 0, 0, 50, 0, 0, 0
XKF1, 5947530, 1, 2.2, -0.59, 0, -0.0004573232, -0.000527537, 0.06599283, 0.07336566, 0, 0, 0.01131356, 0, 0, 0, 0
XKF2, 5947530, 1, 0, 0, 0, 0, 0, 0, 0, 0, 0, 0, 0, 0, 0, 0
XKF3, 5947530, 1, 0, 0, 0, 0, 0, -0.12, 0, 0, 0, 0, 0, 0, 0
XKFS, 5947530, 1, 0, 0, 0, 0, 0, 0, 0, 0
XKQ, 5947530, 1, 0.9989462, 0.0388033, -0.02448957, 0.0009679401
AHR2, 5948378, 0.54, -0.89, 359.99, 0, 0, 0, 0.9999579, 0.004715945, -0.007847408, 0.0005624113
PIDS, 5948386, 0, 0, 0, 0, 0, 0, 0, 0, 0, 0, 0
PIDA, 5948390, 0, 0, 0, 0, 0, 0, 0, 0, 0, 0, 0
IMU, 5948394, 0, 0.0008621274, -0.0006715112, -0.0002869854, -0.5214028, -0.4685256, -9.60674, 0, 0, 35.14493, 1, 1, 2006, 2006
IMU, 5948394, 1, 0.0007186744, 0.0004142935, -0.0001139649, -0.4896776, -0.7558222, -9.737562, 0, 0, 31.5, 1, 1, 2016, 2010
ISBD, 5949543, 0, 15, [-1 0 0 0 0 0 -1 -1 0 0 0 0 0 -2 -2 0 0 0 -1 -2 -2 -1 0 0 0 -1 0 1 0 0 0 -2], [0 0 0 0 0 0 1 2 2 2 1 -1 0 2 5 2 1 -3 -3 0 1 1 1 0 1 2 1 0 0 0 0 2], [2 0 -1 0 1 1 1 1 0 0 0 0 1 1 0 -2 0 0 -1 -1 0 0 0 2 2 0 0 -1 0 1 1 1]
ATT, 5968023, 0, 0.5239328, 0, -0.8972443, 0, 0.008218381, 0
XKF4, 5967513, 0, 0, 0, 0.01, 0, 0, 0.1413091, 0, 0, 0, 50, 0, 0, 0
XKF1, 5967513, 0, 0.54, -0.89, 359.99, 0.0004507706, 8.523196E-05, 0.1187922, 0.1487112, 0, 0, 0.02280663, 0, 0, 0, 0
XKF2, 5967513, 0, 0, 0, 0, 0, 0, 0, 0, 0, 0, 0, 0, 0, 0, 0
XKF3, 5967513, 0, 0, 0, 0, 0, 0, -0.12, 0, 0, 0, 0, 0, 0, 0
XKF5, 5967513, 0, 0, 0, 0, 0, 0.05, 0.09, 0, 0, 0.5, 2.0621E-05, 0.04873942, 0.03369932
XKFS, 5967513, 0, 0, 0, 0, 0, 0, 0, 0, 0
XKQ, 5967513, 0, 0.9993348, 0.02431319, -0.02717413, 0.0006286018
XKF4, 5967513, 1, 0, 0, 0.01, 0, 0, 0.141247, 0, 0, 0, 50, 0, 0, 0
XKF1, 5967513, 1, 2.2, -0.59, 0, -0.0002076492, -0.0004640766, 0.06999208, 0.1042734, 0, 0, 0.01462513, 0, 0, 0, 0
XKF2, 5967513, 1, 0, 0, 0, 0, 0, 0, 0, 0, 0, 0, 0, 0, 0, 0
XKF3, 5967513, 1, 0, 0, 0, 0, 0, -0.12, 0, 0, 0, 0, 0, 0, 0
XKFS, 5967513, 1, 0, 0, 0, 0, 0, 0, 0, 0
XKQ, 5967513, 1, 0.9989446, 0.03883053, -0.02451568, 0.0009653679
AHR2, 5968162, 0.54, -0.89, 359.99, 0, 0, 0, 0.999958, 0.004708859, -0.007840866, 0.0005662749
PIDS, 5968166, 0, 0, 0, 0, 0, 0, 0, 0, 0, 0, 0
PIDA, 5968170, 0, 0, 0, 0, 0, 0, 0, 0, 0, 0, 0
IMU, 5968174, 0, 0.0008132027, -0.0006365041, -0.0001921519, -0.523773, -0.467255, -9.609823, 0, 0, 35.62802, 1, 1, 2006, 2006
IMU, 5968174, 1, 0.001068841, 0.0003180138, 2.394575E-06, -0.4831493, -0.7520971, -9.722149, 0, 0, 31.5, 1, 1, 2016, 2010
ISBD, 5969309, 0, 16, [-2 0 1 3 0 1 0 1 0 0 0 1 0 0 1 1 1 1 1 1 2 2 0 0 4 4 3 3 1 3 1 1], [2 2 -1 -3 -1 1 2 1 0 -1 -1 0 0 -1 0 -1 0 -1 -1 -1 -1 -4 -4 0 -1 -2 -5 -4 -3 0 -1 -1], [1 0 0 0 0 0 0 2 1 1 0 0 -1 0 0 -1 0 1 1 0 1 0 0 0 0 0 0 -1 0 0 -1 -1]
ATT, 5988022, 0, 0.5261654, 0, -0.8985164, 0, 0.00826329, 0
XKF4, 5987496, 0, 0, 0, 0.01, 0, 0, 0.1413098, 0, 0, 0, 50, 0, 0, 0
XKF1, 5987496, 0, 0.54, -0.89, 359.99, 0.000500751, 0.000223262, 0.1251194, 0.1778819, 0, 0, 0.02710564, 0, 0, 0, 0
XKF2, 5987496, 0, 0, 0, 0, 0, 0, 0, 0, 0, 0, 0, 0, 0, 0, 0
XKF3, 5987496, 0, 0, 0, 0, 0, 0, -0.12, 0, 0, 0, 0, 0, 0, 0
XKF5, 5987496, 0, 0, 0, 0, 0, 0.05, 0.09, 0, 0, 0.5, 1.857719E-05, 0.04558558, 0.03318998
XKFS, 5987496, 0, 0, 0, 0, 0, 0, 0, 0, 0
XKQ, 5987496, 0, 0.999334, 0.02433233, -0.02718607, 0.0006291436
XKF4, 5987496, 1, 0, 0, 0.01, 0, 0, 0.1412479, 0, 0, 0, 50, 0, 0, 0
XKF1, 5987496, 1, 2.2, -0.59, 0, -0.0004736962, -0.0004177492, 0.07371239, 0.130532, 0, 0, 0.01801225, 0, 0, 0, 0
XKF2, 5987496, 1, 0, 0, 0, 0, 0, 0, 0, 0, 0, 0, 0, 0, 0, 0
XKF3, 5987496, 1, 0, 0, 0, 0, 0, -0.12, 0, 0, 0, 0, 0, 0, 0
XKFS, 5987496, 1, 0, 0, 0, 0, 0, 0, 0, 0
XKQ, 5987496, 1, 0.998943, 0.03886124, -0.02452769, 0.0009793431
AHR2, 5988092, 0.54, -0.89, 359.99, 0, 0, 0, 0.9999579, 0.004728001, -0.007852829, 0.0005669527
PIDS, 5988097, 0, 0, 0, 0, 0, 0, 0, 0, 0, 0, 0
PIDA, 5988101, 0, 0, 0, 0, 0, 0, 0, 0, 0, 0, 0
IMU, 5988105, 0, 0.0007954504, -0.000622568, -6.998746E-05, -0.5222014, -0.4652471, -9.608135, 0, 0, 35.62802, 1, 1, 2006, 2006
IMU, 5988105, 1, 0.001526237, -0.0001724493, 0.0001535194, -0.4833619, -0.7535428, -9.724819, 0, 0, 31.5, 1, 1, 2016, 2010
ISBD, 5989340, 0, 17, [2 2 4 3 1 1 1 3 3 2 0 0 0 -1 2 3 2 0 0 1 0 0 1 0 0 -1 0 1 1 -1 -1 -1], [0 -1 -3 -4 -3 -2 -2 -2 -2 -2 -1 -2 0 2 -1 -1 -3 -2 -1 -1 0 -1 0 0 0 0 0 0 0 0 0 1], [0 0 0 0 0 1 1 0 0 0 -1 -2 -2 -1 0 0 0 0 0 0 0 0 1 1 0 0 -1 -3 -2 -1 -1 -1]
DCM, 6007526, 0.5259337, -0.8982334, 0.009068938, 0.08632858, 1, 0, 0, 0
EAHR, 6007544, 0, 0, 0, 0, 0, 0, 0, 0, 0, 0
ATT, 6008453, 0, 0.5259337, 0, -0.8982334, 0, 0.009068938, 0
XKF4, 6007579, 0, 0, 0, 0, 0, 0, 0.1413103, 0, 0, 0, 50, 0, 0, 0
XKF1, 6007579, 0, 0.54, -0.89, 359.99, 0.0004846796, 0.0002472434, 0.131315, 0.2031493, 0, 0, 0.03063995, 0, 0, 0, 0
XKF2, 6007579, 0, 0, 0, 0, 0, 0, 0, 0, 0, 0, 0, 0, 0, 0, 0
XKF3, 6007579, 0, 0, 0, 0, 0, 0, 0.06, 0, 0, 0, 0, 0, 0, 0
XKF5, 6007579, 0, 0, 0, 0, 0, 0.06, 0.09, 0, 0, 0.5, 1.648095E-05, 0.04143138, 0.01656205
XKFS, 6007579, 0, 0, 0, 0, 0, 0, 0, 0, 0
XKQ, 6007579, 0, 0.9993341, 0.02433006, -0.02718426, 0.000636238
XKF4, 6007579, 1, 0, 0, 0, 0, 0, 0.1412485, 0, 0, 0, 50, 0, 0, 0
XKF1, 6007579, 1, 2.2, -0.59, 0, -0.0003884616, -0.0003459914, 0.07700077, 0.1523836, 0, 0, 0.02059577, 0, 0, 0, 0
XKF2, 6007579, 1, 0, 0, 0, 0, 0, 0, 0, 0, 0, 0, 0, 0, 0, 0
XKF3, 6007579, 1, 0, 0, 0, 0, 0, 0.06, 0, 0, 0, 0, 0, 0, 0
XKFS, 6007579, 1, 0, 0, 0, 0, 0, 0, 0, 0
XKQ, 6007579, 1, 0.9989442, 0.03883642, -0.02452269, 0.0009829591
AHR2, 6008524, 0.54, -0.89, 359.99, 0, 0, 0, 0.9999578, 0.004725599, -0.007851156, 0.0005740362
PIDS, 6008529, 0, 0, 0, 0, 0, 0, 0, 0, 0, 0, 0
PIDA, 6008533, 0, 0, 0, 0, 0, 0, 0, 0, 0, 0, 0
IMU, 6008551, 0, 0.000803078, -0.0005650818, 6.129161E-05, -0.5236635, -0.464725, -9.612231, 0, 0, 35.14493, 1, 1, 2006, 2006
IMU, 6008551, 1, 0.001563463, -0.0002954811, 0.0002135042, -0.4815316, -0.7567539, -9.731214, 0, 0, 31.5, 1, 1, 2016, 2010
BARO, 6008669, 0, 0.06468964, 0.06468964, 101127.7, 24.97, -0.2600956, 6008, 0, 24.9791, 1
MAG, 6008685, 0, 212, -1143, 1296, 0, 0, 0, 0, 0, 0, 1, 6008683
THR, 6008692, 0, 0, 0, NaN, -0.5236635
NTUN, 6008696, 0, 0, 0, 0, 0
STER, 6008702, 0, 0, 0, NaN, 0, 0.003935338
RCIN, 6008708, 1522, 1479, 1507, 1494, 2000, 1000, 1500, 1500, 0, 0, 0, 0, 0, 0
RCI2, 6008737, 0, 0, 0, 1
RCOU, 6008772, 1496, 1500, 1500, 0, 0, 0, 0, 0, 0, 0, 0, 0, 0, 0
RCO2, 6008786, 0, 0, 0, 0
VIBE, 6008790, 0, 0.008297974, 0.008428502, 0.0126151, 0
VIBE, 6008790, 1, 0.05609399, 0.03523379, 0.06804135, 0
POWR, 6008858, 5.126843, 5.860219, 1, 1, 6
MCU, 6008858, 24.77296, 3.365602, 3.356331, 3.376483
BAT, 6008871, 0, 24.00875, 24.80127, 0.2885771, 0.2076698, 0.004986675, 0, 2.746286, 255, 0, 0
ISBD, 6009936, 0, 18, [-2 -1 0 -2 -1 0 0 -1 -4 -2 -4 -2 -1 0 0 1 0 -1 -1 -1 -2 -1 0 0 1 -1 -1 0 3 0 0 0], [0 -1 -2 2 1 1 -1 1 3 3 4 1 0 1 2 0 0 -1 -1 0 1 1 -1 -4 -3 0 2 4 -2 -2 -4 0], [0 1 0 0 1 0 0 1 0 0 1 0 -1 0 1 0 0 0 0 0 0 0 0 0 0 0 0 -1 -1 1 2 0]
ATT, 6028028, 0, 0.5281999, 0, -0.8994594, 0, 0.008724116, 0
XKF4, 6027512, 0, 0, 0, 0, 0, 0, 0.1411816, 0, 0, 0, 50, 0, 0, 0
XKF1, 6027512, 0, 0.54, -0.9, 359.99, 0.0005679126, 0.0002328284, 0.1374903, 0.2138014, 0, 0, 0.03432987, 0, 0, 0, 0
XKF2, 6027512, 0, 0, 0, 0, 0, 0, 0, 0, 0, 0, 0, 0, 0, 0, 0
XKF3, 6027512, 0, 0, 0, 0, 0, 0, 0.06, 0, 0, 0, 0, 0, 0, 0
XKF5, 6027512, 0, 0, 0, 0, 0, 0.06, 0.09, 0, 0, 0.5, 1.513013E-05, 0.0386242, 0.01686058
XKFS, 6027512, 0, 0, 0, 0, 0, 0, 0, 0, 0
XKQ, 6027512, 0, 0.9993333, 0.02434922, -0.0271958, 0.0006333611
XKF4, 6027512, 1, 0, 0, 0, 0, 0, 0.141109, 0, 0, 0, 50, 0, 0, 0
XKF1, 6027512, 1, 2.2, -0.59, 0, -0.0003713187, -0.000294181, 0.08014642, 0.1594837, 0, 0, 0.0232331, 0, 0, 0, 0
XKF2, 6027512, 1, 0, 0, 0, 0, 0, 0, 0, 0, 0, 0, 0, 0, 0, 0
XKF3, 6027512, 1, 0, 0, 0, 0, 0, 0.06, 0, 0, 0, 0, 0, 0, 0
XKFS, 6027512, 1, 0, 0, 0, 0, 0, 0, 0, 0
XKQ, 6027512, 1, 0.998944, 0.03882165, -0.02454916, 0.0009782794
AHR2, 6028168, 0.54, -0.9, 359.99, 0, 0, 0, 0.9999576, 0.004744814, -0.00786265, 0.0005713049
PIDS, 6028173, 0, 0, 0, 0, 0, 0, 0, 0, 0, 0, 0
PIDA, 6028176, 0, 0, 0, 0, 0, 0, 0, 0, 0, 0, 0
IMU, 6028180, 0, 0.0007674525, -0.0004743132, 0.0001406686, -0.522382, -0.4661879, -9.609176, 0, 0, 35.62802, 1, 1, 2006, 2006
IMU, 6028180, 1, 0.001056649, -0.0006714446, 0.0002110682, -0.4811179, -0.7537895, -9.736298, 0, 0, 31.5, 1, 1, 2016, 2010
ISBD, 6029344, 0, 19, [-1 1 3 2 1 0 1 1 3 3 2 2 2 4 5 1 2 1 3 3 3 2 2 3 3 3 3 3 3 2 3 3], [1 0 0 -1 -1 -1 -1 0 0 0 0 -1 -3 -6 -5 -2 -1 -1 -5 -4 -5 0 0 -3 -3 -2 -2 -1 -1 -1 -1 -3], [0 0 1 0 0 0 0 0 1 1 1 3 2 0 -2 -1 -1 -1 0 1 0 -1 0 0 0 0 0 0 0 0 0 0]
ATT, 6048060, 0, 0.5287035, 0, -0.8995987, 0, 0.009156585, 0
XKF4, 6047527, 0, 0, 0, 0, 0, 0, 0.1411821, 0, 0, 0, 50, 0, 0, 0
XKF1, 6047527, 0, 0.54, -0.9, 359.99, 0.0006120309, 0.0002811491, 0.1433049, 0.2195713, 0, 0, 0.03816367, 0, 0, 0, 0
XKF2, 6047527, 0, 0, 0, 0, 0, 0, 0, 0, 0, 0, 0, 0, 0, 0, 0
XKF3, 6047527, 0, 0, 0, 0, 0, 0, 0.06, 0, 0, 0, 0, 0, 0, 0
XKF5, 6047527, 0, 0, 0, 0, 0, 0.06, 0.09, 0, 0, 0.5, 1.419515E-05, 0.03594569, 0.01702083
XKFS, 6047527, 0, 0, 0, 0, 0, 0, 0, 0, 0
XKQ, 6047527, 0, 0.9993332, 0.02435311, -0.02719766, 0.0006372079
XKF4, 6047527, 1, 0, 0, 0, 0, 0, 0.1411097, 0, 0, 0, 50, 0, 0, 0
XKF1, 6047527, 1, 2.2, -0.59, 0, -0.0004265495, -0.0005450677, 0.08366963, 0.1632216, 0, 0, 0.02595756, 0, 0, 0, 0
XKF2, 6047527, 1, 0, 0, 0, 0, 0, 0, 0, 0, 0, 0, 0, 0, 0, 0
XKF3, 6047527, 1, 0, 0, 0, 0, 0, 0.06, 0, 0, 0, 0, 0, 0, 0
XKFS, 6047527, 1, 0, 0, 0, 0, 0, 0, 0, 0
XKQ, 6047527, 1, 0.9989448, 0.03882058, -0.0245243, 0.0009657095
AHR2, 6048200, 0.54, -0.9, 359.99, 0, 0, 0, 0.9999577, 0.004748633, -0.007864587, 0.0005751891
PIDS, 6048205, 0, 0, 0, 0, 0, 0, 0, 0, 0, 0, 0
PIDA, 6048208, 0, 0, 0, 0, 0, 0, 0, 0, 0, 0, 0
IMU, 6048215, 0, 0.0009013034, -0.0004885165, 0.0001749207, -0.5229481, -0.4687404, -9.612367, 0, 0, 35.14493, 1, 1, 2006, 2006
IMU, 6048215, 1, 0.0007913818, -0.0007981127, 0.0001212578, -0.4821284, -0.7603945, -9.737712, 0, 0, 31.5, 1, 1, 2016, 2010
ISBD, 6049401, 0, 20, [3 1 1 0 0 0 1 2 3 3 1 0 -2 0 0 -1 0 0 1 2 1 -1 -2 -1 0 -1 -1 0 0 -1 -1 -1], [-2 -2 -2 0 0 1 0 0 -3 -3 -3 1 3 -1 -2 0 0 0 0 0 0 0 0 2 0 0 -1 -6 -2 2 5 4], [0 0 0 0 0 -1 -2 -1 -1 0 -1 0 1 0 0 0 -1 0 0 -1 -1 0 0 1 0 1 1 0 0 0 0 -1]
ATT, 6068050, 0, 0.5301606, 0, -0.9005226, 0, 0.008971502, 0
XKF4, 6067538, 0, 0, 0, 0, 0, 0, 0.1411826, 0, 0, 0, 50, 0, 0, 0
XKF1, 6067538, 0, 0.54, -0.9, 359.99, 0.0006362937, 0.0002555762, 0.1492815, 0.2242831, 0, 0, 0.04198779, 0, 0, 0, 0
XKF2, 6067538, 0, 0, 0, 0, 0, 0, 0, 0, 0, 0, 0, 0, 0, 0, 0
XKF3, 6067538, 0, 0, 0, 0, 0, 0, 0.06, 0, 0, 0, 0, 0, 0, 0
XKF5, 6067538, 0, 0, 0, 0, 0, 0.05, 0.09, 0, 0, 0.5, 1.371085E-05, 0.03339155, 0.01708645
XKFS, 6067538, 0, 0, 0, 0, 0, 0, 0, 0, 0
XKQ, 6067538, 0, 0.9993327, 0.02436512, -0.02720644, 0.0006357331
XKF4, 6067538, 1, 0, 0, 0, 0, 0, 0.1411101, 0, 0, 0, 50, 0, 0, 0
XKF1, 6067538, 1, 2.2, -0.59, 0, -9.131616E-05, -0.0007646747, 0.08688105, 0.1655325, 0, 0, 0.02880831, 0, 0, 0, 0
XKF2, 6067538, 1, 0, 0, 0, 0, 0, 0, 0, 0, 0, 0, 0, 0, 0, 0
XKF3, 6067538, 1, 0, 0, 0, 0, 0, 0.06, 0, 0, 0, 0, 0, 0, 0
XKFS, 6067538, 1, 0, 0, 0, 0, 0, 0, 0, 0
XKQ, 6067538, 1, 0.9989446, 0.03882142, -0.02452652, 0.000980505
AHR2, 6068146, 0.54, -0.9, 359.99, 0, 0, 0, 0.9999575, 0.004760679, -0.007873342, 0.0005737752
PIDS, 6068151, 0, 0, 0, 0, 0, 0, 0, 0, 0, 0, 0
PIDA, 6068155, 0, 0, 0, 0, 0, 0, 0, 0, 0, 0, 0
IMU, 6068159, 0, 0.0008512627, -0.0004598955, 0.0002192648, -0.52078, -0.4675939, -9.606335, 0, 0, 35.62802, 1, 1, 2006, 2006
IMU, 6068159, 1, 0.0003386209, -0.0003692365, 2.171675E-05, -0.4717845, -0.76713, -9.722418, 0, 0, 31.5, 1, 1, 2016, 2010
MAV, 6068294, 0, 46, 0, 0, 4, 0, 97
MAV, 6068300, 1, 79, 0, 0, 4, 0, 0
MAV, 6068306, 2, 63, 0, 0, 4, 0, 0
MAV, 6068311, 3, 62, 0, 0, 4, 0, 47
ISBD, 6069403, 0, 21, [1 0 0 -3 -2 -3 -1 0 0 0 0 0 0 0 -1 -1 -2 0 0 0 0 -1 2 2 2 -1 0 0 0 1 2 3], [0 -2 -2 1 1 2 1 1 2 1 1 1 0 0 -1 0 0 -1 -2 -2 1 3 3 0 -2 0 -1 -1 -1 -2 -3 -2], [0 0 1 0 0 0 1 1 1 0 0 0 0 0 0 0 0 -1 -1 -1 0 0 0 0 0 0 0 -2 -1 0 -2 -2]
ATT, 6088002, 0, 0.5318055, 0, -0.9015183, 0, 0.00856798, 0
XKF4, 6087492, 0, 0, 0, 0, 0, 0, 0.1411833, 0, 0, 0, 50, 0, 0, 0
XKF1, 6087492, 0, 0.54, -0.9, 359.99, 0.0006126357, 0.0003015051, 0.1549959, 0.2291153, 0, 0, 0.04608837, 0, 0, 0, 0
XKF2, 6087492, 0, 0, 0, 0, 0, 0, 0, 0, 0, 0, 0, 0, 0, 0, 0
XKF3, 6087492, 0, 0, 0, 0, 0, 0, 0.06, 0, 0, 0, 0, 0, 0, 0
XKF5, 6087492, 0, 0, 0, 0, 0, 0.05, 0.09, 0, 0, 0.5, 1.369951E-05, 0.03096133, 0.01709291
XKFS, 6087492, 0, 0, 0, 0, 0, 0, 0, 0, 0
XKQ, 6087492, 0, 0.9993321, 0.02437862, -0.02721586, 0.0006323466
XKF4, 6087492, 1, 0, 0, 0, 0, 0, 0.1411109, 0, 0, 0, 50, 0, 0, 0
XKF1, 6087492, 1, 2.2, -0.59, 0, 9.577856E-06, -0.0009135985, 0.08988652, 0.1670992, 0, 0, 0.0316892, 0, 0, 0, 0
XKF2, 6087492, 1, 0, 0, 0, 0, 0, 0, 0, 0, 0, 0, 0, 0, 0, 0
XKF3, 6087492, 1, 0, 0, 0, 0, 0, 0.06, 0, 0, 0, 0, 0, 0, 0
XKFS, 6087492, 1, 0, 0, 0, 0, 0, 0, 0, 0
XKQ, 6087492, 1, 0.9989448, 0.03883226, -0.02450299, 0.0009828866
AHR2, 6088148, 0.54, -0.9, 359.99, 0, 0, 0, 0.9999573, 0.004774247, -0.007882707, 0.0005704665
PIDS, 6088153, 0, 0, 0, 0, 0, 0, 0, 0, 0, 0, 0
PIDA, 6088157, 0, 0, 0, 0, 0, 0, 0, 0, 0, 0, 0
IMU, 6088161, 0, 0.0009915474, -0.0005745438, 0.0001147071, -0.5230606, -0.4684364, -9.604877, 0, 0, 35.62802, 1, 1, 2006, 2006
IMU, 6088161, 1, 0.0003125496, 9.090211E-05, 2.5966E-05, -0.4684975, -0.7690883, -9.725396, 0, 0, 31.5, 1, 1, 2016, 2010
ISBD, 6089342, 0, 22, [1 2 3 3 2 1 2 1 1 2 1 3 1 3 2 3 5 3 1 1 2 2 2 3 3 2 2 2 0 0 1 4], [-1 -2 0 0 -1 -1 -2 0 -1 -2 -4 -4 1 1 1 -3 -6 -5 -3 -3 -4 -3 -2 -1 1 0 -1 -3 -1 1 0 -3], [-2 -1 0 0 -1 -2 -1 0 0 0 -1 -1 -1 -1 0 0 -1 0 0 0 0 -1 0 0 0 0 -1 0 0 0 0 0]
DCM, 6107497, 0.5315192, -0.9016613, 0.008420718, 0.08632858, 1, 0, 0, 0
EAHR, 6107514, 0, 0, 0, 0, 0, 0, 0, 0, 0, 0
ATT, 6108654, 0, 0.5315192, 0, -0.9016613, 0, 0.008420718, 0
XKF4, 6107526, 0, 0, 0, 0, 0, 0, 0.1411837, 0, 0, 0, 50, 0, 0, 0
XKF1, 6107526, 0, 0.54, -0.9, 359.99, 0.000696009, 0.0001914512, 0.160714, 0.233742, 0, 0, 0.04895172, 0, 0, 0, 0
XKF2, 6107526, 0, 0, 0, 0, 0, 0, 0, 0, 0, 0, 0, 0, 0, 0, 0
XKF3, 6107526, 0, 0, 0, 0, 0, 0, 0.1, 0, 0, 0, 0, 0, 0, 0
XKF5, 6107526, 0, 0, 0, 0, 0, 0.07, 0.09, 0, 0, 0.5, 1.384223E-05, 0.02603274, 0.00540402
XKFS, 6107526, 0, 0, 0, 0, 0, 0, 0, 0, 0
XKQ, 6107526, 0, 0.9993321, 0.02437526, -0.02721776, 0.0006312051
XKF4, 6107526, 1, 0, 0, 0, 0, 0, 0.1411115, 0, 0, 0, 50, 0, 0, 0
XKF1, 6107526, 1, 2.2, -0.58, 0, 8.721669E-06, -0.000859396, 0.092867, 0.1690488, 0, 0, 0.03334397, 0, 0, 0, 0
XKF2, 6107526, 1, 0, 0, 0, 0, 0, 0, 0, 0, 0, 0, 0, 0, 0, 0
XKF3, 6107526, 1, 0, 0, 0, 0, 0, 0.1, 0, 0, 0, 0, 0, 0, 0
XKFS, 6107526, 1, 0, 0, 0, 0, 0, 0, 0, 0
XKQ, 6107526, 1, 0.9989462, 0.03881805, -0.02446682, 0.0009815313
AHR2, 6108725, 0.54, -0.9, 359.99, 0, 0, 0, 0.9999573, 0.004770915, -0.00788458, 0.0005692233
PIDS, 6108729, 0, 0, 0, 0, 0, 0, 0, 0, 0, 0, 0
PIDA, 6108733, 0, 0, 0, 0, 0, 0, 0, 0, 0, 0, 0
IMU, 6108737, 0, 0.0008965561, -0.0005561903, 7.891495E-06, -0.5230426, -0.4709319, -9.60472, 0, 0, 35.62802, 1, 1, 2006, 2006
IMU, 6108737, 1, 0.0001091232, 0.0007630385, 2.306922E-05, -0.4741386, -0.7593029, -9.718991, 0, 0, 31.5, 1, 1, 2016, 2010
BARO, 6108808, 0, -0.07056808, -0.07056808, 101129.3, 24.97, -0.08448936, 6108, 0, 24.9791, 1
MAG, 6108830, 0, 214, -1143, 1288, 0, 0, 0, 0, 0, 0, 1, 6108828
THR, 6108837, 0, 0, 0, NaN, -0.5230426
NTUN, 6108841, 0, 0, 0, 0, 0
STER, 6108847, 0, 0, 0, NaN, 0, 0.0009648455
RCIN, 6108853, 1522, 1479, 1506, 1494, 2000, 1000, 1500, 1500, 0, 0, 0, 0, 0, 0
RCI2, 6108857, 0, 0, 0, 1
RCOU, 6108864, 1496, 1500, 1500, 0, 0, 0, 0, 0, 0, 0, 0, 0, 0, 0
RCO2, 6108867, 0, 0, 0, 0
VIBE, 6108871, 0, 0.008996915, 0.008465147, 0.01298598, 0
VIBE, 6108871, 1, 0.05929949, 0.03793479, 0.06967106, 0
POWR, 6108971, 5.125332, 5.860219, 1, 1, 6
MCU, 6108971, 24.85368, 3.365743, 3.355631, 3.374782
BAT, 6108997, 0, 24.01122, 24.83024, 0.295352, 0.2158839, 0.005183906, 0, 2.773017, 255, 0, 0
ISBD, 6110022, 0, 23, [2 2 -1 0 3 4 2 0 -1 -1 0 1 0 0 -1 0 0 -1 -1 0 -1 0 0 1 -1 -1 -3 0 0 -1 -1 -1], [-2 -2 1 0 0 -2 -2 -2 0 1 0 -1 0 0 1 2 1 0 0 1 1 1 0 0 0 0 3 1 1 1 0 0], [0 0 -1 0 0 0 0 0 -1 0 0 0 0 0 0 -1 0 0 0 -1 0 0 0 0 0 0 -1 0 0 -2 -1 0]
ATT, 6128027, 0, 0.5335179, 0, -0.9027761, 0, 0.007732112, 0
XKF4, 6127527, 0, 0, 0, 0, 0, 0, 0.1407283, 0, 0, 0, 50, 0, 0, 0
XKF1, 6127527, 0, 0.55, -0.9, 359.99, 0.0006322368, 0.0002267176, 0.1660812, 0.2243954, 0, 0, 0.05191199, 0, 0, 0, 0
XKF2, 6127527, 0, 0, 0, 0, 0, 0, 0, 0, 0, 0, 0, 0, 0, 0, 0
XKF3, 6127527, 0, 0, 0, 0, 0, 0, 0.1, 0, 0, 0, 0, 0, 0, 0
XKF5, 6127527, 0, 0, 0, 0, 0, 0.07, 0.09, 0, 0, 0.5, 1.476513E-05, 0.02398802, 0.004267035
XKFS, 6127527, 0, 0, 0, 0, 0, 0, 0, 0, 0
XKQ, 6127527, 0, 0.9993314, 0.02439163, -0.02722816, 0.0006253133
XKF4, 6127527, 1, 0, 0, 0, 0, 0, 0.1406175, 0, 0, 0, 50, 0, 0, 0
XKF1, 6127527, 1, 2.2, -0.59, 0, -0.0001499941, -0.000905842, 0.09532981, 0.1570074, 0, 0, 0.03516073, 0, 0, 0, 0
XKF2, 6127527, 1, 0, 0, 0, 0, 0, 0, 0, 0, 0, 0, 0, 0, 0, 0
XKF3, 6127527, 1, 0, 0, 0, 0, 0, 0.1, 0, 0, 0, 0, 0, 0, 0
XKFS, 6127527, 1, 0, 0, 0, 0, 0, 0, 0, 0
XKQ, 6127527, 1, 0.9989455, 0.03882593, -0.02448461, 0.000983723
AHR2, 6128126, 0.55, -0.9, 359.99, 0, 0, 0, 0.9999571, 0.004787403, -0.007894876, 0.0005634465
PIDS, 6128148, 0, 0, 0, 0, 0, 0, 0, 0, 0, 0, 0
PIDA, 6128164, 0, 0, 0, 0, 0, 0, 0, 0, 0, 0, 0
IMU, 6128178, 0, 0.0008854566, -0.0006378949, -0.0001347877, -0.525062, -0.4704765, -9.600921, 0, 0, 35.62802, 1, 1, 2006, 2006
IMU, 6128178, 1, -1.03297E-05, 0.001132409, 3.202069E-05, -0.4819627, -0.7577665, -9.723503, 0, 0, 31.5, 1, 1, 2016, 2010
ATT, 6148078, 0, 0.5334211, 0, -0.9021819, 0, 0.007460294, 0
XKF4, 6147554, 0, 0, 0, 0, 0, 0, 0.1407288, 0, 0, 0, 50, 0, 0, 0
XKF1, 6147554, 0, 0.55, -0.9, 359.99, 0.0007037733, 0.0002311076, 0.1714637, 0.2135817, 0, 0, 0.05512098, 0, 0, 0, 0
XKF2, 6147554, 0, 0, 0, 0, 0, 0, 0, 0, 0, 0, 0, 0, 0, 0, 0
XKF3, 6147554, 0, 0, 0, 0, 0, 0, 0.1, 0, 0, 0, 0, 0, 0, 0
XKF5, 6147554, 0, 0, 0, 0, 0, 0.06, 0.09, 0, 0, 0.5, 1.587747E-05, 0.02204428, 0.003257732
XKFS, 6147554, 0, 0, 0, 0, 0, 0, 0, 0, 0
XKQ, 6147554, 0, 0.9993316, 0.02438975, -0.02722354, 0.0006229028
XKF4, 6147554, 1, 0, 0, 0, 0, 0, 0.1406179, 0, 0, 0, 50, 0, 0, 0
XKF1, 6147554, 1, 2.2, -0.58, 0, 0.0001851299, -0.0009214812, 0.0980539, 0.1446399, 0, 0, 0.03703782, 0, 0, 0, 0
XKF2, 6147554, 1, 0, 0, 0, 0, 0, 0, 0, 0, 0, 0, 0, 0, 0, 0
XKF3, 6147554, 1, 0, 0, 0, 0, 0, 0.1, 0, 0, 0, 0, 0, 0, 0
XKFS, 6147554, 1, 0, 0, 0, 0, 0, 0, 0, 0
