TimeUS,GyrX,GyrY,GyrZ,AccX,AccY,AccZ
23001936,0.001350299,0.0009400843,-0.0002490166,-0.3464278,-0.7123697,-9.839926
23021811,0.001862682,0.000452319,-0.0001269926,-0.3525411,-0.7086002,-9.851413
23042096,0.002031975,0.0002323043,-7.799015e-05,-0.3502098,-0.7094875,-9.857529
23061741,0.002102088,-3.677863e-06,-1.108089e-05,-0.342777,-0.7142724,-9.850798
23082006,0.001774692,-0.0003095488,0.0002849013,-0.3390948,-0.7198899,-9.836101
23101745,0.001472091,-0.0005744724,0.0004804446,-0.3425194,-0.7201212,-9.829254
23121765,0.001256309,-0.0009319559,0.0005026236,-0.3413114,-0.7160869,-9.818264
23142131,0.001031255,-0.0009219725,0.000371717,-0.34435,-0.7169522,-9.819784
23161772,0.000866225,-0.0007388676,0.0004158389,-0.35012,-0.7129953,-9.838491
23181784,0.000738391,-0.0008683905,0.0003404572,-0.3507865,-0.714837,-9.848371
23201730,0.0006849078,-0.001134136,0.0003745969,-0.3484229,-0.7156626,-9.854014
23221779,0.0007110853,-0.0009017015,0.0004643396,-0.3224062,-0.7185279,-9.843735
23242367,0.0006947237,-1.00278e-05,0.0004134864,-0.3325525,-0.7193514,-9.833215
23261758,0.0008593334,0.0005726622,0.0002655099,-0.3473255,-0.714469,-9.840046
23281778,0.00110949,0.001127635,9.545829e-05,-0.3410072,-0.7143793,-9.833184
23301757,0.001185476,0.001097508,8.841411e-06,-0.344474,-0.7123211,-9.828588
23321769,0.001216932,0.001082197,-7.610434e-05,-0.3433436,-0.7146887,-9.836364
23342157,0.001246487,0.001201707,-0.0001161903,-0.3444809,-0.7133329,-9.84437
23361727,0.001262954,0.001137854,-0.0002707541,-0.3359771,-0.7194257,-9.834835
23381763,0.001238713,0.0008540243,-0.000222142,-0.3348099,-0.7185313,-9.827052
23401938,0.001438698,0.0006740578,-0.0001333266,-0.3428113,-0.71329,-9.826503
23421770,0.001843719,0.0003604876,-1.344603e-05,-0.3431311,-0.71656,-9.827147
23442165,0.002009046,0.0001866156,8.162852e-05,-0.3519964,-0.711337,-9.841459
23461748,0.002018142,-7.285439e-05,7.634243e-05,-0.3535494,-0.7129581,-9.852072
23481772,0.001954013,-0.0003288793,9.779401e-05,-0.3409581,-0.7188966,-9.841513
23501742,0.001691777,-2.985441e-05,0.0003416062,-0.3431163,-0.7156724,-9.829161
23521769,0.001280305,0.0003057624,0.0005986589,-0.3411101,-0.7093516,-9.834545
23542119,0.001187748,-0.0001233466,0.000832675,-0.3437693,-0.713023,-9.838108
23561948,0.0008672203,-0.0003660608,0.0009210727,-0.3443702,-0.7170053,-9.84778
23581791,0.0006113154,-0.0001269469,0.000716367,-0.3350267,-0.7193898,-9.84586
23601751,0.000715366,8.008866e-05,0.0006467309,-0.3518648,-0.7138441,-9.837206
23621801,0.001054471,0.0002994056,0.0004841328,-0.3610949,-0.7112616,-9.830261
23642117,0.001746885,0.0001654154,0.000300853,-0.3558576,-0.7113513,-9.828144
23661722,0.001984728,5.956709e-05,9.489286e-05,-0.3563486,-0.7064781,-9.828962
23681769,0.002090798,0.0003840162,-0.0003030594,-0.3544265,-0.7118788,-9.823581
23701735,0.002163388,0.000472164,-0.0004405018,-0.3480771,-0.7163311,-9.824624
23721950,0.002009245,0.0002860331,-0.0002618122,-0.349618,-0.7162741,-9.834718
23742142,0.002328512,-0.0002541548,-8.528132e-05,-0.3454167,-0.7149134,-9.846066
23761731,0.002593879,-0.00082674,6.829261e-05,-0.346668,-0.7212554,-9.850148
23781777,0.002449657,-0.0009458982,0.0001944447,-0.3468084,-0.7179886,-9.841622
23801732,0.002033583,-0.0005465589,0.0004045083,-0.3320034,-0.7193973,-9.826873
23821758,0.001811317,-0.0003660962,0.0003953504,-0.3325898,-0.7192796,-9.826395
23842132,0.001890578,-0.0004729848,0.0002909168,-0.3371649,-0.7194989,-9.843971
23861756,0.005106604,5.775833e-05,0.00262131,-0.257021,-0.6793263,-9.959663
23881984,0.02586835,0.006291623,0.03901504,0.3075251,-0.9193717,-9.826292
23901755,0.03592299,0.01331242,0.1106396,1.037185,-0.3241622,-9.644953
23921759,0.03369664,0.0163449,0.1690675,1.318591,0.1994413,-10.05342
23942101,0.03415342,0.01367238,0.1925794,0.6623954,0.1230337,-9.93525
23961700,0.0241845,0.01198102,0.2204468,0.338493,-0.3300763,-9.836839
23981761,-0.007360267,-0.003375082,0.273201,1.408533,-0.8471352,-10.36211
24001736,-0.02848618,-0.01488506,0.309278,1.586981,-0.8658487,-9.190397
24021765,-0.0244491,-0.01199598,0.2955998,1.418571,-1.08512,-9.845771
24042408,-0.01128882,0.004498573,0.2425052,0.8835659,-0.9144422,-9.792138
24061728,0.008539223,0.0108255,0.1814465,0.7271144,-1.271286,-9.965983
24081773,0.02076885,0.02128511,0.1357229,0.6903951,-1.080702,-9.804795
24101747,0.03126562,0.02749091,0.1015168,0.7610321,-1.006515,-10.12093
24121743,0.01544708,0.02396931,0.07476756,0.8353386,-0.636648,-10.39896
24142139,0.01710276,0.01824558,0.05038426,0.583917,-0.2411154,-9.234953
24161727,0.02915437,0.01556048,0.03203556,0.7616487,-0.5474237,-10.35039
24181776,0.01244186,0.007107917,0.01882148,0.5120211,-0.6448318,-9.558852
24201935,0.01457218,-0.0007026042,0.007110851,0.456241,-0.7404198,-10.26273
24221784,-0.003565924,-0.01041156,0.01358027,0.6118402,-1.111477,-10.12254
24242152,-0.022474,-0.01783703,0.03476799,1.091686,-0.6346071,-9.82755
24261740,-0.002871818,-0.0043878,0.05488329,0.756086,-0.4306585,-9.597011
24281784,0.002957395,0.003332418,0.07145483,0.8570523,-0.9555442,-9.979765
24301692,-0.003915091,0.005317454,0.07372196,0.9871895,-0.1449794,-10.71502
24321755,-0.0110195,-0.01105681,0.06029175,0.6206628,-0.8806152,-9.614095
24342162,-0.02258163,-0.009576307,0.04307327,0.8318123,-0.4665104,-9.240595
24361926,-0.0183659,-0.01027652,0.03053553,0.9403512,-0.7612918,-10.01405
24381771,-0.009728393,-0.009513672,0.01811757,0.7735988,-0.4627373,-10.00046
24401702,0.01857073,-0.005246059,0.01197316,0.6066202,-0.6763971,-9.539859
24421753,0.02115271,-0.0004489557,0.02457034,0.0428837,-0.7693403,-9.932355
24442103,0.02357796,-0.0002738445,0.04279928,0.2002711,-0.4889436,-10.41446
24461721,0.03312139,-0.001350706,0.05869775,0.1838865,-0.6628237,-9.987104
24481866,0.03273742,0.001662759,0.07262207,0.3058447,-0.6380253,-9.983527
24501734,0.02120847,0.004246341,0.08628625,0.4694645,-0.4142788,-9.776252
24521948,0.01683604,-0.00259963,0.09529417,0.9647286,-1.075732,-10.50691
24542137,-0.0350801,-0.003225261,0.09470177,0.6689956,-0.02025446,-9.021935
24561742,-0.03600381,-0.0001678523,0.06778985,1.333773,-0.04199687,-10.30075
24581753,-0.02288473,0.0006186404,0.02451772,0.6910141,-0.1042604,-9.57707
24601719,-0.01045297,-0.01976454,-0.003760467,0.5990284,-1.191607,-10.51006
24621774,-0.0134579,-0.02753965,-0.0165692,0.8613371,-0.8786133,-9.482015
24642111,0.003590931,-0.0276859,-0.02733722,0.7353843,-0.7068182,-10.34402
24661733,0.003696493,-0.029041,-0.01536992,0.4436806,-0.6404358,-10.89241
24681996,-0.01354273,-0.03624629,0.01488389,0.6467926,-0.614863,-9.843406
24701715,-0.01716713,-0.03367688,0.05113754,0.6045576,-1.039687,-8.454676
24721753,-0.004395707,-0.005464808,0.08927053,0.4980662,-0.4856451,-10.55288
24742158,0.04349684,0.026207,0.1259487,0.6604025,-0.938633,-10.35542
24761726,0.04022133,0.0486301,0.1669465,0.6613576,-0.4257155,-10.13778
24781774,0.04382966,0.04836256,0.2018843,1.417989,-0.4887316,-10.70611
24801745,0.0203642,0.039473,0.2185558,1.122383,0.3682129,-9.256382
24821772,0.01091608,0.0382953,0.2173441,1.516136,0.1705475,-11.13159
24842353,-0.002334468,0.02590486,0.1935638,1.193731,-0.5618527,-9.189108
24861742,-0.00770192,0.03561735,0.1625941,1.064053,-0.06633573,-9.491484
24881786,-0.00269304,0.03311738,0.1304659,0.7928746,-0.832007,-10.22463
24901736,0.01122637,0.03115372,0.100275,0.5831525,-0.3571211,-10.42383
24921765,0.01351375,0.03299168,0.1009784,0.4827531,-0.7521693,-9.819668
24942168,0.02256893,0.02855104,0.1314382,0.7722051,-0.404094,-10.18396
24961712,0.02548987,0.02093069,0.1795705,0.07327933,-1.317226,-9.359599
24981812,0.002718687,0.03054295,0.2584892,0.9298886,-0.3207378,-10.6783
25001963,0.01537667,0.02464244,0.3491983,1.118188,-0.6838414,-9.124952
25021757,0.03717213,0.02901843,0.419195,1.530397,0.4654021,-10.80986
25042135,0.05674548,0.01619985,0.4502084,1.31974,-0.07477055,-9.300273
25061721,0.03734701,0.00800785,0.4463577,1.174464,0.769737,-10.63286
25081781,0.05167359,0.0133023,0.4173115,0.9924669,-0.3062002,-9.782475
25101747,0.03168981,0.02306372,0.3744563,0.7653933,0.08853652,-10.24682
25121787,0.02354681,0.03505313,0.3368855,0.7739483,-0.2614353,-9.438459
25142110,0.0273606,0.0406803,0.2938536,0.5672024,-0.1215123,-9.21909
25161944,0.03038206,0.02661743,0.2633826,0.6758123,0.008150389,-10.10062
25181762,0.04422603,0.01393389,0.2381287,0.902563,0.03760066,-10.13486
25201736,0.007608204,0.0004049355,0.2367981,0.449469,-0.5701388,-9.863832
25221784,-0.02355026,-0.002623678,0.2748257,0.575617,-0.4086227,-10.39382
25242146,-0.02620286,-0.01242064,0.3226692,0.3263859,-0.7274846,-9.307697
25261712,-0.02358175,-0.01160894,0.3925385,1.046562,0.1801009,-10.93983
25281778,0.0003284685,-0.03632116,0.4879009,1.158772,-0.7461135,-9.662685
25301782,-0.02264591,-0.03982864,0.5621096,1.628261,0.7251475,-9.692841
25321979,0.009146716,-0.04665461,0.5745768,1.725106,-0.4905601,-9.613334
25342082,-0.01448752,-0.03760309,0.5328687,1.235758,0.6938645,-9.222969
25361759,0.01175402,-0.02717251,0.4638343,1.784472,-0.6031867,-9.903468
25381785,0.01064528,-0.01845775,0.3751637,2.013005,0.4374097,-10.98993
25401745,0.004188229,-0.04670271,0.2883272,1.707237,0.1064022,-10.43106
25421745,-0.00228783,-0.03501321,0.2146252,1.424769,0.8029681,-8.594552
25442089,0.02369288,-0.0009813895,0.154979,2.720264,0.003353475,-9.790679
25461678,0.007503668,0.02045197,0.1039495,1.889783,0.3722932,-10.35462
25481971,0.03992609,0.03478304,0.05958519,1.049361,-0.9287409,-11.42778
25501733,0.01143027,0.04385696,0.02505342,0.4226352,-0.9702556,-8.429125
25521749,-0.01286485,0.04889388,-0.002389204,1.581908,-0.5683025,-10.50133
25542079,-0.002118968,0.02625154,-0.0412342,1.267543,-0.6801441,-9.941324
25561724,-0.0002547711,0.01787931,-0.08461775,0.8758356,-0.2380314,-10.58305
25581776,-0.005783414,0.00164072,-0.1323451,0.6648424,-0.7494841,-9.803184
25601744,-0.004622532,-0.007975435,-0.1859826,1.022547,-0.5627123,-9.957879
25621737,-0.004634775,-0.02770099,-0.2279167,0.7477835,-1.516295,-9.682615
25642352,-0.008516168,-0.01245881,-0.2511049,-0.7160522,-1.319882,-9.442463
25661753,0.00134106,-0.01392683,-0.2521124,-1.482452,-1.562487,-10.87967
25681762,0.009610015,-0.02092493,-0.2289879,-1.550448,-1.249267,-9.673982
25701756,0.005662868,-0.04440525,-0.1931709,-0.9625953,-1.240032,-9.884056
25721774,-0.003796074,-0.0450415,-0.1747528,-0.6936404,-0.142231,-8.620751
25742170,0.00934126,-0.01902692,-0.189671,-0.5961106,-0.5328937,-10.12241
25761727,-0.005366946,-0.01195568,-0.2266566,-0.5523753,-0.3128424,-9.844349
25781779,0.01624701,0.006721619,-0.2934575,-0.5019621,-0.6020968,-9.577967
25801949,0.0256452,0.00438333,-0.3638038,-1.035498,-1.758124,-9.887189
25821740,-0.004126657,-0.01098459,-0.4151351,-1.348308,-2.54479,-9.977417
25842161,-0.02997306,-0.02793884,-0.4239917,-1.47988,-2.513873,-9.020748
25861742,-0.06381815,-0.04645202,-0.3948441,-1.273301,-2.583177,-10.02253
25881786,-0.08488849,-0.05030973,-0.3500646,-1.047295,-0.9937981,-9.126181
25901743,-0.07605408,-0.04142639,-0.3124273,-1.06517,-0.9584826,-10.30834
25921744,-0.05963594,-0.03319919,-0.2859857,-0.8644427,-0.4109238,-9.700773
25942093,-0.02916502,-0.02881717,-0.2719484,-0.9694735,-0.9338425,-9.49922
25961972,-0.01577383,-0.01712537,-0.2706708,-0.8274309,-1.063387,-9.256388
25981799,-0.01563181,-0.006864371,-0.2822831,-0.8770978,-1.322259,-10.41671
26001724,-0.01853147,0.003327232,-0.301884,-1.070245,-1.269935,-9.462446
26021766,-0.006914859,0.02469254,-0.3186884,-1.223193,-1.381898,-9.78845
26042121,-0.01075585,0.02788683,-0.3214103,-1.175138,-1.886414,-10.52676
26061707,-0.02778327,0.02452128,-0.3130707,-0.9823714,-1.374515,-9.260231
26081753,-0.0293217,0.02975487,-0.300089,-1.086727,-0.9297758,-9.331047
26101718,-0.02785457,0.03916519,-0.2831429,-1.072446,-1.349325,-9.844854
26121954,-0.03238922,0.03456742,-0.2636713,-1.059065,-1.027085,-10.10448
26142139,-0.02743915,0.01670489,-0.2445446,-1.227614,-1.023546,-9.856484
26161730,-0.01247424,-0.002417389,-0.2300963,-1.156112,-1.127435,-10.20508
26181758,-0.0057805,-0.02583469,-0.2179263,-0.8654612,-0.5436922,-9.564563
26201737,-0.002853223,-0.05066481,-0.2137886,-0.979854,-0.8302652,-9.982755
26221750,0.001983654,-0.0682543,-0.2189113,-0.8151234,-0.8180032,-9.772028
26242154,0.0006970825,-0.08652184,-0.2224588,-1.202288,-1.003782,-9.157269
26261719,0.0168904,-0.08985999,-0.2285049,-0.8232631,-1.044568,-10.21307
26281949,0.004727307,-0.09920095,-0.2407888,-0.7282141,-0.6885662,-9.412768
26301765,0.004404102,-0.1047705,-0.265634,-1.064013,-1.178334,-10.16082
26321755,0.008375539,-0.1087833,-0.2810358,-1.382686,-1.497438,-9.135384
26342061,0.02050616,-0.110947,-0.289367,-1.490166,-1.192889,-10.87648
26361749,0.02131145,-0.112541,-0.3070572,-1.599795,-0.8364719,-9.370161
26381763,0.02240672,-0.09562065,-0.3473904,-1.66361,-0.5558327,-9.128374
26401718,0.01600766,-0.06735498,-0.4025021,-2.032595,-0.9545967,-9.794113
26421752,0.004374805,-0.03798744,-0.4751849,-1.857099,-0.9514374,-9.626722
26442317,-0.028639,-0.02537418,-0.5629743,-2.002949,-1.111054,-10.61763
26461691,-0.05245294,-0.01848952,-0.6668615,-1.871863,-0.4812378,-9.020229
26481828,-0.04606438,0.005652691,-0.7818152,-2.100322,-1.26217,-9.929879
26501730,-0.04559995,0.02889639,-0.9006511,-2.099519,-1.083242,-10.0015
26521750,-0.02286547,0.0429063,-1.035104,-1.819811,-1.471905,-9.716747
26542103,-0.02071172,0.0404891,-1.17668,-1.552866,-1.69124,-9.829518
26561697,-0.04868775,0.009187298,-1.318007,-1.721337,-2.66567,-10.28358
26581767,-0.09748465,-0.03782286,-1.463006,-1.658741,-1.966715,-8.773354
26601910,-0.1200327,-0.07566743,-1.614353,-2.035373,-2.209775,-9.386166
26621759,-0.1339123,-0.1770222,-1.670556,-9.060112,-4.17363,-6.031512
26642122,-0.03466694,-0.3606049,-1.188549,-10.19,-6.211015,-4.885308
26661742,-0.03816691,-0.4486141,-0.4608668,-5.434125,-3.814934,-0.121186
26681775,-0.03323032,-0.5788181,0.2677578,-2.639049,-1.432068,-3.616485
26701743,-0.05034071,-0.468317,0.8513687,-1.859068,0.02939948,-2.694807
26721769,0.04536846,-0.1356333,1.224879,-4.441284,-1.811291,-4.964192
26742144,0.1701442,0.3221066,1.384508,-1.368538,-0.230981,-17.21108
26761950,0.3161983,0.4556082,1.331149,0.3872817,-0.665361,-15.05229
26781764,0.2532023,0.5173899,1.124029,-0.3657362,0.1236223,-12.42303
26801753,0.1624942,0.4638981,0.8134636,-0.498192,0.7254925,-9.206468
26821774,0.1153209,0.3305003,0.492345,-0.7041818,-0.174264,-9.470562
26842160,0.05575211,0.1937464,0.1922932,-0.8785542,0.5159855,-10.47019
26861715,0.01375029,0.08316305,-0.06570735,-1.114803,-0.6966805,-9.323381
26881784,-0.01842245,-0.0266656,-0.2691578,-2.077978,-0.56646,-9.690898
26901744,-0.04442227,-0.03754716,-0.4076591,-1.811831,-1.32576,-9.954279
26921946,-0.06405671,-0.04958475,-0.4644485,-1.775898,-1.04084,-9.845167
26942158,-0.04079304,-0.05435649,-0.4615744,-1.571639,-1.295779,-9.073209
26961736,-0.03577283,-0.04202291,-0.4249628,-1.315707,-0.141498,-10.44748
26981772,-0.02035699,-0.0412486,-0.3867171,-1.205939,-0.6495686,-9.506681
27001710,-0.01976734,-0.02977559,-0.3684751,-1.506426,-0.2848509,-9.370788
27021748,-0.01275628,-0.01474219,-0.3730015,-1.403409,-1.636567,-9.443497
27042112,-0.03128308,-0.01034228,-0.3747807,-1.911729,-0.6903234,-10.29126
27061721,-0.02479224,-0.001888084,-0.3619539,-1.667173,-0.6987744,-10.02547
27081960,-0.002455185,-0.01240718,-0.3468635,-1.704551,-0.6661949,-9.898462
27101739,-0.00629337,-0.007039699,-0.3417595,-1.539492,-0.7228268,-9.605706
27121733,-0.007140646,-0.01212453,-0.3534485,-1.723735,-1.037477,-9.642562
27142116,-0.008516178,-0.01610257,-0.3682084,-1.966891,-1.123954,-9.813822
27161710,-0.00801352,-0.009965199,-0.3782932,-1.863389,-0.9836195,-9.730298
27181760,0.001204232,-0.008940245,-0.3897429,-1.701368,-0.5255106,-9.781609
27201737,-0.003358888,-0.005963196,-0.4117095,-1.486938,-0.2299892,-9.709866
27221791,0.002904153,-0.01342485,-0.4407967,-1.508181,-0.6720326,-9.945657
27242397,-0.01233412,-0.0205969,-0.4814812,-1.435684,-0.5098015,-9.78688
27261716,-0.01869594,-0.0226152,-0.5274637,-1.56787,-0.7031578,-9.526366
27281777,-0.01956484,-0.0272191,-0.5756528,-1.598328,-0.8314168,-9.919462
27301710,-0.02856604,-0.03386604,-0.625143,-1.619393,-0.8743615,-9.85907
27321732,-0.03102092,-0.04226136,-0.6707571,-1.671901,-0.9939139,-9.816223
27342152,-0.04028101,-0.04735873,-0.7132132,-1.594241,-0.6868889,-9.734943
27361727,-0.04466438,-0.05417106,-0.7541454,-1.517567,-0.4573716,-9.826714
27381778,-0.04750772,-0.05954619,-0.7949021,-1.36302,-0.5292087,-9.678856
27401915,-0.05468592,-0.06291481,-0.8422413,-1.334526,-0.2394881,-9.759945
27421757,-0.0546065,-0.06075089,-0.8964726,-1.32251,-0.3364817,-9.751888
27442076,-0.05872529,-0.06842294,-0.9545171,-1.434817,-0.523456,-9.938025
27461752,-0.06544974,-0.07314567,-1.010103,-1.358688,-0.505837,-9.879458
27481820,-0.07152364,-0.07796388,-1.066281,-1.279419,-0.4163145,-9.682915
27501754,-0.06909793,-0.08190683,-1.117594,-1.381659,-0.2851925,-9.928928
27521765,-0.07553733,-0.08097667,-1.162291,-1.354268,-0.2859236,-9.690372
27542137,-0.07048178,-0.08669858,-1.201057,-1.343414,-0.158849,-10.01113
27561970,-0.06944238,-0.08952926,-1.235334,-1.13089,-0.1994909,-9.86085
27581796,-0.08055708,-0.09219643,-1.2708,-1.108624,-0.2159457,-9.809677
27601766,-0.08545128,-0.1010094,-1.308226,-1.194674,-0.2383264,-9.748621
27621774,-0.09718632,-0.1040097,-1.34585,-1.255588,-0.1345652,-9.783659
27642170,-0.1082299,-0.105069,-1.384678,-1.055909,-0.2544088,-9.827391
27661737,-0.114727,-0.1004135,-1.429552,-0.8721133,-0.07823557,-9.857636
27681785,-0.1202938,-0.09062961,-1.486839,-0.814599,0.03909794,-9.738314
27701764,-0.1146218,-0.08360291,-1.552277,-0.7812092,0.1258219,-10.05103
27721995,-0.1178384,-0.07397255,-1.620395,-0.6178875,0.2447664,-9.814151
27742145,-0.1160867,-0.07414952,-1.696311,-0.4453698,0.05828854,-9.959958
27761736,-0.1235341,-0.07327978,-1.77794,-0.3560226,0.1693728,-9.6951
27781788,-0.1205849,-0.08086833,-1.861035,-0.5906528,0.06343269,-9.892628
27801734,-0.1274181,-0.08201141,-1.939464,-0.6232618,0.1375399,-9.749435
27821753,-0.1202584,-0.09319115,-2.01407,-0.6571376,0.1033259,-9.973119
27842063,-0.1242721,-0.09593544,-2.083784,-0.5605156,0.03975043,-9.950782
27861736,-0.1399874,-0.09062681,-2.140045,-0.06959461,0.3100782,-10.02021
27881971,-0.1552102,-0.08433106,-2.180432,0.1003945,0.4083587,-9.732089
27901753,-0.1591038,-0.08441084,-2.207073,0.0006531299,0.3826784,-9.946085
27921757,-0.1571791,-0.0866137,-2.221691,-0.1064572,0.4295133,-9.952077
27942111,-0.1549022,-0.08975989,-2.220008,-0.1872549,0.3514793,-9.738277
27961758,-0.1458883,-0.09534355,-2.20271,-0.2703601,0.3714345,-9.976039
27981817,-0.1446046,-0.09558519,-2.176799,-0.2034208,0.2653104,-9.747751
28001734,-0.1407429,-0.09862143,-2.150302,-0.02780698,0.5552919,-10.19905
28021776,-0.1390136,-0.1002688,-2.128128,-0.09894248,0.5071048,-9.674813
28042343,-0.1303531,-0.1030311,-2.11149,-0.03292717,0.4638025,-9.869003
28061715,-0.1274582,-0.1047678,-2.102605,-0.1032028,0.3433703,-9.920846
28081776,-0.1306205,-0.1006636,-2.096451,-0.2429728,0.128747,-9.818927
28101742,-0.1274574,-0.09844654,-2.085123,-0.2409898,0.1683652,-9.949436
28121742,-0.1249196,-0.09464908,-2.066894,-0.2427735,0.02378494,-9.666457
28142083,-0.1216983,-0.09178296,-2.04316,-0.2308738,0.211791,-9.951523
28161690,-0.1170848,-0.0882309,-2.014686,-0.2516223,0.3247539,-9.829163
28181777,-0.1145533,-0.08584534,-1.985108,-0.26312,0.2780546,-9.848334
28201950,-0.1091817,-0.08736828,-1.950655,-0.3332404,0.2680682,-9.990691
28221752,-0.1060477,-0.08672802,-1.907088,-0.3374179,0.1416574,-9.855968
28242110,-0.1036378,-0.08823071,-1.849578,-0.3681702,0.2156473,-9.880627
28261723,-0.09638887,-0.08874305,-1.78169,-0.3216234,0.2520469,-9.907716
28281774,-0.08848632,-0.08667275,-1.708794,-0.2416805,0.2705446,-9.809608
28301728,-0.08733804,-0.08302584,-1.636989,-0.3009047,0.4303084,-9.831808
28321768,-0.08606709,-0.07768013,-1.563259,-0.4249615,0.2717618,-9.786316
28342140,-0.07752646,-0.07693399,-1.485338,-0.4731854,0.09549448,-9.970902
28361946,-0.07407966,-0.07325154,-1.403479,-0.3651457,0.06406383,-9.795721
28381803,-0.07127799,-0.06807931,-1.319202,-0.2679282,0.06068669,-9.849746
28401731,-0.06818922,-0.06315304,-1.233438,-0.2845401,0.2282047,-9.944311
28421760,-0.05981737,-0.06070847,-1.144748,-0.2501876,0.262758,-9.988163
28442163,-0.05471255,-0.05508851,-1.05865,-0.3325451,0.1097668,-9.797312
28461746,-0.05007146,-0.05126539,-0.9660617,-0.3749501,0.1246007,-9.803896
28481805,-0.04361254,-0.04819463,-0.867969,-0.2995979,0.0803496,-9.888065
28501700,-0.04374888,-0.04291134,-0.7731182,-0.2005759,0.0294811,-9.897928
28521968,-0.04095238,-0.0383957,-0.6801187,-0.1993757,0.07204434,-9.832788
28542159,-0.03482366,-0.03644425,-0.5876635,-0.2530544,0.2177985,-9.973353
28561749,-0.03061037,-0.03071382,-0.4918547,-0.3303981,0.1595428,-9.850388
28581779,-0.02264075,-0.02625562,-0.3888816,-0.3655668,0.01758176,-9.845078
28601719,-0.01390093,-0.01907219,-0.2776618,-0.3699676,0.05688167,-9.805611
28621767,-0.00542028,-0.009593999,-0.1669461,-0.140991,-0.3217849,-9.764732
28642090,0.004927975,-0.001118241,-0.07505129,0.1000635,-0.8014852,-9.885887
28661729,0.006474192,0.00543113,-0.01253251,0.1931102,-0.7736967,-9.885253
28681980,0.008375538,0.007941792,0.02581202,0.2447185,-0.8315713,-9.842723
28701723,0.005965291,0.006012899,0.0398964,-0.0001639496,-0.7466583,-9.860451
28721761,0.004059818,0.004497159,0.04362597,-0.1827892,-0.7440511,-9.790347
28742127,0.00382483,0.002839657,0.04262768,-0.09535684,-0.7747206,-9.829194
28761728,0.003371019,0.003626856,0.03940132,0.0861469,-0.748342,-9.810452
28781790,0.005979685,0.002890577,0.03218401,0.09412103,-0.69169,-9.879266
28801744,0.006092241,0.003740938,0.02571238,0.008710262,-0.7519931,-9.852303
28821788,0.005760151,0.004046864,0.02265091,-0.006945505,-0.8160515,-9.854571
28842365,0.005695182,0.003304727,0.02049256,0.04592393,-0.7423145,-9.83871
28861739,0.003821729,0.004106806,0.01711058,0.067784,-0.7077996,-9.832947
28881809,0.004003108,0.001693919,0.0119881,-0.02285888,-0.6472555,-9.861927
28901743,0.003002402,0.001157208,0.008467874,0.06865404,-0.80952,-9.853479
28921761,0.00168585,0.001001037,0.006232112,0.03631679,-0.7522181,-9.82043
28942176,0.001546113,0.0007390146,0.005456666,0.2358103,-0.7755374,-9.846378
28961727,0.0002182018,0.0005596065,0.002718917,0.2510254,-0.7410724,-9.838665
28981789,0.001389682,-0.0009512873,0.0002761687,-0.01417943,-0.8034805,-9.830202
29001955,0.0007768061,-0.0003991557,0.0007546172,-0.04393949,-0.792821,-9.847178
29021798,0.0003760934,0.0001541798,0.001638395,0.07256927,-0.734942,-9.83683
29042161,0.0007588487,0.0002681351,0.0004060593,0.02265655,-0.7443082,-9.841218
29061764,0.0004436103,0.001508599,-3.487524e-05,-0.1194952,-0.7775512,-9.812344
29081803,0.001484589,0.001114665,0.0004930717,-0.258996,-0.7459045,-9.823897
29101737,0.001664121,0.0006020825,-8.192125e-05,-0.3626993,-0.7389389,-9.835143
29121760,0.001886917,0.0002722942,-0.0004727606,-0.4095874,-0.7595704,-9.806353
29142095,0.002418739,-0.0001051545,-0.0001339378,-0.4160017,-0.7461205,-9.831892
29161956,0.001854399,0.0002510408,-7.079569e-05,-0.4120676,-0.7386282,-9.81888
29181858,0.00229818,-9.956668e-05,-0.0005197122,-0.4646542,-0.7404057,-9.817479
29201742,0.00166511,0.0004068198,-0.0006001624,-0.5014772,-0.7475186,-9.831156
29221762,0.001674666,0.0005608583,-0.0003210417,-0.4711705,-0.749999,-9.822905
29242097,0.001562409,0.0004955396,-0.0001735594,-0.4473035,-0.7518445,-9.838323
29261698,0.0006480078,0.0008903489,-0.0001732679,-0.4027504,-0.7570215,-9.824129
29281812,0.001093591,0.0002314007,-0.0001119034,-0.3607633,-0.7548772,-9.830599
29301756,0.0005799897,0.000279593,-0.0002418747,-0.3351329,-0.7569241,-9.840405
29321949,0.0004435458,0.0003947439,-0.0002993602,-0.3339461,-0.7647598,-9.836708
29342174,0.0006779704,0.0003968324,-0.0002570541,-0.3332369,-0.7637424,-9.843123
29361727,0.0002463799,0.0006064978,-0.0002367884,-0.3223771,-0.7618737,-9.823046
29381782,0.0007108081,-0.0002468359,-7.59919e-06,-0.3435312,-0.7633955,-9.835602
29401755,0.0007205914,-0.0003255604,0.0002926965,-0.3643464,-0.7627314,-9.83153
29421755,0.001371153,-0.001014237,0.0002600754,-0.3694268,-0.7633793,-9.825797
29442157,0.001370249,-0.001347908,-0.0001128959,-0.3627234,-0.7452813,-9.852029
29461727,0.003917693,-0.002698541,-4.812555e-05,-0.3963287,-0.7212976,-9.852061
29481966,0.001976578,-0.001304265,-0.0001939744,-0.3733085,-0.7268792,-9.813125
29501738,0.003949511,-0.001839846,-0.0001836788,-0.3961479,-0.7563543,-9.873925
29521759,0.002758031,-0.001034913,-0.0001422205,-0.4137599,-0.7368055,-9.81101
29542086,0.002532786,-0.00110649,7.239992e-05,-0.458144,-0.7287496,-9.810765
29561747,0.0007250062,-0.0001871013,-2.710848e-05,-0.4271596,-0.7386667,-9.810065
29581784,0.001592704,-0.0001275508,-0.0003634937,-0.3862774,-0.7554234,-9.845872
29601741,0.001215934,0.0006589242,-0.0002687589,-0.3363386,-0.7662536,-9.837708
29621760,0.0005607235,0.001312339,-9.204842e-05,-0.3146119,-0.7634067,-9.828667
29642323,-0.001625998,0.002840497,-0.000177623,-0.3224282,-0.7633262,-9.833476
29661772,-0.003704753,0.004146434,-0.0005817618,-0.363268,-0.764183,-9.823802
29681774,-0.003902035,0.004000906,-0.0004766153,-0.3856794,-0.7548087,-9.830826
29701740,-0.003799411,0.003602228,-0.0005317213,-0.3923308,-0.7518342,-9.822179
29721769,-0.003040105,0.002884658,-0.0005969462,-0.3977073,-0.7617664,-9.826855
29742122,-0.0026365,0.001904826,-0.0002547106,-0.3903915,-0.7624289,-9.833886
29761694,-0.001741159,0.001024485,1.591587e-05,-0.3827121,-0.7583694,-9.841372
29781772,-0.001076179,0.0006073661,0.0001401469,-0.3904354,-0.7616336,-9.824034
29801920,-0.0004575406,0.0004159871,0.0002876408,-0.3910337,-0.7625824,-9.82233
29821778,1.737958e-05,0.0004442455,0.0002995869,-0.383311,-0.7588781,-9.836123
29842157,0.000276886,0.000288638,0.0002987662,-0.3799438,-0.760572,-9.833467
29861738,0.0005689813,-0.0001126549,0.0005416693,-0.3602978,-0.7675864,-9.819507
29881781,0.0007183545,-0.0007408392,0.0007483483,-0.3305715,-0.7617748,-9.825982
29901759,0.0007879141,-0.001458173,0.000732352,-0.2869432,-0.7649423,-9.823506
29921747,0.0009315867,-0.002034797,0.0007514135,-0.2417684,-0.762671,-9.823668
29942149,0.001364746,-0.00241542,0.0007007816,-0.247264,-0.7560832,-9.831295
29961949,0.00175514,-0.001861325,0.0004894133,-0.3253111,-0.7514058,-9.842541
29981768,0.001765591,-0.0006590679,0.0002276516,-0.3880313,-0.7520201,-9.838421
30001743,0.001918308,0.000553271,6.969512e-05,-0.4212498,-0.7553436,-9.83051
30021749,0.001920682,0.00153859,8.618216e-05,-0.4367326,-0.751395,-9.833499
30042119,0.001760193,0.002020507,0.0001077946,-0.4480293,-0.7510381,-9.834982
30061734,0.001138578,0.00171379,4.07293e-05,-0.4354465,-0.75883,-9.811034
30081770,0.0009008771,0.001194658,5.194132e-05,-0.3838187,-0.7631181,-9.812704
30101744,0.0008424575,0.0003350966,-0.0002329349,-0.3316823,-0.7606064,-9.817859
30121933,0.000990803,-0.0004418951,-0.0002692632,-0.2888261,-0.7656355,-9.825788
30142143,0.001204282,-0.0007972783,-0.000104575,-0.2676878,-0.7670527,-9.819562
30161751,0.001290219,-0.0009407168,-0.000127362,-0.2986333,-0.7678971,-9.823069
30181779,0.00166064,-0.0006970793,9.82972e-05,-0.3366327,-0.767674,-9.827661
30201766,0.002052781,-0.0001666813,-7.889211e-05,-0.3723492,-0.7631447,-9.833404
30221797,0.00232269,0.0004084788,-0.0009405063,-0.4247284,-0.7608315,-9.83582
30242154,0.002369971,0.0005009458,-0.0009996798,-0.4213615,-0.7604098,-9.828768
30261746,0.001661602,0.0004311159,-0.0006770286,-0.3513398,-0.7533499,-9.832346
30281985,0.001171805,0.0006589867,-0.0007268538,-0.328353,-0.7595423,-9.835605
30301737,0.0009936047,0.0007742981,-0.0004656303,-0.3392147,-0.7650298,-9.832238
30321815,0.001020479,0.0008182935,-0.0001209389,-0.3433248,-0.7574545,-9.824068
30342162,0.00108942,0.0007110333,-0.0001074422,-0.3865227,-0.7625897,-9.834168
30361736,0.00108762,0.0003133819,1.481573e-05,-0.4129845,-0.7670512,-9.830842
30381794,0.0008589634,0.0003271838,0.0002444243,-0.370966,-0.7585902,-9.816471
30401783,0.0007398958,-4.427029e-05,-0.0001311044,-0.3332681,-0.7593202,-9.82512
30421757,0.0006307345,0.0003562317,-0.0004460384,-0.3422442,-0.7675395,-9.826196
30442328,0.0006233275,0.0005190868,-0.0002889393,-0.3551326,-0.7647848,-9.835523
30461739,0.0008318844,-3.686113e-05,-0.0001682755,-0.3757408,-0.7609655,-9.844003
30481804,0.001244799,-0.0006276908,-8.053562e-05,-0.3982587,-0.7633426,-9.840172
30501778,0.001668828,-0.001259009,0.0003121721,-0.3821306,-0.7677363,-9.840327
30521757,0.0015551,-0.001185141,0.0003684843,-0.3453481,-0.7710506,-9.840053
30542160,0.001501438,-0.0009797344,0.0004008424,-0.3334064,-0.7763225,-9.827929
30561746,0.001459809,-0.0009069851,0.0005309189,-0.3248129,-0.7678575,-9.834286
30581791,0.001514221,-0.001031432,0.0004827782,-0.3418332,-0.7542384,-9.833134
30601934,0.00175172,-0.001166549,0.0002745467,-0.3780403,-0.7582355,-9.825284
30621765,0.001725526,-0.001255047,7.339795e-05,-0.3799576,-0.7640517,-9.828327
30642164,0.001464379,-0.001099505,-0.0002110149,-0.3628174,-0.7641634,-9.838058
30661792,0.001329952,-0.0006847199,-0.0003055536,-0.3441913,-0.7684981,-9.837603
30681812,0.001324038,-0.0002172177,-0.0002182358,-0.3414051,-0.7699866,-9.835213
30701763,0.001518582,-0.0002137201,-0.0001867704,-0.3472129,-0.771446,-9.834247
30721753,0.001562843,-0.0007323971,-0.0003245775,-0.3699547,-0.7661939,-9.833446
30742148,0.001576952,-0.0009385366,-0.0004147443,-0.3883703,-0.7654009,-9.846966
30761913,0.001707979,-0.001261582,-0.000259949,-0.3792869,-0.7655908,-9.84106
30781801,0.001600245,-0.001088423,-0.0001574937,-0.3623001,-0.7661075,-9.832433
30801742,0.001830149,-0.001216017,6.96019e-05,-0.3526128,-0.7656862,-9.827718
30821754,0.001875608,-0.0008172625,0.0002335323,-0.3376069,-0.7615256,-9.829111
30842111,0.001924766,-0.0004266813,0.0002141161,-0.3433857,-0.7636607,-9.827425
30861769,0.002184264,-0.0002718419,1.108286e-07,-0.3668102,-0.7662562,-9.823815
30881838,0.002076093,-0.0002612835,6.644049e-05,-0.3744596,-0.7644501,-9.813702
30901755,0.001800309,-0.0002032522,0.0001842467,-0.3594007,-0.7687889,-9.813294
30921975,0.00147444,-7.931004e-05,0.0001734597,-0.3498345,-0.7692236,-9.815468
30942175,0.001353853,0.0001706243,1.032307e-05,-0.3444791,-0.7713106,-9.829503
30961745,0.001246799,0.0003912323,-0.0001578629,-0.3326713,-0.7635896,-9.834681
30981783,0.001124088,8.301108e-06,-0.0002141691,-0.3383537,-0.7590135,-9.838839
31001740,0.001321794,-0.0006702668,-6.128383e-05,-0.3652363,-0.7638084,-9.833194
31021771,0.001289543,-0.0006452021,0.0001183847,-0.3822207,-0.7642882,-9.824787
31042116,0.001169924,-0.0006827772,0.0002494623,-0.3772517,-0.7617372,-9.826298
31061692,0.000837496,-0.0005970685,-2.696597e-06,-0.3574016,-0.7655103,-9.833462
31081995,0.0006922737,-0.0005984387,-0.0001711965,-0.3387795,-0.7689098,-9.829938
31101753,0.0009712397,-0.0007539671,-0.0001659771,-0.3289773,-0.7672408,-9.832127
31121758,0.001514222,-0.001106247,9.583049e-06,-0.3522993,-0.7638523,-9.841849
31142109,0.002356926,-0.001527488,0.0002652118,-0.3739053,-0.7549806,-9.823672
31161773,0.002316472,-0.001595683,0.0004328485,-0.3816727,-0.7580048,-9.823119
31181776,0.002092779,-0.00162724,0.0005268302,-0.3591454,-0.7675703,-9.832556
31201753,0.001517086,-0.001528185,0.0006687376,-0.3466481,-0.773495,-9.829819
31221763,0.0009674673,-0.00113266,0.0007820891,-0.3463749,-0.7692035,-9.823579
31242367,0.0008269697,-0.0007773883,0.0006576062,-0.3495405,-0.7637579,-9.819245
31261741,0.004385294,-0.00216494,0.0001445093,-0.3766013,-0.7287184,-9.806541
31281780,0.008980297,-0.004009121,-0.0006760048,-0.4326805,-0.7591122,-9.866468
31301758,0.007956932,-0.003783303,-0.001107224,-0.3735584,-0.7464528,-9.814096
31321814,0.01218908,-0.006352454,-0.001296155,-0.3094054,-0.7580503,-9.846382
31342138,0.009204516,-0.005314031,-0.0004143174,-0.2689538,-0.7220603,-9.772481
31361783,0.01082502,-0.008041888,0.001198749,-0.391468,-0.7599715,-9.906747
31381813,0.00215461,-0.001941396,0.001966988,-0.4216018,-0.7366962,-9.828259
31401964,-0.007741556,0.004866811,0.001781822,-0.4421536,-0.7491291,-9.825789
31421837,-0.01380817,0.009242907,0.001318895,-0.4186282,-0.7468868,-9.822342
31442136,-0.01799628,0.01163556,0.001330974,-0.3571987,-0.7540411,-9.831416
31461770,-0.02446759,0.01474211,0.002444592,-0.3033689,-0.753551,-9.837705
31481792,-0.02338762,0.01393566,0.003194265,-0.2644899,-0.7268141,-9.792855
31501775,-0.006689899,0.004949939,0.001846195,-0.2725087,-0.7455131,-9.80469
31521728,0.01132757,-0.004862892,-0.0006459889,-0.3482993,-0.7714384,-9.846793
31542167,0.0158877,-0.007725919,-0.001670576,-0.3966095,-0.7743191,-9.830322
31561981,0.01716627,-0.009668892,-0.001736738,-0.3906938,-0.7415949,-9.774172
31581788,0.02991078,-0.01775291,-0.0006575101,-0.4192489,-0.7174175,-9.787959
31601764,0.05089367,-0.02863061,0.000770978,-0.4434454,-0.7202826,-9.829715
31621759,0.08042172,-0.04185289,0.000545535,-0.3999619,-0.7863426,-9.886266
31642099,0.07423653,-0.03684128,-0.001333689,-0.3559464,-0.8729658,-9.914771
31661759,0.03489841,-0.01593305,-0.002564319,-0.295378,-0.8171239,-9.822713
31681779,-0.004307739,0.00421637,-0.002470632,-0.3678449,-0.7780513,-9.803458
31701747,-0.02904804,0.0167531,-0.001561068,-0.4270075,-0.7480949,-9.792341
31721961,-0.03102791,0.01675942,-0.001298627,-0.4554808,-0.7415022,-9.817006
31742090,-0.03114918,0.01663018,-0.0006978564,-0.4181035,-0.7537225,-9.867834
31761756,-0.0342828,0.01782232,0.000446559,-0.3260249,-0.7627285,-9.846277
31781743,-0.04004773,0.01999077,0.002035331,-0.3015982,-0.7776467,-9.844983
31801729,-0.04894581,0.02502507,0.004341963,-0.3525719,-0.740383,-9.849236
31821752,-0.05409483,0.02960291,0.005249581,-0.3682278,-0.7131929,-9.806249
31842094,-0.04670785,0.02792214,0.004067861,-0.3703077,-0.7246294,-9.803268
31861713,-0.03268732,0.02220976,0.001847523,-0.3274632,-0.7498008,-9.824063
31881991,-0.01878978,0.01564163,-0.0004936489,-0.2818956,-0.7554369,-9.834367
31901749,-0.008165919,0.009841496,-0.002266574,-0.3088123,-0.7605933,-9.84363
31921762,-0.002362984,0.005318165,-0.00285099,-0.337081,-0.7300263,-9.778552
31942137,0.007383465,-0.002220229,-0.002642049,-0.3799068,-0.7344672,-9.813478
31961736,0.01490224,-0.008224094,-0.002172543,-0.3876265,-0.7492249,-9.833646
31981748,0.03099844,-0.01982185,-0.001418778,-0.3790288,-0.7213616,-9.817795
32001745,0.03563714,-0.02275449,-0.0003884447,-0.3883263,-0.7490601,-9.912072
32021772,0.02348904,-0.0142955,0.000720019,-0.3558674,-0.7571824,-9.85407
32042339,0.01218127,-0.006671122,0.001347314,-0.3142052,-0.7618352,-9.807133
32061745,0.008930798,-0.003672721,0.001392467,-0.3261764,-0.7607628,-9.807643
32081793,0.00707334,-0.001985907,0.001303032,-0.3749653,-0.7651203,-9.823469
32101761,0.003722097,0.0001120383,0.001217937,-0.3947222,-0.7584752,-9.816165
32121793,0.007078627,-0.002048344,0.0007078045,-0.3959985,-0.7537351,-9.8341
32142146,0.009743818,-0.003516709,0.0002736361,-0.3835132,-0.7613755,-9.859333
32161733,0.007905004,-0.002396015,6.104447e-05,-0.3347585,-0.7664155,-9.83201
32181771,0.00700429,-0.001601254,-0.0001738165,-0.3229412,-0.7036305,-9.837377
32201934,0.003120469,0.001445915,-0.0005633254,-0.3536155,-0.7636425,-9.823874
32221723,0.0001664248,0.003284805,-0.0004738781,-0.4102525,-0.754819,-9.822486
32242159,-0.003294357,0.004345133,-0.0002223706,-0.4135229,-0.7441555,-9.820101
32261724,-0.0009133681,0.002424656,-0.0004900591,-0.3784416,-0.7560449,-9.823571
32281781,0.005169198,-0.001323073,-0.0007412257,-0.3392208,-0.7672297,-9.852087
32301759,0.005485551,-0.001365525,-0.0007011768,-0.332255,-0.7790375,-9.884083
32321717,-0.005932532,0.004890994,-0.0007510887,-0.3774425,-0.7626294,-9.84918
32342156,-0.02151974,0.01349975,0.0004233152,-0.3859153,-0.7568199,-9.817113
32361922,-0.03573414,0.01981113,0.003378223,-0.3351883,-0.714724,-9.813096
32381812,-0.03960845,0.02125552,0.005627977,-0.3071962,-0.6915341,-9.814308
32401741,-0.03066326,0.01752414,0.004868096,-0.3070064,-0.6936023,-9.836243
32421734,-0.01940897,0.01306398,0.001866087,-0.3611795,-0.7273553,-9.829335
32442088,-0.002530373,0.003292119,-0.0006390845,-0.3974606,-0.719799,-9.841451
32461750,0.0136863,-0.005660112,-0.002196627,-0.3709223,-0.6984749,-9.815039
32481813,0.02217544,-0.01021344,-0.002872322,-0.3537374,-0.73172,-9.868399
32501724,0.02112766,-0.009207595,-0.002764671,-0.3213544,-0.7507518,-9.83262
32521992,0.01845021,-0.007496391,-0.002161666,-0.3229524,-0.7601777,-9.854157
32542097,0.01373375,-0.005172798,-0.001578109,-0.3400754,-0.7597058,-9.853888
32561753,0.009279334,-0.003806215,-0.000916941,-0.3742078,-0.7608129,-9.838743
