TimeUS,Roll,Pitch,Yaw,VN,VE,VD
23905415,2.17,0.34,359.98,0.01341393,0.1257168,-0.3247118
23925287,2.17,0.34,359.98,0.01343838,0.1271239,-0.3249156
23945291,2.18,0.34,359.98,0.01372393,0.1283957,-0.3252488
23965310,2.18,0.34,359.98,0.01380271,0.1298821,-0.3255863
23985301,2.18,0.34,359.98,0.0140498,0.1315607,-0.3262896
24005338,2.18,0.34,359.98,0.01396521,0.1332391,-0.3274218
24025309,2.19,0.34,359.98,0.01381247,0.1345068,-0.3279653
24045297,2.19,0.34,359.98,0.01358858,0.1359229,-0.3288543
24065333,2.19,0.34,359.98,0.01391402,0.1372761,-0.3293633
24085300,2.19,0.34,359.98,0.01405309,0.1386074,-0.3301099
24105314,2.19,0.34,359.98,0.01388282,0.1399526,-0.3307929
24125319,2.2,0.34,359.98,0.01387569,0.1417014,-0.3308195
24145325,2.2,0.34,359.98,0.01398355,0.1429888,-0.3309347
24165371,2.2,0.34,359.98,0.0139948,0.1446878,-0.331377
24185272,2.21,0.34,359.98,0.01410805,0.146263,-0.3316926
24205343,2.21,0.34,359.98,0.01412531,0.1478042,-0.3325846
24225323,2.21,0.34,359.98,0.01403285,0.1492363,-0.3329895
24245297,2.21,0.34,359.98,0.01389141,0.1507134,-0.3333398
24265337,2.21,0.33,359.98,0.01394965,0.1520327,-0.3337485
24285287,2.21,0.34,359.98,0.01395861,0.1532516,-0.3341831
24305314,2.22,0.34,359.98,0.01403563,0.1547609,-0.3344835
24325321,2.22,0.33,359.97,0.01440693,0.1558985,-0.334695
24345289,2.22,0.34,359.98,0.01445191,0.1574858,-0.3356532
24365305,2.22,0.34,359.97,0.01473019,0.1587444,-0.3359002
24385300,2.22,0.34,359.97,0.01466085,0.1603646,-0.336034
24405379,2.23,0.33,359.97,0.015014,0.161875,-0.3363988
24425351,2.23,0.34,359.97,0.01534918,0.1634562,-0.3367311
24445281,2.23,0.34,359.97,0.01525464,0.1651506,-0.3370526
24465313,2.24,0.34,359.97,0.01559249,0.1667541,-0.3379169
24485288,2.24,0.34,359.97,0.01557459,0.1683087,-0.3385893
24505311,2.24,0.34,359.97,0.01568397,0.1701614,-0.3394316
24525289,2.24,0.34,359.97,0.01595461,0.1718298,-0.3396409
24545349,2.25,0.33,359.97,0.01612213,0.173573,-0.3398384
24565313,2.25,0.33,359.97,0.01620505,0.1749934,-0.3399808
24585291,2.25,0.33,359.97,0.01643466,0.1764822,-0.3400966
24605341,2.25,0.33,359.97,0.01676066,0.1782806,-0.3407247
24625356,2.25,0.33,359.97,0.01684238,0.1800922,-0.3409368
24645272,2.26,0.33,359.97,0.01714671,0.1818195,-0.3411735
24665332,2.26,0.33,359.97,0.01721115,0.1831997,-0.3413201
24685287,2.26,0.32,359.97,0.01752291,0.1850076,-0.3420076
24705308,2.26,0.32,359.97,0.01751299,0.1868822,-0.342186
24725287,2.26,0.32,359.97,0.01765435,0.1883862,-0.3426085
24745302,2.26,0.33,359.97,0.01779019,0.1900103,-0.3431564
24765307,2.27,0.33,359.97,0.01795803,0.1917203,-0.343724
24785319,2.27,0.33,359.97,0.01852457,0.1933999,-0.3444115
24805340,2.27,0.33,359.97,0.01859186,0.1947037,-0.3449306
24825318,2.28,0.33,359.97,0.01890412,0.1963184,-0.3449502
24845275,2.28,0.33,359.97,0.01907509,0.1981404,-0.3453935
24865386,2.28,0.33,359.97,0.01950186,0.2000054,-0.3458106
24885287,2.28,0.33,359.97,0.02007091,0.201676,-0.3463666
24905316,2.28,0.33,359.97,0.02041273,0.2033134,-0.3469048
24925276,2.28,0.33,359.97,0.02069709,0.205245,-0.3468241
24945351,2.28,0.33,359.97,0.02075504,0.2068747,-0.3469527
24965347,2.28,0.33,359.97,0.02122111,0.2086045,-0.3470521
24985287,2.28,0.33,359.97,0.02133372,0.210254,-0.3471919
25005369,2.28,0.33,359.97,0.02147835,0.2117579,-0.347471
25025334,2.29,0.33,359.97,0.02185157,0.2134331,-0.3476938
25045287,2.29,0.33,359.97,0.0220493,0.215104,-0.3474304
25065305,2.29,0.33,359.97,0.02240704,0.2169502,-0.3475583
25085280,2.3,0.33,359.97,0.02234623,0.2186383,-0.3478902
25105306,2.3,0.34,359.97,0.02259787,0.2203915,-0.3481525
25125357,2.3,0.34,359.97,0.02253761,0.2221264,-0.3479984
25145280,2.3,0.34,359.97,0.02282228,0.2237701,-0.3479877
25165305,2.31,0.34,359.97,0.0230408,0.2255795,-0.348489
25185327,2.31,0.34,359.97,0.02333522,0.2271604,-0.3492219
25205332,2.31,0.34,359.97,0.02338184,0.2290992,-0.3497677
25225352,2.31,0.34,359.97,0.02371013,0.2306521,-0.3497205
25245288,2.31,0.34,359.97,0.02405433,0.232282,-0.3502991
25265362,2.32,0.33,359.97,0.02451469,0.2338849,-0.3509104
25285287,2.31,0.33,359.97,0.02478867,0.2356716,-0.3517996
25305330,2.32,0.33,359.97,0.0249473,0.2373312,-0.3525353
25325359,2.32,0.33,359.97,0.02519908,0.2390774,-0.3528142
25345287,2.32,0.33,359.97,0.02541992,0.2409929,-0.3532231
25365304,2.32,0.33,359.97,0.02591569,0.2425945,-0.3533063
25385317,2.32,0.33,359.97,0.02624849,0.2441849,-0.3533831
25405290,2.32,0.34,359.97,0.02645769,0.2457431,-0.3537467
25425332,2.32,0.34,359.97,0.02651418,0.2473133,-0.3537325
25445293,2.32,0.34,359.97,0.02660598,0.2492894,-0.3539371
25465337,2.32,0.34,359.97,0.02678827,0.2509201,-0.3538605
25485288,2.32,0.34,359.97,0.02727393,0.2527556,-0.354043
25505318,2.33,0.34,359.97,0.02762035,0.2543938,-0.3547125
25525298,2.33,0.34,359.97,0.02819598,0.2561548,-0.3552321
25545290,2.33,0.34,359.97,0.02887858,0.2579984,-0.355845
25565347,2.33,0.33,359.97,0.0289862,0.2599089,-0.3562416
25585288,2.33,0.34,359.97,0.02931904,0.2614857,-0.3569397
25605349,2.33,0.34,359.97,0.02985939,0.2633414,-0.3576272
25625291,2.33,0.34,359.97,0.03006051,0.2650855,-0.3579033
25645320,2.34,0.34,359.97,0.03046818,0.2668776,-0.3580498
25665337,2.34,0.34,359.97,0.03088117,0.2686689,-0.3586039
25685334,2.34,0.34,359.97,0.03116655,0.2704292,-0.358813
25705336,2.34,0.33,359.97,0.03110152,0.272107,-0.3595862
25725287,2.35,0.33,359.97,0.03126658,0.2740719,-0.3598371
25745339,2.35,0.34,359.97,0.03152085,0.2757828,-0.3598778
25765311,2.35,0.34,359.97,0.03225572,0.2774455,-0.3602404
25785294,2.35,0.33,359.96,0.0328965,0.2794438,-0.3610552
25805302,2.35,0.33,359.96,0.03349956,0.2812133,-0.3612737
25825305,2.35,0.33,359.96,0.03372891,0.2832077,-0.3614694
25845290,2.35,0.33,359.97,0.03420347,0.2849888,-0.3615257
25865312,2.35,0.34,359.97,0.0344048,0.2869151,-0.3619196
25885355,2.36,0.34,359.97,0.03511564,0.2884296,-0.3622127
25905343,2.36,0.34,359.97,0.03552575,0.2902815,-0.3629624
25925287,2.36,0.34,359.97,0.03581668,0.2922398,-0.3635187
25945294,2.36,0.34,359.97,0.03613046,0.2941329,-0.3637528
25965390,2.36,0.34,359.97,0.0370705,0.2958501,-0.3641407
25985287,2.36,0.34,359.97,0.03748852,0.2978981,-0.3649679
26005310,2.36,0.34,359.96,0.03785338,0.299582,-0.3645086
26025318,2.36,0.34,359.97,0.03814314,0.3011442,-0.3646938
26045319,2.36,0.34,359.97,0.03897401,0.3029715,-0.3646218
26065324,2.36,0.34,359.97,0.03941517,0.3046793,-0.3645023
26085342,2.37,0.34,359.97,0.04003812,0.3063132,-0.3646847
26105306,2.37,0.34,359.97,0.04043859,0.3079521,-0.3654213
26125287,2.37,0.34,359.97,0.04044269,0.309678,-0.3654584
26145301,2.37,0.34,359.97,0.04104549,0.3114016,-0.3655247
26165290,2.37,0.34,359.97,0.04186859,0.3132091,-0.3656833
26185293,2.37,0.34,359.97,0.04223439,0.3150078,-0.3659689
26205359,2.38,0.34,359.97,0.04276514,0.3167664,-0.3660165
26225329,2.38,0.34,359.97,0.04321018,0.3183001,-0.3658234
26245301,2.38,0.34,359.96,0.04345063,0.320241,-0.366092
26265317,2.38,0.33,359.96,0.04402054,0.3217376,-0.3666583
26285333,2.39,0.33,359.96,0.04445549,0.3236296,-0.3667834
26305349,2.39,0.33,359.96,0.04492977,0.3252574,-0.3671795
26325332,2.39,0.33,359.96,0.04549986,0.3265566,-0.3670111
26345371,2.39,0.33,359.96,0.04605014,0.3281721,-0.367388
26365290,2.39,0.33,359.97,0.04635772,0.3300523,-0.3676423
26385341,2.39,0.32,359.96,0.04667734,0.3316459,-0.3683714
26405348,2.39,0.32,359.96,0.04758346,0.3334137,-0.3691311
26425370,2.39,0.33,359.96,0.04812776,0.3351077,-0.3694897
26445324,2.39,0.32,359.96,0.04872179,0.3368337,-0.3701044
26465289,2.39,0.32,359.96,0.04902204,0.3385027,-0.3702841
26485294,2.39,0.33,359.96,0.04941209,0.3401287,-0.3705357
26505308,2.39,0.33,359.96,0.04991319,0.3418285,-0.3714368
26525339,2.4,0.33,359.97,0.05037355,0.3431962,-0.3716419
26545317,2.4,0.33,359.97,0.05101504,0.3447821,-0.3719745
26565343,2.4,0.33,359.97,0.05148563,0.3461238,-0.372226
26585335,2.4,0.33,359.97,0.05190432,0.3477797,-0.3726372
26605316,2.4,0.33,359.97,0.05239572,0.3495689,-0.373395
26625322,2.4,0.34,359.97,0.05336832,0.350736,-0.3733406
26645321,2.41,0.33,359.97,0.05371875,0.3522394,-0.3738068
26665293,2.41,0.34,359.97,0.05410472,0.3537636,-0.3737144
26685355,2.41,0.34,359.97,0.05419236,0.355439,-0.3740645
26705340,2.41,0.34,359.97,0.05486485,0.3572202,-0.3744171
26725333,2.41,0.33,359.97,0.05567825,0.3586566,-0.3742696
26745332,2.41,0.33,359.97,0.05627609,0.360229,-0.3744265
26765290,2.41,0.33,359.97,0.05719972,0.3616489,-0.3750036
26785294,2.41,0.34,359.97,0.05776464,0.3635153,-0.3755194
26805334,2.41,0.34,359.97,0.05819738,0.3652239,-0.3760118
26825303,2.41,0.33,359.97,0.05879198,0.3665446,-0.3762666
26845273,2.42,0.33,359.97,0.05941,0.367977,-0.3764179
26865326,2.42,0.33,359.97,0.05996405,0.3694866,-0.3764315
26885290,2.42,0.33,359.97,0.06051255,0.3709802,-0.3765626
26905308,2.42,0.33,359.97,0.06091108,0.3725974,-0.3769161
26925313,2.43,0.33,359.97,0.06158193,0.3737187,-0.3770474
26945314,2.43,0.33,359.97,0.06228204,0.3750406,-0.3767985
26965308,2.43,0.32,359.97,0.06261965,0.376389,-0.3769388
26985308,2.43,0.32,359.97,0.06312367,0.3779381,-0.3771347
27005374,2.43,0.33,359.97,0.06354465,0.3794406,-0.3776276
27025307,2.43,0.33,359.97,0.06405298,0.3806585,-0.3778632
27045272,2.43,0.32,359.97,0.06455521,0.3818479,-0.3778905
27065308,2.44,0.32,359.97,0.06521735,0.383104,-0.378214
27085338,2.44,0.32,359.97,0.06591717,0.3842972,-0.3788478
27105306,2.44,0.32,359.97,0.06628493,0.3860894,-0.3796202
27125303,2.44,0.32,359.97,0.06680587,0.3870788,-0.3798078
27145359,2.44,0.32,359.97,0.06746543,0.3884167,-0.3797842
27165332,2.45,0.32,359.97,0.06855511,0.3895333,-0.3796569
27185321,2.45,0.32,359.97,0.06936121,0.3908725,-0.3805379
27205308,2.45,0.32,359.97,0.07004893,0.3923276,-0.3810642
27225272,2.45,0.32,359.97,0.07094318,0.3932574,-0.3813615
27245320,2.45,0.32,359.97,0.07164012,0.3943293,-0.3813231
27265368,2.46,0.32,359.97,0.07255124,0.3952781,-0.3816826
27285287,2.46,0.32,359.97,0.07289615,0.3964206,-0.3821515
27305306,2.46,0.32,359.97,0.07305347,0.398134,-0.3832485
27325340,2.46,0.32,359.97,0.07362903,0.3991534,-0.3830835
27345287,2.46,0.32,359.97,0.0744214,0.4004338,-0.383279
27365337,2.46,0.32,359.97,0.07495257,0.4017611,-0.3832082
27385325,2.47,0.32,359.97,0.0753742,0.4031741,-0.383224
27405334,2.47,0.32,359.97,0.07565995,0.4046626,-0.3841013
27425272,2.47,0.33,359.97,0.07617647,0.4056575,-0.3837983
27445320,2.47,0.33,359.97,0.07701418,0.4068072,-0.3840868
27465342,2.47,0.33,359.97,0.077456,0.4079703,-0.3843721
27485299,2.47,0.33,359.97,0.07804868,0.4090733,-0.3850406
27505293,2.47,0.33,359.97,0.07876291,0.4105051,-0.3853361
27525323,2.47,0.33,359.97,0.07942455,0.4113584,-0.3853746
27545287,2.47,0.34,359.97,0.0799872,0.4124855,-0.3858919
27565318,2.48,0.34,359.97,0.08036627,0.4134616,-0.3858155
27585305,2.48,0.33,359.97,0.0809043,0.4146179,-0.3865376
27605383,2.48,0.33,359.97,0.08143061,0.4157926,-0.3873086
27625290,2.48,0.33,359.97,0.08207454,0.4166732,-0.3875218
27645357,2.48,0.33,359.97,0.08244172,0.4174789,-0.3878201
27665290,2.48,0.33,359.97,0.08316186,0.4183715,-0.3880268
27685293,2.48,0.33,359.97,0.08357244,0.4194094,-0.3881369
27705369,2.49,0.33,359.97,0.08446597,0.4204355,-0.3881587
27725300,2.49,0.32,359.97,0.08499768,0.4211137,-0.3881381
27745292,2.49,0.32,359.97,0.08568188,0.4218767,-0.3881676
27765305,2.49,0.33,359.97,0.08583763,0.4226289,-0.3881546
27785342,2.49,0.33,359.97,0.08635648,0.4234698,-0.3886297
27805360,2.5,0.33,359.97,0.08696065,0.4246638,-0.3888777
27825311,2.5,0.33,359.97,0.08714584,0.4249732,-0.3886664
27845324,2.5,0.33,359.97,0.08760781,0.4257329,-0.3886538
27865313,2.5,0.32,359.97,0.08830678,0.4268386,-0.3892151
27885272,2.5,0.33,359.97,0.08878036,0.4276215,-0.3893801
27905321,2.5,0.33,359.97,0.08926955,0.4288438,-0.3900301
27925341,2.51,0.33,359.97,0.08944412,0.4292971,-0.3900955
27945288,2.5,0.33,359.97,0.08970105,0.4300855,-0.3902251
27965343,2.5,0.33,359.97,0.0899345,0.4308623,-0.3904844
27985304,2.51,0.33,359.97,0.09041849,0.4315811,-0.3903816
28005307,2.51,0.32,359.97,0.09087371,0.4327368,-0.3910656
28025315,2.51,0.33,359.97,0.09168316,0.4331757,-0.3908685
28045315,2.51,0.33,359.97,0.09208505,0.4337464,-0.3903233
28065279,2.52,0.32,359.97,0.09279672,0.4346064,-0.390625
28085321,2.51,0.33,359.97,0.09337763,0.4354606,-0.3908755
28105345,2.52,0.33,359.97,0.09380864,0.4365788,-0.3911455
28125355,2.52,0.33,359.97,0.09441736,0.4369039,-0.3909497
28145274,2.52,0.33,359.97,0.0952308,0.4377652,-0.391313
28165374,2.52,0.33,359.97,0.09581696,0.4385312,-0.3913264
28185293,2.52,0.34,359.97,0.09609441,0.4397759,-0.3917981
28205325,2.52,0.34,359.97,0.09663875,0.4408012,-0.3918136
28225328,2.52,0.34,359.97,0.09734204,0.4412673,-0.3914087
28245288,2.52,0.34,359.97,0.09769639,0.4417522,-0.391191
28265325,2.52,0.34,359.97,0.09807671,0.4425278,-0.3910634
28285319,2.52,0.35,359.97,0.09865005,0.4433351,-0.3913616
28305306,2.52,0.34,359.96,0.09871802,0.4445814,-0.3918348
28325325,2.52,0.34,359.97,0.09886289,0.4449903,-0.391729
28345280,2.52,0.34,359.97,0.09937975,0.4456593,-0.391849
28365309,2.52,0.34,359.97,0.1001322,0.4464869,-0.3919765
28385320,2.53,0.35,359.97,0.1002088,0.4475679,-0.3922426
28405353,2.53,0.34,359.96,0.1007672,0.4484623,-0.3923865
28425287,2.53,0.35,359.96,0.1009833,0.4490412,-0.3919997
28445304,2.53,0.34,359.96,0.1016499,0.4498129,-0.3917718
28465349,2.53,0.34,359.96,0.1019657,0.4505645,-0.3914146
28485329,2.53,0.35,359.96,0.1023947,0.4518059,-0.391347
28505332,2.53,0.35,359.96,0.1025772,0.4530493,-0.3913749
28525306,2.54,0.35,359.96,0.102855,0.4534751,-0.3911231
28545313,2.53,0.36,359.96,0.1032164,0.4540665,-0.3906662
28565333,2.53,0.35,359.96,0.1034136,0.4547234,-0.3906653
28585346,2.53,0.35,359.96,0.1033186,0.4555933,-0.3907964
28605332,2.54,0.36,359.96,0.1034847,0.4566852,-0.3908798
28625291,2.54,0.36,359.96,0.1036402,0.4571667,-0.3906353
28645272,2.54,0.36,359.96,0.1036622,0.4576379,-0.3903723
28665370,2.54,0.36,359.96,0.1039366,0.4586254,-0.3904703
28685315,2.54,0.36,359.96,0.1041691,0.4594638,-0.3903811
28705344,2.54,0.36,359.96,0.1049724,0.4605325,-0.3902331
28725304,2.54,0.36,359.96,0.1048673,0.4608864,-0.3899905
28745313,2.54,0.36,359.96,0.1053755,0.4612661,-0.3896694
28765377,2.54,0.36,359.96,0.1055192,0.4619928,-0.3895971
28785346,2.54,0.37,359.95,0.1058478,0.4628274,-0.3893518
28805290,2.54,0.37,359.96,0.1060615,0.4640625,-0.3894643
28825317,2.54,0.37,359.96,0.1061854,0.4642788,-0.3890722
28845288,2.54,0.37,359.95,0.1064183,0.4645057,-0.388945
28865339,2.54,0.37,359.96,0.1063654,0.4651656,-0.3885917
28885327,2.54,0.37,359.96,0.1064332,0.4658562,-0.3885338
28905325,2.54,0.38,359.96,0.1067125,0.4670975,-0.3887593
28925345,2.53,0.38,359.96,0.1064215,0.4673159,-0.3884461
28945287,2.54,0.38,359.96,0.1060892,0.4676117,-0.3880544
28965341,2.54,0.38,359.96,0.1063503,0.4683129,-0.3877814
28985288,2.54,0.38,359.96,0.1065297,0.4692632,-0.3881542
29005290,2.54,0.38,359.96,0.1064333,0.4702373,-0.3885735
29025334,2.54,0.38,359.96,0.1065502,0.4700692,-0.3884357
29045317,2.54,0.38,359.96,0.1069105,0.4706372,-0.3882345
29065309,2.54,0.38,359.96,0.1065498,0.4713477,-0.3884648
29085320,2.54,0.38,359.96,0.1062192,0.4720113,-0.3889053
29105302,2.55,0.38,359.96,0.1062388,0.4728934,-0.3892147
29125320,2.55,0.39,359.96,0.1059511,0.4733459,-0.3893664
29145294,2.55,0.39,359.95,0.1060631,0.4737846,-0.3892433
29165351,2.55,0.39,359.96,0.1059913,0.4743457,-0.3891618
29185316,2.55,0.39,359.96,0.1064752,0.4751556,-0.3891454
29205298,2.55,0.39,359.96,0.1066056,0.4762093,-0.3890624
29225287,2.55,0.39,359.95,0.1067474,0.4765703,-0.3885973
29245287,2.55,0.39,359.96,0.1069148,0.4773461,-0.3876215
29265307,2.55,0.39,359.96,0.1072731,0.4783425,-0.387393
29285324,2.55,0.39,359.96,0.1073414,0.4793516,-0.3869488
29305293,2.55,0.39,359.96,0.10745,0.4807893,-0.3870115
29325289,2.55,0.4,359.95,0.1073903,0.4810354,-0.3859158
29345321,2.55,0.4,359.96,0.1073622,0.4816518,-0.3853162
29365339,2.55,0.4,359.96,0.1073149,0.4824322,-0.384646
29385290,2.56,0.4,359.95,0.1073548,0.483676,-0.3844844
29405336,2.56,0.4,359.95,0.1072847,0.4846636,-0.3840917
29425302,2.56,0.4,359.95,0.106856,0.484905,-0.3837097
29445299,2.56,0.4,359.95,0.1064598,0.4859189,-0.3835478
29465305,2.56,0.4,359.95,0.1064842,0.4867879,-0.3831042
29485272,2.56,0.4,359.95,0.1066219,0.4878279,-0.3830748
29505338,2.56,0.4,359.95,0.106584,0.488899,-0.3830846
29525289,2.56,0.4,359.95,0.1060771,0.4891673,-0.3824395
29545312,2.57,0.41,359.95,0.106188,0.4898083,-0.3825026
29565292,2.57,0.41,359.95,0.1061033,0.4907535,-0.3825728
29585378,2.57,0.41,359.95,0.1061174,0.4915727,-0.3827602
29605352,2.57,0.41,359.95,0.1063605,0.4927705,-0.3824643
29625356,2.57,0.42,359.95,0.1060176,0.4931442,-0.3818417
29645287,2.57,0.42,359.95,0.1054732,0.4935757,-0.3818135
29665290,2.57,0.42,359.95,0.1058529,0.4942652,-0.3817249
29685318,2.56,0.42,359.95,0.105775,0.4950479,-0.3815754
29705323,2.56,0.43,359.95,0.1057591,0.4961695,-0.3819111
29725287,2.57,0.43,359.95,0.1051624,0.49665,-0.3820876
29745333,2.57,0.43,359.95,0.1049706,0.4971466,-0.3822631
29765315,2.57,0.44,359.95,0.1046637,0.4977783,-0.3817481
29785287,2.57,0.44,359.95,0.1047855,0.4990008,-0.3816307
29805319,2.57,0.44,359.95,0.1044456,0.5003961,-0.3817579
29825321,2.57,0.44,359.95,0.1044677,0.5009123,-0.381408
29845321,2.57,0.44,359.95,0.1042054,0.5015952,-0.3810694
29865299,2.57,0.44,359.95,0.1043702,0.5024892,-0.3807867
29885355,2.57,0.44,359.95,0.1043094,0.5036433,-0.38066
29905385,2.57,0.43,359.94,0.1042499,0.5045924,-0.3805736
29925287,2.57,0.43,359.94,0.1041116,0.5053636,-0.3802148
29945293,2.57,0.43,359.94,0.1041602,0.5057902,-0.3796607
29965294,2.58,0.44,359.94,0.1039499,0.5069359,-0.3793399
29985325,2.58,0.44,359.94,0.103783,0.5080879,-0.3792759
30005340,2.58,0.44,359.94,0.1034572,0.5096524,-0.3791572
30025319,2.58,0.44,359.94,0.1031197,0.5104747,-0.3785312
30045363,2.58,0.44,359.94,0.1029879,0.5112637,-0.3777616
30065330,2.58,0.44,359.94,0.102859,0.5122011,-0.3773152
30085295,2.58,0.44,359.94,0.1025211,0.5135691,-0.3770779
30105306,2.58,0.44,359.94,0.1024026,0.5149592,-0.3770456
30125310,2.59,0.44,359.94,0.1021546,0.515767,-0.3768217
30145325,2.59,0.44,359.94,0.1021603,0.5164765,-0.3763645
30165293,2.59,0.44,359.94,0.1022042,0.5176754,-0.3758622
30185353,2.59,0.44,359.94,0.1018247,0.5191265,-0.3755124
30205361,2.59,0.44,359.94,0.1023302,0.5208626,-0.3758571
30225338,2.6,0.44,359.94,0.1020691,0.5211832,-0.3751609
30245293,2.6,0.44,359.94,0.101612,0.5221356,-0.3749303
30265323,2.59,0.44,359.94,0.1015646,0.5233138,-0.3746646
30285359,2.6,0.44,359.94,0.1012803,0.5247244,-0.3743956
30305343,2.59,0.45,359.94,0.1012967,0.5266005,-0.3742851
30325345,2.59,0.45,359.94,0.101213,0.5273034,-0.3732793
30345296,2.59,0.45,359.94,0.1008051,0.5285299,-0.372432
30365317,2.59,0.45,359.94,0.100656,0.5298972,-0.3721228
30385289,2.6,0.45,359.94,0.1005569,0.531411,-0.3715787
30405371,2.6,0.46,359.94,0.0999786,0.5332071,-0.3716481
30425287,2.6,0.46,359.94,0.09987187,0.5341766,-0.3709741
30445326,2.6,0.46,359.94,0.1001588,0.5352269,-0.3701771
30465296,2.6,0.45,359.94,0.1002709,0.5363869,-0.3693586
30485288,2.6,0.45,359.94,0.09997129,0.5380055,-0.3683979
30505361,2.6,0.45,359.94,0.1004783,0.5395902,-0.3681912
30525291,2.6,0.45,359.94,0.1006069,0.5405853,-0.3669959
30545324,2.6,0.44,359.94,0.100632,0.5418472,-0.3664389
30565290,2.6,0.44,359.94,0.1003572,0.5431864,-0.3661759
30585338,2.61,0.45,359.94,0.1000951,0.5448104,-0.3654461
30605333,2.61,0.45,359.94,0.1003653,0.5467159,-0.3645208
30625301,2.61,0.45,359.94,0.1002065,0.5476415,-0.3640455
30645287,2.61,0.46,359.94,0.10035,0.5489249,-0.3632087
30665305,2.61,0.46,359.94,0.1000792,0.5506175,-0.3625253
30685336,2.61,0.45,359.94,0.0998551,0.5521166,-0.3619351
30705308,2.61,0.45,359.94,0.09993752,0.5541537,-0.3613436
30725300,2.61,0.45,359.94,0.09969014,0.5550788,-0.3600601
30745355,2.61,0.46,359.94,0.09909237,0.5565022,-0.3591372
30765305,2.61,0.45,359.94,0.09926387,0.5580419,-0.3584843
30785362,2.61,0.46,359.94,0.09901039,0.5597739,-0.357881
30805324,2.61,0.46,359.94,0.09916656,0.5618241,-0.3572184
30825297,2.61,0.46,359.94,0.09894516,0.5627232,-0.3561608
30845294,2.61,0.46,359.94,0.09862,0.5641041,-0.3556163
30865323,2.62,0.46,359.94,0.09825357,0.5656648,-0.3551155
30885344,2.61,0.46,359.94,0.09821135,0.5673748,-0.3541637
30905338,2.61,0.47,359.94,0.09794674,0.5693074,-0.3539982
30925272,2.62,0.47,359.93,0.09759437,0.5705815,-0.3533373
30945336,2.62,0.47,359.93,0.09747627,0.5716148,-0.3528455
30965335,2.62,0.47,359.94,0.09733271,0.5734152,-0.3517798
30985313,2.62,0.47,359.93,0.09719937,0.5753886,-0.3510265
31005366,2.62,0.47,359.93,0.09702541,0.5774652,-0.3508731
31025272,2.62,0.47,359.93,0.09663793,0.5788953,-0.3499884
31045355,2.62,0.47,359.93,0.09641501,0.580068,-0.3496132
31065340,2.62,0.47,359.94,0.09640282,0.58196,-0.3490363
31085290,2.63,0.47,359.94,0.09611036,0.5837265,-0.34877
31105351,2.63,0.46,359.94,0.09626973,0.5857979,-0.3484981
31125319,2.63,0.46,359.94,0.09591553,0.5869251,-0.347908
31145324,2.63,0.46,359.94,0.09595242,0.5882024,-0.3471986
31165304,2.63,0.46,359.94,0.09600093,0.5897844,-0.3465271
31185306,2.63,0.47,359.94,0.09564871,0.5917742,-0.3465138
31205396,2.63,0.46,359.94,0.09570917,0.5937294,-0.3463981
31225287,2.63,0.46,359.94,0.0954833,0.5949535,-0.3455766
31245275,2.63,0.46,359.94,0.09546175,0.5961923,-0.3448046
31265349,2.63,0.46,359.93,0.09552112,0.5981837,-0.3445202
31285296,2.63,0.46,359.93,0.09560462,0.5999395,-0.344411
31305291,2.63,0.46,359.93,0.09553039,0.6020715,-0.3440712
31325295,2.63,0.46,359.93,0.09533349,0.6032581,-0.3432045
31345333,2.63,0.46,359.93,0.09526855,0.6047099,-0.3424634
31365306,2.63,0.46,359.93,0.09538079,0.6067734,-0.3417453
31385275,2.63,0.47,359.93,0.09524558,0.6086319,-0.3411504
31405310,2.63,0.47,359.93,0.09535182,0.6109208,-0.340786
31425317,2.63,0.46,359.93,0.09502747,0.6119206,-0.339869
31445316,2.63,0.46,359.93,0.09471104,0.6135099,-0.3393592
31465305,2.63,0.46,359.93,0.09459397,0.615401,-0.3387335
31485274,2.62,0.46,359.93,0.09424601,0.617269,-0.3383099
31505321,2.63,0.47,359.93,0.09428436,0.6193605,-0.3382006
31525320,2.63,0.46,359.94,0.09409881,0.6203058,-0.3371502
31545291,2.63,0.46,359.93,0.09400264,0.621968,-0.336185
31565306,2.63,0.46,359.93,0.09395068,0.6235998,-0.3354329
31585276,2.63,0.46,359.93,0.09382764,0.6256299,-0.3349852
31605375,2.63,0.46,359.94,0.09356254,0.6277353,-0.3347123
31625297,2.63,0.46,359.94,0.09334149,0.6287151,-0.3342026
31645323,2.63,0.46,359.94,0.09320185,0.630214,-0.3333346
31665318,2.63,0.46,359.94,0.09325598,0.631868,-0.3327542
31685303,2.64,0.46,359.93,0.09316299,0.6339605,-0.3328748
31705377,2.64,0.47,359.93,0.09289124,0.6362861,-0.332681
31725287,2.64,0.47,359.93,0.09302144,0.6372222,-0.3321086
31745287,2.64,0.46,359.93,0.09295733,0.6387077,-0.3313143
31765325,2.64,0.46,359.93,0.09282567,0.6404089,-0.3309345
31785346,2.64,0.47,359.93,0.09268252,0.6420955,-0.3302114
31805335,2.64,0.47,359.93,0.09242228,0.6440828,-0.3297098
31825287,2.64,0.47,359.93,0.0921689,0.6457209,-0.3292699
31845278,2.64,0.48,359.93,0.09229334,0.6472918,-0.3284601
31865359,2.64,0.48,359.93,0.09227156,0.6493242,-0.3279404
31885300,2.64,0.48,359.93,0.09231593,0.6511831,-0.3271699
31905326,2.64,0.48,359.93,0.09223624,0.6533613,-0.3269137
31925319,2.64,0.48,359.93,0.0918173,0.6545843,-0.3257692
31945329,2.64,0.48,359.93,0.09174307,0.6562502,-0.3252242
31965307,2.64,0.48,359.93,0.09145328,0.6582641,-0.3245335
31985297,2.64,0.48,359.93,0.09162957,0.6602675,-0.3239286
32005334,2.64,0.48,359.93,0.09167099,0.6624126,-0.3235475
32025290,2.64,0.49,359.93,0.09131599,0.6637318,-0.3231055
32045275,2.64,0.49,359.93,0.09095848,0.6652086,-0.3222388
32065356,2.64,0.49,359.93,0.09064507,0.6667741,-0.3215273
32085289,2.64,0.49,359.93,0.09008665,0.6688778,-0.3208996
32105345,2.64,0.49,359.93,0.09035182,0.6709467,-0.3206574
32125353,2.64,0.49,359.93,0.09021685,0.6721662,-0.3198227
32145277,2.64,0.49,359.93,0.09000228,0.6738765,-0.3189687
32165305,2.64,0.49,359.93,0.08986447,0.6755751,-0.3182747
32185319,2.64,0.49,359.93,0.08946107,0.6775486,-0.3178371
32205361,2.64,0.49,359.93,0.08920395,0.679785,-0.3173636
32225327,2.64,0.49,359.93,0.08877961,0.6807911,-0.3167293
32245276,2.64,0.49,359.93,0.08864617,0.682458,-0.3157911
32265311,2.64,0.49,359.93,0.08874056,0.6841424,-0.3150112
32285324,2.64,0.49,359.93,0.08869147,0.6863969,-0.3141987
32305346,2.64,0.5,359.93,0.08878341,0.6884668,-0.3138435
32325280,2.64,0.5,359.93,0.08858436,0.6899831,-0.3129179
32345317,2.64,0.5,359.93,0.0883287,0.6915045,-0.3122026
32365335,2.64,0.5,359.93,0.08800758,0.6932316,-0.3117369
32385353,2.64,0.5,359.93,0.08795452,0.6951229,-0.3111664
32405340,2.64,0.51,359.93,0.08773711,0.6974056,-0.310849
32425316,2.64,0.51,359.93,0.08726599,0.6990077,-0.3102791
32445345,2.64,0.51,359.93,0.08716309,0.7004858,-0.3097797
32465289,2.64,0.52,359.93,0.08735294,0.7021309,-0.3090152
32485313,2.64,0.52,359.93,0.0871285,0.7040126,-0.3084731
32505342,2.64,0.52,359.93,0.08712315,0.706127,-0.3079011
32525296,2.64,0.52,359.93,0.08703998,0.7075167,-0.3072695
32545334,2.64,0.52,359.93,0.08643603,0.7086095,-0.3066937
32565289,2.64,0.52,359.93,0.08633482,0.7105876,-0.3056045
32585292,2.64,0.52,359.93,0.08618942,0.7125393,-0.3048028
32605314,2.64,0.52,359.93,0.08589868,0.7147524,-0.3043768
32625290,2.64,0.53,359.92,0.08580085,0.7162252,-0.3028479
32645314,2.64,0.53,359.92,0.08564326,0.7173385,-0.3016691
32665289,2.64,0.53,359.92,0.08584239,0.7191755,-0.3005129
32685288,2.64,0.53,359.92,0.08563209,0.7213705,-0.2997546
32705339,2.64,0.53,359.92,0.08554093,0.7236216,-0.2990057
32725373,2.64,0.53,359.92,0.08525073,0.7247849,-0.2981277
32745331,2.64,0.53,359.92,0.08515023,0.7260009,-0.2976127
32765318,2.64,0.53,359.92,0.08489664,0.7281591,-0.297022
32785317,2.64,0.53,359.92,0.08448894,0.7301942,-0.2964258
32805306,2.64,0.53,359.92,0.08427206,0.7325659,-0.2960714
32825331,2.64,0.53,359.92,0.0840735,0.7335148,-0.2951843
32845290,2.64,0.53,359.92,0.08364888,0.7349814,-0.2947943
32865327,2.64,0.53,359.93,0.0837133,0.7367643,-0.2939231
32885293,2.64,0.53,359.93,0.0837123,0.7387181,-0.2933365
32905318,2.64,0.53,359.93,0.08327371,0.7406626,-0.2929235
32925354,2.63,0.53,359.92,0.08325505,0.7416162,-0.2922125
32945288,2.63,0.53,359.93,0.08312538,0.7429435,-0.2915552
32965329,2.63,0.53,359.93,0.08291164,0.7447922,-0.2914775
32985317,2.63,0.53,359.93,0.08284032,0.746724,-0.2909665
33005306,2.63,0.53,359.93,0.08285759,0.7488042,-0.2906141
33025289,2.63,0.53,359.93,0.08243085,0.7495698,-0.290356
33045287,2.62,0.54,359.93,0.08249242,0.7508931,-0.2897576
33065330,2.63,0.54,359.93,0.08223148,0.7522885,-0.2891828
33085289,2.63,0.54,359.92,0.08196736,0.7544326,-0.2884241
33105378,2.63,0.54,359.93,0.08179197,0.7564948,-0.2881969
33125292,2.63,0.54,359.93,0.08127496,0.7576559,-0.2872386
33145287,2.63,0.54,359.92,0.08085721,0.7590191,-0.2862142
33165345,2.63,0.54,359.92,0.08098159,0.7606205,-0.285406
33185287,2.63,0.54,359.93,0.08092306,0.7625296,-0.2846299
33205314,2.63,0.54,359.93,0.08115657,0.7647368,-0.2843726
33225300,2.63,0.54,359.92,0.08089608,0.7657638,-0.2838027
33245313,2.63,0.54,359.93,0.08086817,0.7673126,-0.2827484
33265312,2.63,0.55,359.92,0.08058022,0.7690427,-0.2823007
33285287,2.63,0.55,359.93,0.08001913,0.7710271,-0.2815833
33305291,2.63,0.55,359.93,0.07971361,0.7733048,-0.2809788
33325306,2.63,0.55,359.93,0.07904851,0.7740948,-0.2806517
33345294,2.63,0.55,359.93,0.07896057,0.7758009,-0.2802801
33365354,2.63,0.56,359.93,0.0792127,0.7773237,-0.2792235
33385274,2.63,0.55,359.93,0.0788442,0.7792267,-0.2785037
33405349,2.63,0.56,359.93,0.07894015,0.7815346,-0.2781737
33425345,2.63,0.56,359.93,0.07870491,0.7824684,-0.2773366
33445290,2.63,0.56,359.93,0.07863028,0.7838408,-0.2764655
33465308,2.63,0.56,359.93,0.07866209,0.7856222,-0.2756878
33485338,2.63,0.56,359.93,0.07874497,0.7875171,-0.2752481
33505350,2.63,0.56,359.93,0.07868148,0.7896016,-0.2748739
33525289,2.63,0.56,359.93,0.07868582,0.7908672,-0.2741023
33545339,2.63,0.56,359.93,0.07838336,0.7923808,-0.2734977
33565296,2.63,0.56,359.93,0.07850973,0.7938662,-0.2731348
33585311,2.63,0.57,359.92,0.07812061,0.7957224,-0.2725492
33605307,2.63,0.57,359.92,0.07798432,0.7981403,-0.2720297
33625323,2.63,0.57,359.92,0.07782225,0.7991941,-0.2710964
33645293,2.63,0.57,359.92,0.07769866,0.8009142,-0.2706822
33665321,2.63,0.57,359.92,0.07726266,0.8024157,-0.2699709
33685362,2.62,0.58,359.92,0.07734573,0.8044317,-0.269446
33705321,2.62,0.57,359.92,0.07718022,0.8067791,-0.2688181
33725296,2.62,0.58,359.92,0.07703823,0.8077297,-0.2676786
33745322,2.62,0.58,359.92,0.07677953,0.8090994,-0.2668042
33765336,2.63,0.58,359.92,0.07674483,0.8108757,-0.2661846
33785314,2.63,0.58,359.92,0.07673829,0.8127789,-0.2657817
33805347,2.63,0.58,359.92,0.07646336,0.8151019,-0.265439
33825323,2.63,0.58,359.92,0.07583974,0.8162252,-0.264261
33845326,2.63,0.58,359.92,0.07538453,0.8174342,-0.2634609
33865341,2.63,0.58,359.92,0.07533982,0.8190627,-0.2626069
33885350,2.63,0.58,359.92,0.0747666,0.8212706,-0.2625075
33905369,2.63,0.59,359.92,0.0746789,0.8233163,-0.2620441
33925292,2.63,0.59,359.92,0.07444254,0.8243127,-0.2607265
33945289,2.63,0.6,359.92,0.07412979,0.8258724,-0.2597691
33965293,2.63,0.59,359.92,0.07429727,0.8276671,-0.2590501
33985321,2.63,0.59,359.92,0.07419572,0.82922,-0.258416
34005312,2.63,0.6,359.92,0.0742784,0.8315011,-0.2576482
34025290,2.63,0.6,359.92,0.07413304,0.8325341,-0.2563713
34045293,2.63,0.6,359.92,0.07399523,0.8338366,-0.2561327
34065356,2.63,0.59,359.92,0.07400408,0.8352233,-0.2553462
34085318,2.63,0.6,359.92,0.07383065,0.8369325,-0.2547587
34105309,2.63,0.6,359.92,0.07378246,0.8389829,-0.25469
34125323,2.63,0.6,359.92,0.07339992,0.8397181,-0.2537637
34145314,2.63,0.6,359.92,0.07325228,0.8410378,-0.2527978
34165289,2.63,0.6,359.92,0.07283826,0.8426179,-0.2523197
34185287,2.63,0.6,359.92,0.07230582,0.8444825,-0.251826
34205356,2.63,0.6,359.92,0.07206885,0.8465081,-0.251288
34225324,2.63,0.61,359.92,0.07178438,0.8475183,-0.2504974
34245288,2.63,0.6,359.92,0.07177854,0.848686,-0.2495833
34265292,2.63,0.6,359.92,0.07132009,0.8502147,-0.2494814
34285314,2.62,0.6,359.92,0.07093168,0.8518311,-0.2492545
34305308,2.62,0.6,359.92,0.07107424,0.8540752,-0.2486459
34325289,2.63,0.6,359.92,0.07095639,0.8548801,-0.2478819
34345318,2.63,0.6,359.92,0.07086921,0.8561139,-0.2469431
34365289,2.63,0.6,359.92,0.07086574,0.8577642,-0.2461621
34385289,2.63,0.6,359.92,0.07068327,0.8595471,-0.2457508
34405388,2.63,0.6,359.92,0.07073111,0.8617026,-0.2454994
34425304,2.63,0.6,359.91,0.07040457,0.8624041,-0.24457
34445275,2.63,0.6,359.91,0.07017365,0.8634858,-0.2437666
34465331,2.63,0.6,359.91,0.07015708,0.8653286,-0.2434224
34485327,2.63,0.6,359.91,0.06974911,0.8670307,-0.242969
34505300,2.63,0.6,359.91,0.06965219,0.8693089,-0.242537
34525287,2.64,0.6,359.91,0.06931534,0.8702172,-0.2415771
34545354,2.64,0.6,359.91,0.06892167,0.8714523,-0.2405291
34565306,2.64,0.6,359.92,0.06873947,0.8733376,-0.2399898
34585272,2.64,0.6,359.92,0.06850864,0.8750269,-0.2393195
34605337,2.64,0.6,359.92,0.06847821,0.8771909,-0.2390035
34625361,2.64,0.6,359.92,0.06837143,0.8780271,-0.2383318
34645294,2.63,0.6,359.92,0.06831269,0.8792662,-0.2371989
34665338,2.63,0.61,359.92,0.0681175,0.8808441,-0.2365173
34685317,2.63,0.6,359.92,0.0677815,0.8827721,-0.2360702
34705350,2.63,0.61,359.91,0.06777854,0.8850359,-0.235631
34725308,2.63,0.61,359.92,0.06781627,0.8858998,-0.234731
34745287,2.63,0.61,359.92,0.06730361,0.8871204,-0.2338409
34765345,2.63,0.61,359.91,0.06709454,0.888367,-0.233117
34785296,2.63,0.61,359.92,0.06713554,0.890644,-0.2327734
34805340,2.63,0.61,359.92,0.06709713,0.892361,-0.2319998
34825272,2.64,0.61,359.91,0.06671046,0.8931267,-0.2311655
34845334,2.63,0.62,359.92,0.0665293,0.8941053,-0.2302373
34865341,2.64,0.61,359.91,0.06633313,0.895453,-0.2296594
34885327,2.64,0.61,359.91,0.06650468,0.8971642,-0.2287156
34905330,2.64,0.61,359.91,0.06649499,0.8992297,-0.2279759
34925299,2.64,0.61,359.91,0.06647331,0.8998787,-0.2271403
34945287,2.64,0.61,359.91,0.06628984,0.9010257,-0.2265897
34965318,2.64,0.61,359.91,0.06630492,0.9023638,-0.2262686
34985292,2.64,0.61,359.91,0.06627302,0.9045659,-0.2259363
35005319,2.64,0.61,359.91,0.06629183,0.9065414,-0.2254795
35025291,2.64,0.61,359.91,0.06612423,0.9071112,-0.2250467
35045321,2.64,0.61,359.91,0.06607308,0.9082443,-0.2241168
35065313,2.64,0.61,359.91,0.06567394,0.9095537,-0.2232849
35085290,2.64,0.61,359.91,0.06559689,0.9113431,-0.2228772
35105367,2.64,0.61,359.91,0.06516489,0.9134504,-0.2226117
35125304,2.64,0.61,359.91,0.06486778,0.9140987,-0.2219193
35145289,2.64,0.62,359.91,0.06454909,0.9153557,-0.2212189
35165335,2.64,0.62,359.91,0.06455017,0.9166892,-0.2205119
35185296,2.65,0.62,359.91,0.06458314,0.9185907,-0.2201616
35205308,2.65,0.62,359.91,0.06476204,0.9205654,-0.2199785
35225297,2.65,0.62,359.91,0.06491023,0.9214103,-0.2188385
35245317,2.64,0.62,359.91,0.06518159,0.9224811,-0.2178173
35265337,2.64,0.62,359.91,0.06517036,0.9239436,-0.2172851
35285272,2.64,0.62,359.91,0.06524745,0.9258454,-0.2167612
35305306,2.64,0.62,359.91,0.06534207,0.9278688,-0.2163148
35325346,2.64,0.62,359.91,0.06512098,0.9285267,-0.2157956
35345336,2.64,0.63,359.91,0.06472483,0.9291665,-0.2150893
35365305,2.64,0.64,359.91,0.06440283,0.9307085,-0.2142082
35385337,2.64,0.64,359.91,0.06411225,0.9325088,-0.2133914
35405306,2.64,0.64,359.91,0.06397269,0.9345398,-0.2132139
35425287,2.64,0.64,359.91,0.06392186,0.9350712,-0.2122935
35445358,2.64,0.64,359.91,0.0638112,0.9358743,-0.2118319
35465338,2.64,0.64,359.9,0.06347097,0.937273,-0.2110378
35485272,2.64,0.64,359.9,0.06343194,0.9388657,-0.2104759
35505340,2.64,0.64,359.9,0.06327622,0.9407339,-0.2098958
35525352,2.64,0.64,359.9,0.06288267,0.9413316,-0.2092252
35545290,2.64,0.64,359.9,0.06270082,0.942333,-0.208321
35565272,2.64,0.64,359.9,0.06242667,0.9439403,-0.2079816
35585287,2.64,0.64,359.9,0.06180796,0.94582,-0.2073932
35605356,2.64,0.64,359.9,0.06171592,0.9476591,-0.2069413
35625330,2.64,0.64,359.9,0.06143365,0.9480748,-0.206058
35645320,2.64,0.64,359.9,0.06143441,0.9489314,-0.2058064
35665307,2.64,0.64,359.9,0.06144336,0.9500961,-0.2054482
35685287,2.64,0.64,359.9,0.06127879,0.9519359,-0.2049162
35705338,2.63,0.64,359.9,0.06093441,0.9539338,-0.2047133
35725354,2.63,0.64,359.9,0.06066886,0.9541393,-0.2036433
35745274,2.63,0.64,359.9,0.0605971,0.9552886,-0.2033041
35765343,2.63,0.64,359.9,0.06028559,0.9563831,-0.2027617
35785316,2.63,0.64,359.9,0.06006518,0.9577634,-0.2017906
35805342,2.63,0.65,359.9,0.06012667,0.9596533,-0.2016559
35825329,2.63,0.65,359.9,0.06026852,0.9600976,-0.2008442
35845302,2.63,0.65,359.9,0.05965492,0.9610068,-0.2006473
35865313,2.63,0.65,359.9,0.05934466,0.9624226,-0.2000079
35885320,2.63,0.65,359.9,0.05921454,0.9639149,-0.1993414
35905316,2.63,0.64,359.9,0.05939421,0.9660292,-0.1988072
35925317,2.62,0.64,359.9,0.0590375,0.9662935,-0.1980102
35945309,2.62,0.64,359.9,0.05878516,0.9667957,-0.1977878
35965336,2.62,0.64,359.9,0.05892032,0.9682453,-0.1973401
35985331,2.62,0.65,359.9,0.05870087,0.9698554,-0.1971072
36005310,2.62,0.65,359.9,0.05859968,0.971909,-0.1967936
36025289,2.62,0.65,359.9,0.0584367,0.972355,-0.196196
36045308,2.62,0.65,359.9,0.05828079,0.9730036,-0.1954418
36065321,2.62,0.65,359.9,0.05813993,0.9740613,-0.1949585
36085299,2.62,0.65,359.9,0.05819601,0.9756445,-0.194738
36105310,2.62,0.65,359.89,0.05817202,0.9776973,-0.1948447
36125332,2.62,0.66,359.89,0.05820353,0.977865,-0.1943112
36145300,2.62,0.66,359.89,0.05765436,0.9787362,-0.1939128
36165309,2.62,0.66,359.89,0.05733624,0.9797589,-0.1937172
36185333,2.61,0.66,359.89,0.05738774,0.9813102,-0.1935539
36205324,2.61,0.66,359.89,0.0569862,0.9830135,-0.1934469
36225275,2.61,0.66,359.89,0.05670344,0.9833876,-0.1926663
36245287,2.61,0.66,359.89,0.05642322,0.984511,-0.1919399
36265403,2.61,0.66,359.9,0.05584909,0.9856077,-0.1915385
36285290,2.61,0.66,359.89,0.05595339,0.986944,-0.1911585
36305326,2.61,0.66,359.89,0.05572936,0.9888394,-0.1911038
36325363,2.61,0.66,359.9,0.0553818,0.9891294,-0.1905004
36345287,2.61,0.66,359.89,0.05479662,0.9900281,-0.1898307
36365377,2.61,0.66,359.89,0.05476384,0.9909813,-0.1893355
36385320,2.61,0.66,359.89,0.05464385,0.9924779,-0.1891262
36405291,2.61,0.66,359.9,0.05475252,0.994445,-0.1883755
36425292,2.61,0.66,359.9,0.05456534,0.9947736,-0.1875762
36445300,2.6,0.66,359.9,0.05425846,0.9956619,-0.1870206
36465322,2.6,0.66,359.89,0.05393489,0.9963387,-0.1863523
36485289,2.6,0.66,359.9,0.05380508,0.9981658,-0.1858088
36505370,2.6,0.66,359.9,0.05375715,0.9998187,-0.185117
36525287,2.6,0.67,359.9,0.05343232,1.000289,-0.1847748
36545329,2.6,0.67,359.89,0.0531516,1.000921,-0.1847158
36565346,2.6,0.67,359.9,0.05282103,1.002281,-0.1843171
36585338,2.6,0.67,359.9,0.05281788,1.003637,-0.1836706
36605320,2.6,0.67,359.89,0.05271981,1.005862,-0.1833323
36625287,2.6,0.67,359.89,0.05232396,1.005901,-0.1829651
36645316,2.6,0.67,359.89,0.05232818,1.006511,-0.1819606
36665313,2.6,0.67,359.89,0.05202909,1.00742,-0.1811426
36685325,2.6,0.66,359.89,0.0516558,1.008788,-0.1807629
36705380,2.6,0.66,359.89,0.05185898,1.010382,-0.1800993
36725306,2.6,0.67,359.89,0.05153176,1.010682,-0.1793762
36745288,2.6,0.67,359.89,0.05123278,1.011331,-0.1789419
36765331,2.6,0.67,359.89,0.05111368,1.012258,-0.1785431
36785333,2.6,0.67,359.89,0.05091234,1.013528,-0.1781494
36805290,2.6,0.67,359.89,0.0509693,1.015198,-0.1777511
36825366,2.59,0.67,359.89,0.05106124,1.015393,-0.1771986
36845303,2.59,0.67,359.89,0.05116431,1.01613,-0.1767592
36865331,2.59,0.68,359.89,0.05105698,1.016868,-0.1759573
36885287,2.59,0.68,359.89,0.05107367,1.018415,-0.1753336
36905331,2.59,0.68,359.89,0.05103454,1.019907,-0.1750804
36925319,2.59,0.68,359.89,0.05084956,1.019808,-0.174334
36945319,2.59,0.68,359.89,0.05074386,1.020205,-0.1737292
36965319,2.59,0.68,359.89,0.05053967,1.021405,-0.1734924
36985288,2.59,0.68,359.89,0.05042914,1.022732,-0.1728662
37005319,2.59,0.69,359.89,0.05030706,1.024603,-0.1724364
37025320,2.59,0.68,359.89,0.05023389,1.0247,-0.1713738
37045314,2.59,0.68,359.89,0.05009704,1.025414,-0.1705953
37065337,2.59,0.68,359.89,0.04981406,1.026223,-0.1700453
37085321,2.59,0.68,359.89,0.04941776,1.027604,-0.1692736
37105369,2.59,0.68,359.89,0.04943816,1.029206,-0.1689007
37125328,2.59,0.68,359.89,0.04916395,1.029563,-0.1685083
37145315,2.59,0.69,359.89,0.04894355,1.030154,-0.1676347
37165332,2.58,0.69,359.89,0.04887431,1.031288,-0.1673501
37185316,2.59,0.69,359.89,0.04887603,1.032873,-0.1666185
37205292,2.59,0.69,359.89,0.04883611,1.034778,-0.1660964
37225324,2.59,0.69,359.89,0.0486672,1.035191,-0.1655911
37245357,2.58,0.69,359.89,0.04861797,1.035612,-0.1650648
37265312,2.58,0.69,359.89,0.04865874,1.036662,-0.1649366
37285337,2.59,0.69,359.89,0.04851921,1.037895,-0.1641327
37305328,2.59,0.69,359.89,0.04858065,1.039409,-0.1637017
37325292,2.59,0.68,359.89,0.0484629,1.039729,-0.1624635
37345293,2.59,0.69,359.89,0.04835466,1.040093,-0.1617038
37365305,2.58,0.69,359.89,0.04831631,1.041115,-0.1609019
37385275,2.58,0.69,359.89,0.04817107,1.042342,-0.1604804
37405318,2.58,0.68,359.89,0.04805714,1.044119,-0.1597497
37425290,2.58,0.68,359.89,0.04818377,1.043755,-0.1585121
37445348,2.58,0.68,359.89,0.04833866,1.044153,-0.1581825
37465309,2.58,0.68,359.9,0.04834196,1.04534,-0.157456
37485273,2.58,0.68,359.9,0.04801249,1.046663,-0.1564746
37505373,2.58,0.68,359.9,0.04802588,1.048271,-0.1558629
37525301,2.57,0.69,359.9,0.04778574,1.048315,-0.1550717
37545326,2.57,0.69,359.89,0.04740283,1.048588,-0.1543852
37565314,2.57,0.69,359.89,0.0475002,1.049788,-0.1537841
37585315,2.58,0.69,359.9,0.04751226,1.050822,-0.1531343
37605336,2.58,0.69,359.89,0.0475562,1.052284,-0.1528474
37625291,2.58,0.69,359.89,0.04750718,1.052452,-0.152144
37645287,2.58,0.69,359.89,0.04734819,1.053151,-0.1518057
37665317,2.58,0.69,359.89,0.04717352,1.054047,-0.1511641
37685299,2.58,0.69,359.89,0.04717743,1.054994,-0.1508972
37705305,2.58,0.69,359.89,0.04692333,1.056862,-0.1505809
37725290,2.57,0.69,359.89,0.04673901,1.056524,-0.1495947
37745355,2.57,0.69,359.89,0.04658923,1.056955,-0.1492913
37765296,2.57,0.69,359.89,0.04653896,1.058035,-0.1485595
37785287,2.57,0.69,359.89,0.04647148,1.059178,-0.1480588
37805366,2.57,0.7,359.89,0.04650942,1.06073,-0.1479125
37825289,2.57,0.7,359.89,0.04617643,1.06056,-0.1476791
37845317,2.57,0.7,359.89,0.04591494,1.060846,-0.1472156
37865297,2.57,0.7,359.89,0.04597496,1.061591,-0.1467873
37885287,2.57,0.71,359.89,0.04561423,1.062653,-0.1466929
37905340,2.57,0.7,359.89,0.04550542,1.064275,-0.1462249
37925359,2.57,0.7,359.89,0.0452319,1.06407,-0.1456032
37945321,2.57,0.7,359.89,0.04513084,1.064568,-0.1449049
37965333,2.57,0.7,359.89,0.04492439,1.065205,-0.144764
37985319,2.57,0.7,359.89,0.04447143,1.066595,-0.1442106
38005333,2.57,0.7,359.89,0.04435052,1.068236,-0.1437253
38025316,2.57,0.7,359.89,0.04422516,1.067863,-0.1434539
38045289,2.57,0.7,359.89,0.04433168,1.068266,-0.1430624
38065319,2.57,0.7,359.89,0.04445194,1.069116,-0.1418895
38085344,2.57,0.7,359.89,0.04417096,1.070387,-0.1411633
38105306,2.57,0.7,359.89,0.04423365,1.072039,-0.1409464
38125288,2.57,0.7,359.89,0.04409574,1.071527,-0.1404145
38145321,2.57,0.7,359.89,0.04407118,1.071836,-0.1399285
38165289,2.57,0.7,359.89,0.04399601,1.072746,-0.1389238
38185299,2.57,0.7,359.89,0.04388137,1.074341,-0.1382698
38205314,2.57,0.7,359.89,0.04394219,1.075848,-0.1380727
38225305,2.57,0.7,359.89,0.04355107,1.075528,-0.1373832
38245298,2.57,0.7,359.89,0.04350394,1.075869,-0.1369275
38265295,2.57,0.7,359.89,0.0434088,1.076787,-0.1365058
38285313,2.57,0.7,359.89,0.04329597,1.078112,-0.1360383
38305310,2.57,0.71,359.89,0.04329905,1.079478,-0.1353471
38325290,2.57,0.71,359.89,0.04341019,1.079039,-0.134508
38345321,2.57,0.71,359.89,0.04301615,1.079515,-0.1337655
38365316,2.57,0.71,359.89,0.04269044,1.080061,-0.1332998
38385342,2.56,0.7,359.89,0.04262619,1.081359,-0.1329386
38405363,2.57,0.7,359.89,0.04273716,1.082737,-0.1325096
38425328,2.57,0.7,359.89,0.04265927,1.082791,-0.1317043
38445325,2.56,0.71,359.89,0.04238407,1.08316,-0.1309867
38465292,2.56,0.71,359.89,0.04257499,1.083804,-0.1304404
38485360,2.56,0.71,359.89,0.04245454,1.084968,-0.1301451
38505322,2.56,0.71,359.89,0.04227587,1.086512,-0.1298727
38525318,2.56,0.71,359.89,0.04213104,1.086785,-0.1293032
38545322,2.55,0.72,359.89,0.04188809,1.087046,-0.1287414
38565332,2.56,0.72,359.89,0.04190611,1.087676,-0.1284267
38585287,2.55,0.72,359.89,0.04187789,1.088897,-0.1277505
38605377,2.55,0.72,359.89,0.04168341,1.09024,-0.1273289
38625303,2.55,0.72,359.89,0.04150932,1.090135,-0.1265518
38645325,2.55,0.72,359.89,0.04151451,1.090137,-0.1258085
38665315,2.55,0.72,359.89,0.04152744,1.090761,-0.1256671
38685287,2.55,0.72,359.89,0.04156391,1.091822,-0.1253961
38705383,2.55,0.73,359.89,0.0416877,1.093173,-0.1250923
38725286,2.55,0.73,359.89,0.04144324,1.092924,-0.1247805
38745289,2.55,0.73,359.89,0.04130147,1.093063,-0.1245947
38765293,2.55,0.73,359.89,0.04101108,1.093552,-0.1245998
38785304,2.55,0.73,359.89,0.0410049,1.094478,-0.1246374
38805374,2.55,0.73,359.89,0.04108712,1.095598,-0.1244377
38825298,2.55,0.73,359.89,0.04139674,1.095603,-0.1243679
38845290,2.55,0.74,359.89,0.04138172,1.095569,-0.1238676
38865324,2.55,0.73,359.89,0.04106612,1.096161,-0.123235
38885353,2.55,0.74,359.89,0.04098061,1.096984,-0.122302
38905308,2.55,0.74,359.89,0.0407076,1.098558,-0.1220553
38925317,2.54,0.74,359.89,0.04087882,1.098166,-0.1217077
38945281,2.54,0.74,359.89,0.04098034,1.098146,-0.1214219
38965308,2.54,0.74,359.89,0.04091488,1.098919,-0.1213197
38985287,2.54,0.74,359.89,0.04090979,1.099521,-0.1213287
39005315,2.54,0.74,359.89,0.04043647,1.101214,-0.1210156
39025280,2.54,0.74,359.89,0.04034572,1.100817,-0.1204776
39045319,2.54,0.74,359.89,0.04029471,1.101026,-0.1200581
39065354,2.54,0.74,359.88,0.03990269,1.10171,-0.1198121
39085290,2.54,0.74,359.88,0.03983985,1.102691,-0.1195149
39105350,2.54,0.74,359.88,0.03960787,1.104017,-0.1192259
39125272,2.54,0.75,359.88,0.0396634,1.103707,-0.1183824
39145353,2.54,0.75,359.88,0.03981955,1.103683,-0.1179364
39165340,2.53,0.75,359.88,0.039506,1.104235,-0.1171354
39185293,2.53,0.76,359.88,0.03913487,1.105516,-0.1165218
39205310,2.53,0.76,359.88,0.03915642,1.107074,-0.1162932
39225272,2.53,0.76,359.89,0.03862149,1.106752,-0.1157656
39245367,2.53,0.76,359.89,0.03834771,1.106997,-0.1153604
39265307,2.53,0.77,359.89,0.03837566,1.107639,-0.1148705
39285316,2.53,0.77,359.89,0.03816521,1.108495,-0.1143754
39305338,2.53,0.77,359.89,0.03821719,1.110008,-0.114326
39325299,2.53,0.77,359.89,0.03793435,1.109419,-0.113792
39345287,2.53,0.77,359.89,0.03726719,1.109607,-0.113501
39365308,2.52,0.77,359.89,0.03744377,1.110152,-0.1128356
39385289,2.52,0.78,359.89,0.03713486,1.11104,-0.1119458
39405351,2.52,0.77,359.89,0.03660455,1.112317,-0.111537
39425308,2.52,0.78,359.89,0.03623481,1.111715,-0.1113958
39445345,2.52,0.78,359.89,0.03600064,1.11189,-0.1111013
39465333,2.52,0.78,359.89,0.03560853,1.112227,-0.1110286
39485311,2.52,0.78,359.89,0.0355315,1.113154,-0.1106817
39505293,2.51,0.78,359.89,0.03527922,1.114605,-0.1101948
39525350,2.51,0.79,359.89,0.03472773,1.114013,-0.1097196
39545321,2.51,0.78,359.89,0.03476833,1.114121,-0.1089749
39565348,2.51,0.78,359.89,0.03466076,1.114204,-0.1087973
39585272,2.5,0.79,359.89,0.03436084,1.115125,-0.1090792
39605356,2.5,0.79,359.89,0.03411064,1.116524,-0.1090068
39625292,2.5,0.78,359.88,0.0335874,1.116114,-0.1089961
39645348,2.5,0.79,359.89,0.03332546,1.116015,-0.1079205
39665329,2.5,0.79,359.89,0.03336835,1.116181,-0.1076167
39685287,2.5,0.79,359.89,0.03295179,1.117174,-0.1070177
39705354,2.5,0.79,359.89,0.03316991,1.118309,-0.1068172
39725287,2.5,0.79,359.88,0.03294749,1.118134,-0.1062206
39745287,2.5,0.79,359.88,0.03257149,1.117968,-0.1058111
39765333,2.5,0.79,359.88,0.03210506,1.118241,-0.1049654
39785307,2.49,0.79,359.88,0.03174732,1.119101,-0.1047182
39805386,2.49,0.79,359.88,0.03163798,1.119993,-0.1043394
39825287,2.49,0.79,359.88,0.03161736,1.119431,-0.1037767
39845322,2.49,0.79,359.88,0.0311141,1.119298,-0.1037538
39865386,2.49,0.79,359.88,0.03091717,1.119533,-0.1033241
39885273,2.49,0.79,359.88,0.03116131,1.12048,-0.1032077
39905357,2.49,0.8,359.88,0.03106543,1.121607,-0.1028833
39925299,2.49,0.8,359.88,0.03081859,1.120837,-0.1026608
39945287,2.49,0.8,359.88,0.03059915,1.120967,-0.1021603
39965337,2.49,0.8,359.87,0.03009722,1.121443,-0.101791
39985303,2.48,0.8,359.87,0.02984132,1.12224,-0.1015894
40005346,2.48,0.8,359.88,0.0296332,1.123225,-0.101054
40025318,2.48,0.8,359.87,0.02963007,1.122628,-0.100752
40045361,2.48,0.81,359.87,0.02942564,1.122277,-0.100273
40065305,2.48,0.81,359.87,0.02908723,1.122912,-0.0999002
40085316,2.48,0.8,359.87,0.02875539,1.12367,-0.09980585
40105309,2.47,0.81,359.87,0.02839909,1.124833,-0.09978949
40125313,2.47,0.81,359.87,0.02812051,1.124269,-0.09928101
40145338,2.47,0.81,359.87,0.02803052,1.123475,-0.09878083
40165301,2.46,0.81,359.87,0.02755219,1.123547,-0.09879462
40185288,2.46,0.81,359.87,0.0273278,1.124407,-0.09915775
40205307,2.46,0.81,359.87,0.02681174,1.125586,-0.09893426
40225292,2.46,0.81,359.87,0.02667438,1.124754,-0.09888441
40245272,2.46,0.8,359.87,0.02638069,1.124235,-0.09844955
40265310,2.46,0.8,359.87,0.02585215,1.124693,-0.09791902
40285287,2.46,0.8,359.87,0.02554132,1.125264,-0.09774317
40305344,2.45,0.81,359.87,0.02520778,1.126436,-0.0979723
40325346,2.45,0.81,359.87,0.02488519,1.125303,-0.09746739
40345273,2.45,0.81,359.87,0.02465325,1.125032,-0.0967349
40365305,2.45,0.81,359.87,0.02452038,1.125158,-0.09659521
40385290,2.45,0.81,359.87,0.02415251,1.125519,-0.09666828
40405351,2.45,0.81,359.87,0.02387377,1.126477,-0.09646901
40425291,2.45,0.81,359.87,0.0238884,1.125498,-0.09595306
40445307,2.45,0.81,359.87,0.02379158,1.125288,-0.09561385
40465332,2.45,0.81,359.87,0.0239394,1.125632,-0.09505237
40485363,2.45,0.81,359.87,0.024182,1.126148,-0.09450781
40505319,2.45,0.81,359.86,0.02363802,1.126972,-0.09462943
40525327,2.44,0.81,359.86,0.02346039,1.126068,-0.0943552
40545340,2.45,0.81,359.86,0.02348738,1.125537,-0.09371391
40565305,2.44,0.81,359.86,0.02338968,1.125789,-0.09344116
40585288,2.44,0.81,359.86,0.02347283,1.126262,-0.09344272
40605340,2.44,0.81,359.86,0.02325241,1.127141,-0.093274
40625368,2.44,0.81,359.86,0.02307983,1.12622,-0.09317713
40645274,2.44,0.81,359.86,0.02296467,1.126181,-0.09261675
40665336,2.44,0.81,359.86,0.02241933,1.126147,-0.09252142
40685320,2.43,0.81,359.86,0.02221792,1.126437,-0.09191004
40705340,2.43,0.82,359.86,0.0221383,1.127505,-0.09157654
40725272,2.43,0.81,359.85,0.02155516,1.126738,-0.09130679
40745327,2.42,0.82,359.86,0.02128385,1.12641,-0.0909367
40765305,2.42,0.82,359.86,0.02093961,1.126599,-0.09043614
40785294,2.42,0.82,359.86,0.02054494,1.127202,-0.09013698
40805314,2.42,0.82,359.85,0.02016813,1.127839,-0.08989867
40825292,2.42,0.82,359.86,0.01954135,1.127413,-0.08998379
40845325,2.41,0.82,359.85,0.01934462,1.126845,-0.08965842
40865314,2.41,0.82,359.85,0.01921557,1.126845,-0.08948363
40885290,2.41,0.82,359.86,0.019243,1.127523,-0.08888581
40905293,2.41,0.82,359.86,0.01910321,1.128238,-0.0885063
40925293,2.41,0.82,359.86,0.01874037,1.127351,-0.08827557
40945344,2.41,0.82,359.85,0.01847575,1.126722,-0.08810135
40965309,2.41,0.82,359.85,0.01821548,1.126662,-0.08766359
40985318,2.4,0.82,359.85,0.0179835,1.127331,-0.08773734
41005362,2.4,0.82,359.85,0.01802487,1.127914,-0.08760721
41025289,2.4,0.82,359.85,0.01759302,1.127119,-0.08703464
41045290,2.4,0.82,359.85,0.01710201,1.126577,-0.08721709
41065338,2.4,0.82,359.85,0.01676263,1.126106,-0.08689842
41085324,2.4,0.82,359.85,0.01678807,1.126641,-0.08716138
41105354,2.4,0.82,359.85,0.01660698,1.127231,-0.08740379
41125287,2.39,0.82,359.85,0.01601429,1.126344,-0.08731648
41145293,2.39,0.82,359.85,0.01540586,1.125562,-0.08691687
41165315,2.39,0.82,359.85,0.01508956,1.125555,-0.08664259
41185315,2.38,0.82,359.85,0.01479022,1.126124,-0.08642166
41205333,2.39,0.82,359.85,0.01406526,1.1272,-0.08623618
41225312,2.39,0.82,359.85,0.01379495,1.126168,-0.08600282
41245287,2.38,0.82,359.85,0.01338148,1.125669,-0.08577126
41265372,2.38,0.83,359.85,0.01320306,1.125368,-0.08588072
41285290,2.38,0.83,359.85,0.012785,1.125709,-0.08631493
41305333,2.38,0.83,359.85,0.01277947,1.126363,-0.08613006
41325305,2.38,0.83,359.84,0.01242,1.125155,-0.08573823
41345305,2.38,0.83,359.84,0.01224931,1.124492,-0.08571758
41365347,2.38,0.83,359.84,0.0121616,1.124379,-0.08562392
41385317,2.38,0.83,359.84,0.01202513,1.124721,-0.08558687
41405354,2.37,0.83,359.84,0.01201893,1.125531,-0.08579633
41425291,2.37,0.82,359.84,0.01120265,1.124631,-0.08593035
41445287,2.37,0.82,359.84,0.01078324,1.123969,-0.08587763
41465356,2.37,0.82,359.84,0.01087151,1.123945,-0.08561271
41485345,2.37,0.82,359.84,0.01076015,1.124253,-0.08542236
41505364,2.37,0.82,359.84,0.01039823,1.125066,-0.08537026
41525287,2.37,0.82,359.84,0.01021891,1.123977,-0.0851179
41545320,2.37,0.82,359.84,0.009954251,1.123301,-0.08497428
41565347,2.36,0.83,359.84,0.009777213,1.123008,-0.08494584
41585336,2.36,0.83,359.84,0.009359217,1.123218,-0.0852023
41605338,2.36,0.83,359.84,0.009138291,1.124114,-0.08515698
41625317,2.36,0.82,359.84,0.008573141,1.123051,-0.08542603
41645326,2.36,0.83,359.84,0.008386099,1.122176,-0.08539764
41665293,2.36,0.83,359.84,0.00798986,1.121989,-0.0858428
41685290,2.36,0.83,359.84,0.007698655,1.122229,-0.08619606
41705310,2.35,0.83,359.84,0.007676334,1.123175,-0.08632562
41725287,2.35,0.83,359.84,0.007531684,1.121756,-0.0861459
41745288,2.35,0.83,359.84,0.007298607,1.121202,-0.0863397
41765289,2.35,0.83,359.84,0.007252043,1.120788,-0.08626689
41785342,2.34,0.83,359.84,0.007037048,1.120934,-0.08613029
41805339,2.34,0.83,359.84,0.006580263,1.121601,-0.08657442
41825331,2.34,0.83,359.84,0.006360596,1.120336,-0.08630572
41845296,2.34,0.83,359.84,0.006242249,1.119871,-0.08607821
41865306,2.34,0.83,359.84,0.0062572,1.119422,-0.08597275
41885287,2.33,0.83,359.84,0.006172639,1.119774,-0.08606908
41905381,2.33,0.83,359.84,0.005923519,1.120142,-0.08575593
41925345,2.33,0.83,359.84,0.005679766,1.119075,-0.08579068
41945298,2.33,0.83,359.84,0.005702178,1.118116,-0.08553731
41965292,2.33,0.83,359.84,0.005667893,1.118051,-0.08510175
41985292,2.33,0.83,359.84,0.005622782,1.118288,-0.08519395
42005349,2.33,0.82,359.83,0.00588533,1.118552,-0.0848756
42025290,2.33,0.83,359.83,0.005457853,1.117844,-0.08452912
42045293,2.32,0.83,359.83,0.005453778,1.116892,-0.08421814
42065290,2.32,0.83,359.83,0.005509545,1.116512,-0.08404604
42085362,2.32,0.83,359.83,0.005469853,1.116956,-0.08384121
42105338,2.32,0.82,359.83,0.005329881,1.117655,-0.08349429
42125315,2.32,0.83,359.83,0.00518836,1.116479,-0.08366828
42145337,2.32,0.83,359.83,0.005029009,1.115708,-0.08368643
42165309,2.31,0.83,359.83,0.004813193,1.115579,-0.08325457
42185287,2.31,0.83,359.83,0.00490939,1.116046,-0.08332641
42205313,2.31,0.84,359.83,0.004664839,1.116556,-0.08320168
42225356,2.31,0.84,359.83,0.004409071,1.115156,-0.08294355
42245287,2.31,0.84,359.83,0.004398706,1.114305,-0.08282883
42265318,2.3,0.84,359.83,0.004093647,1.113856,-0.08238043
42285354,2.3,0.84,359.83,0.003840548,1.114073,-0.08186904
42305328,2.3,0.84,359.83,0.003734598,1.114699,-0.08134533
42325292,2.3,0.84,359.83,0.003431244,1.113621,-0.08106759
42345287,2.3,0.85,359.83,0.003145818,1.113014,-0.08089476
42365299,2.29,0.84,359.83,0.00321216,1.112606,-0.08047466
42385315,2.29,0.84,359.83,0.002948472,1.112877,-0.08027086
42405378,2.29,0.85,359.83,0.002722079,1.113487,-0.08021221
42425289,2.29,0.85,359.83,0.002586012,1.112243,-0.07948937
42445293,2.28,0.85,359.83,0.002318964,1.11133,-0.07881502
42465356,2.28,0.85,359.83,0.002370893,1.110761,-0.07829171
42485298,2.28,0.85,359.83,0.00236301,1.110759,-0.07809173
42505350,2.27,0.85,359.82,0.002086871,1.111386,-0.07828677
42525358,2.27,0.85,359.83,0.001828654,1.110092,-0.07810327
42545356,2.27,0.85,359.83,0.001508777,1.109228,-0.07766044
42565340,2.27,0.85,359.82,0.001568007,1.10898,-0.0770845
42585297,2.27,0.85,359.83,0.001262774,1.108817,-0.07680429
42605315,2.27,0.85,359.83,0.001066455,1.10963,-0.07648025
42625333,2.26,0.85,359.82,0.0007296859,1.108407,-0.07651334
42645274,2.26,0.85,359.83,0.0004777506,1.107369,-0.07645304
42665308,2.26,0.86,359.83,0.0004058194,1.106935,-0.07600223
42685322,2.26,0.85,359.83,0.0004352534,1.106981,-0.07602093
42705305,2.26,0.86,359.83,0.0002715775,1.107393,-0.07585473
42725311,2.26,0.86,359.83,0.0001926918,1.105805,-0.07589299
42745317,2.26,0.86,359.83,0.0001186164,1.105083,-0.0757907
42765342,2.25,0.86,359.83,3.773826e-05,1.104628,-0.07520191
42785287,2.25,0.86,359.83,-0.0004080061,1.104759,-0.07531491
42805371,2.25,0.87,359.83,-0.00044673,1.105082,-0.07511688
42825296,2.25,0.87,359.83,-0.0005248399,1.103504,-0.07505916
42845359,2.24,0.87,359.82,-0.0006116076,1.102476,-0.07476669
42865328,2.24,0.87,359.82,-0.0008660472,1.102026,-0.07490381
42885327,2.24,0.88,359.82,-0.0008680889,1.102049,-0.07498531
42905338,2.24,0.88,359.82,-0.001194639,1.102707,-0.07504193
42925272,2.23,0.88,359.82,-0.001102615,1.101076,-0.07471506
42945287,2.23,0.88,359.82,-0.001264151,1.10027,-0.07496127
42965341,2.23,0.88,359.82,-0.001540491,1.099987,-0.07477892
42985320,2.22,0.88,359.82,-0.001702179,1.09969,-0.07461558
43005309,2.22,0.88,359.82,-0.001757637,1.100475,-0.07438622
43025275,2.22,0.89,359.82,-0.002113972,1.098868,-0.07361485
43045340,2.22,0.89,359.82,-0.00223385,1.097835,-0.07304622
43065310,2.22,0.89,359.82,-0.002756148,1.097444,-0.07269115
43085290,2.21,0.89,359.82,-0.002772975,1.097421,-0.07291181
43105354,2.21,0.89,359.82,-0.003169575,1.097537,-0.07299725
43125288,2.21,0.89,359.82,-0.003155679,1.095986,-0.07241714
43145289,2.2,0.89,359.82,-0.003603484,1.095139,-0.07238816
43165355,2.2,0.89,359.82,-0.00411551,1.094558,-0.07213905
43185287,2.2,0.89,359.82,-0.004762281,1.09465,-0.07191592
43205324,2.2,0.9,359.82,-0.004867213,1.094957,-0.07178993
43225287,2.19,0.9,359.82,-0.005233711,1.09342,-0.07127021
43245369,2.19,0.9,359.82,-0.005209194,1.092791,-0.07104284
43265351,2.19,0.9,359.82,-0.005408207,1.09242,-0.07094508
43285351,2.18,0.91,359.82,-0.00581144,1.092449,-0.0710004
43305359,2.18,0.91,359.82,-0.005936616,1.092804,-0.07111766
43325330,2.18,0.91,359.82,-0.006202802,1.091003,-0.07043682
43345351,2.18,0.91,359.82,-0.00669529,1.090307,-0.07053683
43365322,2.17,0.91,359.82,-0.006812965,1.089545,-0.07062538
43385284,2.17,0.92,359.82,-0.006906305,1.08957,-0.07034387
43405333,2.16,0.92,359.82,-0.007117605,1.089811,-0.07022495
43425301,2.16,0.92,359.82,-0.007651674,1.088124,-0.06972869
43445287,2.16,0.92,359.82,-0.007735826,1.087519,-0.06974903
43465348,2.16,0.92,359.82,-0.008251576,1.087113,-0.06968008
43485271,2.16,0.92,359.82,-0.008593147,1.086895,-0.06936332
43505320,2.16,0.93,359.82,-0.008972533,1.087099,-0.06881196
43525323,2.15,0.93,359.82,-0.009637759,1.085541,-0.06847546
43545287,2.15,0.93,359.82,-0.009746468,1.084566,-0.06819396
43565311,2.15,0.93,359.82,-0.009987581,1.084045,-0.06772152
43585304,2.14,0.93,359.82,-0.01033602,1.084339,-0.0678554
43605339,2.14,0.93,359.82,-0.0108342,1.08471,-0.06770537
43625342,2.14,0.94,359.82,-0.01155702,1.08344,-0.06737515
43645287,2.14,0.94,359.82,-0.01184468,1.082375,-0.0669836
43665339,2.14,0.94,359.82,-0.01205991,1.081455,-0.06660508
43685284,2.14,0.94,359.82,-0.01272709,1.081451,-0.06620735
43705349,2.14,0.94,359.82,-0.01331641,1.081681,-0.06599598
43725316,2.14,0.94,359.82,-0.01378132,1.080323,-0.06536589
43745323,2.13,0.94,359.82,-0.01427676,1.079337,-0.06500626
43765337,2.13,0.94,359.82,-0.01499743,1.078992,-0.06456429
43785287,2.13,0.94,359.82,-0.01543343,1.079062,-0.06489975
43805344,2.13,0.94,359.82,-0.01606506,1.079384,-0.06464211
43825287,2.12,0.94,359.82,-0.01661935,1.077889,-0.06421213
43845332,2.12,0.95,359.82,-0.01725731,1.076653,-0.06391176
43865313,2.12,0.95,359.82,-0.01735631,1.07603,-0.0633335
43885288,2.11,0.94,359.82,-0.0176534,1.076209,-0.06321894
43905330,2.11,0.94,359.82,-0.01780061,1.076224,-0.06272601
43925322,2.11,0.95,359.82,-0.01816371,1.074733,-0.0624609
43945355,2.1,0.95,359.82,-0.01840184,1.073335,-0.06165795
43965314,2.1,0.95,359.82,-0.01873819,1.073,-0.06119146
43985349,2.09,0.95,359.82,-0.0190146,1.072504,-0.06072754
44005314,2.09,0.95,359.82,-0.01944746,1.072691,-0.06065606
44025289,2.09,0.95,359.82,-0.01981113,1.071127,-0.06067812
44045273,2.09,0.96,359.82,-0.02015259,1.069859,-0.06037259
44065339,2.08,0.96,359.82,-0.02056291,1.069205,-0.06001721
44085331,2.08,0.96,359.82,-0.02087259,1.068687,-0.05967644
44105319,2.08,0.96,359.82,-0.02152221,1.069046,-0.05937654
44125324,2.08,0.96,359.82,-0.02207052,1.067597,-0.05895802
44145327,2.08,0.96,359.82,-0.02251842,1.066447,-0.05862386
44165306,2.07,0.96,359.82,-0.02275587,1.065835,-0.05854149
44185287,2.07,0.97,359.82,-0.0230729,1.065516,-0.05816445
44205346,2.07,0.97,359.82,-0.0232043,1.065489,-0.0580091
44225287,2.06,0.97,359.82,-0.02366214,1.063976,-0.05782698
44245273,2.06,0.97,359.82,-0.02443417,1.062914,-0.05787341
44265308,2.06,0.97,359.82,-0.0245981,1.062258,-0.05753186
44285319,2.05,0.97,359.81,-0.02538338,1.061802,-0.05709918
44305359,2.05,0.98,359.81,-0.02594736,1.061758,-0.05691315
44325289,2.05,0.98,359.81,-0.02634308,1.060248,-0.05626497
44345310,2.05,0.97,359.82,-0.02664497,1.058951,-0.05555307
44365370,2.05,0.97,359.81,-0.0272661,1.057897,-0.05541981
44385289,2.04,0.98,359.82,-0.02772001,1.057726,-0.05512846
44405371,2.04,0.98,359.81,-0.02860792,1.057868,-0.05499031
