TimeUS,Roll,Pitch,Yaw,VN,VE,VD
23001140,2.08,0.26,2.14,-0.02222486,0.06213028,-0.06424289
23021191,2.08,0.26,2.14,-0.02267901,0.06283496,-0.06444107
23041120,2.08,0.26,2.14,-0.02291551,0.06344985,-0.06425741
23061093,2.09,0.26,2.14,-0.02298685,0.06392824,-0.06407733
23081199,2.08,0.25,2.14,-0.02317433,0.06427239,-0.06380052
23101145,2.09,0.25,2.14,-0.02325641,0.0648051,-0.06342807
23121157,2.08,0.25,2.14,-0.02338492,0.06537652,-0.06259656
23141090,2.08,0.25,2.14,-0.02383071,0.06586545,-0.06231193
23161165,2.08,0.25,2.14,-0.02414863,0.06646733,-0.06245822
23181172,2.09,0.25,2.14,-0.02438998,0.06703336,-0.06256813
23201140,2.08,0.25,2.14,-0.02452101,0.06754933,-0.0625975
23221111,2.08,0.25,2.14,-0.02384635,0.06807952,-0.06229059
23241145,2.08,0.25,2.14,-0.02448301,0.06852449,-0.06202977
23261151,2.09,0.26,2.14,-0.02456636,0.06920336,-0.06195119
23281171,2.09,0.26,2.14,-0.02455556,0.06974231,-0.06154172
23301089,2.09,0.26,2.14,-0.02488142,0.07038188,-0.0610885
23321161,2.09,0.26,2.14,-0.02508236,0.07092461,-0.0613073
23341143,2.09,0.26,2.14,-0.02537167,0.07147689,-0.06121048
23361143,2.09,0.26,2.14,-0.02529165,0.07194809,-0.06068741
23381124,2.09,0.26,2.14,-0.02540826,0.07248785,-0.06031081
23401094,2.09,0.26,2.14,-0.02574508,0.07307789,-0.06000149
23421156,2.09,0.26,2.14,-0.02593996,0.07367585,-0.05975422
23441141,2.09,0.26,2.14,-0.02641538,0.07437423,-0.05995815
23461082,2.09,0.26,2.14,-0.02665599,0.07497389,-0.06018554
23481188,2.09,0.26,2.14,-0.02679754,0.07535571,-0.05989058
23501139,2.09,0.26,2.14,-0.02711244,0.07605844,-0.0596021
23521155,2.09,0.26,2.14,-0.02719785,0.0768594,-0.05958273
23541094,2.1,0.26,2.14,-0.02747076,0.07730052,-0.05960953
23561176,2.09,0.26,2.14,-0.02760046,0.07785854,-0.05979957
23581165,2.09,0.26,2.14,-0.0277042,0.0783978,-0.05979034
23601148,2.09,0.27,2.14,-0.02846584,0.07917022,-0.05961691
23621126,2.1,0.27,2.14,-0.02903731,0.07968952,-0.05940764
23641106,2.1,0.26,2.14,-0.02938162,0.08039724,-0.05879168
23661113,2.1,0.27,2.14,-0.02983071,0.0812208,-0.05890989
23681160,2.1,0.27,2.14,-0.03026637,0.08160542,-0.05807719
23701120,2.1,0.27,2.14,-0.03049661,0.08229441,-0.05806087
23721132,2.1,0.27,2.14,-0.03091213,0.08285729,-0.05801151
23741114,2.11,0.26,2.14,-0.03113539,0.08352173,-0.05829735
23761137,2.11,0.26,2.14,-0.0313747,0.08392336,-0.05807514
23781152,2.11,0.27,2.14,-0.03163658,0.08461609,-0.05778707
23801092,2.11,0.26,2.14,-0.03133747,0.08511563,-0.05722538
23821163,2.11,0.26,2.14,-0.03159048,0.08574859,-0.05711051
23841112,2.11,0.26,2.14,-0.03154214,0.0862463,-0.05715344
23861108,2.16,0.27,2.21,-0.02655833,0.08634686,-0.06296685
23881144,2.28,0.3,2.56,-0.0004522401,0.0818003,-0.04090139
23901157,2.2,0.31,2.95,0.02762335,0.1058503,-0.0484556
23921159,2.31,0.23,3.12,0.06398611,0.1539489,-0.08308962
23941058,2.28,0.27,3.32,0.062659,0.1334253,-0.03741923
23961092,2.23,0.23,3.77,0.0936067,0.152188,-0.0783662
23981163,2.0,0.0,4.24,0.1360665,0.1471354,-0.07747797
24001073,2.11,0.1,4.51,0.1863638,0.140431,-0.04684776
24021102,2.08,0.1,4.61,0.2077879,0.147469,-0.06302102
24041169,2.18,0.2,4.61,0.2282214,0.1387874,-0.07608639
24061143,2.21,0.15,4.73,0.2420199,0.1393668,-0.05382156
24081185,2.29,0.22,4.81,0.2677042,0.1356443,-0.06307029
24101155,2.27,0.25,4.9,0.2822459,0.1051851,-0.04868597
24121077,2.17,0.19,4.92,0.3153876,0.1550564,-0.08095942
24141089,2.32,0.24,4.92,0.3219418,0.1544254,-0.04094556
24161138,2.29,0.22,4.97,0.3538832,0.16298,-0.08398832
24181173,2.22,0.23,4.92,0.3707171,0.1672265,-0.05178074
24201092,2.32,0.18,4.97,0.3689557,0.1684669,-0.05590995
24221179,2.08,0.13,5.07,0.4202567,0.1552803,-0.09610131
24241137,2.16,0.19,5.22,0.432237,0.1511532,-0.03128816
24261145,2.32,0.26,5.31,0.4430979,0.1818197,-0.06042061
24281109,2.15,0.16,5.41,0.4767372,0.1785302,-0.05439914
24301107,2.3,0.14,5.41,0.5180105,0.1810357,-0.09969215
24321168,2.01,0.08,5.39,0.5221087,0.1632825,-0.02817607
24341142,2.2,0.15,5.39,0.5640384,0.1977857,-0.07969891
24361072,2.15,0.04,5.44,0.559287,0.2219443,-0.07131526
24381160,2.11,0.14,5.4,0.6031836,0.1988282,-0.04398192
24401112,2.33,0.13,5.48,0.6054665,0.1853627,-0.03650765
24421162,2.14,0.13,5.6,0.6367768,0.2005983,-0.08071905
24441092,2.36,0.08,5.69,0.6301188,0.2238872,-0.08182925
24461158,2.31,0.09,5.79,0.6406484,0.2319991,-0.08413882
24481206,2.34,0.1,5.91,0.6668739,0.2236529,-0.06844281
24501117,2.29,0.13,6.06,0.6787029,0.230117,-0.07820237
24521163,2.23,-0.02,6.12,0.7065515,0.2046638,-0.06591473
24541086,2.03,0.13,6.18,0.7374753,0.2540139,-0.0902596
24561140,2.17,0.01,6.05,0.7502979,0.2736153,-0.06555013
24581154,2.22,0.09,5.95,0.7849717,0.2775506,-0.09611066
24601123,2.14,-0.11,5.98,0.7892926,0.2514175,-0.06200926
24621172,2.19,-0.06,5.92,0.8182631,0.2767471,-0.06941026
24641097,2.34,-0.11,5.93,0.8237236,0.2616345,-0.1129273
24661152,2.06,-0.08,6.05,0.8584862,0.2623431,-0.08918343
24681165,2.08,-0.19,6.18,0.8958026,0.2839589,-0.0832736
24701112,2.09,-0.16,6.35,0.9195353,0.2544739,-0.06771421
24721105,2.28,-0.03,6.59,0.9159159,0.2929453,-0.07714303
24741146,2.4,0.0,6.8,0.9436404,0.2698151,-0.1049807
24761136,2.34,0.06,7.14,0.9625944,0.3034043,-0.07773187
24781059,2.25,-0.06,7.38,0.9908713,0.2920151,-0.07950052
24801092,2.25,0.08,7.63,1.037514,0.341916,-0.09777443
24821203,2.08,0.07,7.77,1.048211,0.3582834,-0.1022744
24841140,2.09,0.03,7.84,1.083083,0.3385357,-0.04156683
24861140,2.28,0.18,7.95,1.11648,0.3720203,-0.1006453
24881139,2.19,0.11,8.01,1.121161,0.3500406,-0.07967358
24901112,2.34,0.19,8.12,1.148095,0.3515363,-0.08585302
24921177,2.21,0.17,8.38,1.168403,0.3748245,-0.1126523
24941136,2.43,0.13,8.73,1.182579,0.3850498,-0.07459485
24961059,2.14,0.19,9.12,1.201383,0.3803177,-0.09004956
24981192,2.29,0.16,9.8,1.245918,0.4070167,-0.1083015
25001136,2.22,0.16,10.4,1.255885,0.4007033,-0.0606276
25021162,2.43,0.12,10.94,1.281284,0.4428624,-0.1216203
25041105,2.44,0.0,11.32,1.307365,0.4441034,-0.0595317
25061127,2.42,0.01,11.72,1.351532,0.564625,-0.172122
25081189,2.51,0.08,12.0,1.379018,0.5005607,-0.1043334
25101151,2.39,0.14,12.36,1.369364,0.5411147,-0.1293935
25121111,2.38,0.18,12.63,1.39029,0.559736,-0.08160369
25141147,2.41,0.32,12.91,1.420871,0.5821689,-0.002954212
25161112,2.49,0.07,13.12,1.426098,0.5884763,-0.06178159
25181154,2.77,0.03,13.36,1.446776,0.5905342,-0.08508692
25201073,2.19,-0.01,13.82,1.45173,0.6110148,-0.09642392
25221155,2.36,-0.06,14.32,1.476463,0.6105071,-0.08024339
25241137,2.27,-0.13,14.86,1.493264,0.645794,-0.09468226
25261059,2.43,-0.22,15.65,1.541398,0.6849484,-0.1352309
25281112,2.26,-0.44,16.44,1.551924,0.6615756,-0.06272802
25301137,2.22,-0.43,17.1,1.603554,0.7267398,-0.09595177
25321171,2.32,-0.58,17.47,1.634703,0.7131507,-0.07362577
25341113,2.13,-0.48,17.87,1.642123,0.8266619,-0.104952
25361097,2.15,-0.6,18.03,1.70628,0.7815275,-0.06095031
25381162,2.32,-0.58,18.22,1.747725,0.7857853,-0.09175984
25401136,2.16,-0.82,18.33,1.761129,0.8415198,-0.03472206
25421160,2.27,-0.64,18.5,1.795307,0.9238449,-0.05907158
25441058,2.33,-0.59,18.55,1.868686,0.9286419,-0.06323728
25461092,2.22,-0.46,18.59,1.846607,0.9729695,-0.05472506
25481159,2.5,-0.57,18.53,1.931863,0.9199017,-0.1526456
25501142,2.13,-0.48,18.55,1.932001,0.9821803,-0.1349332
25521157,2.03,-0.37,18.46,1.986504,1.001206,-0.09273653
25541093,2.31,-0.45,18.26,1.995482,0.9747373,-0.06843488
25561163,2.31,-0.39,18.03,2.034806,1.004896,-0.1230367
25581158,2.15,-0.4,17.73,2.03842,1.013552,-0.08043794
25601138,2.33,-0.49,17.36,2.053633,1.008769,-0.1371372
25621085,2.26,-0.5,17.06,2.067846,0.9900863,-0.07187434
25641151,2.27,-0.32,16.81,2.07671,0.9624476,-0.1132105
25661156,2.34,-0.44,16.62,2.04366,0.957612,-0.1122393
25681170,2.41,-0.5,16.5,2.028479,0.9568327,-0.1436533
25701074,2.27,-0.66,16.37,2.025542,0.9419851,-0.09523275
25721123,2.35,-0.47,16.09,2.02198,0.9534401,-0.09049849
25741153,2.38,-0.47,15.72,2.005512,0.9443173,-0.111418
25761140,2.36,-0.41,15.23,2.004282,0.9592662,-0.1003178
25781112,2.62,-0.31,14.63,1.999261,0.9578513,-0.1360141
25801160,2.4,-0.32,14.07,1.982882,0.9226491,-0.09585728
25821141,2.32,-0.41,13.6,1.962527,0.8730794,-0.1302043
25841147,2.33,-0.4,13.26,1.970027,0.8405758,-0.1027071
25861093,1.98,-0.54,13.04,1.939731,0.8302606,-0.1166218
25881174,2.14,-0.47,12.73,1.942456,0.8246133,-0.1218185
25901125,2.04,-0.47,12.47,1.921521,0.8152538,-0.1246102
25921160,2.24,-0.47,12.12,1.908085,0.8050996,-0.1241727
25941086,2.14,-0.45,11.8,1.900157,0.8012335,-0.1033543
25961118,2.16,-0.34,11.43,1.886926,0.7875869,-0.09035759
25981154,2.03,-0.35,11.04,1.873315,0.7867457,-0.1251764
26001111,2.16,-0.25,10.62,1.851141,0.7643489,-0.1039589
26021153,2.2,-0.12,10.25,1.849446,0.7546189,-0.1292109
26041077,2.01,-0.17,9.96,1.832433,0.7163104,-0.1416495
26061125,2.07,-0.12,9.62,1.8241,0.7071512,-0.1306772
26081158,2.09,0.05,9.36,1.797796,0.7010176,-0.08608149
26101137,1.89,0.09,9.11,1.802948,0.6898771,-0.1386717
26121103,2.06,0.03,8.84,1.76088,0.6671096,-0.125779
26141094,1.99,0.01,8.62,1.73859,0.6716732,-0.1293733
26161140,2.04,-0.06,8.35,1.749006,0.6595615,-0.1676341
26181176,2.12,-0.09,8.11,1.711817,0.6510718,-0.1097204
26201150,2.06,-0.23,7.83,1.713965,0.6621928,-0.1286071
26221097,2.09,-0.31,7.52,1.687168,0.6479248,-0.1542543
26241151,2.11,-0.36,7.27,1.674576,0.6318609,-0.08987238
26261140,2.18,-0.47,6.96,1.67385,0.624543,-0.1570039
26281115,2.12,-0.53,6.58,1.657493,0.6340417,-0.09568026
26301160,2.14,-0.68,6.2,1.629605,0.6029786,-0.142359
26321156,2.23,-0.7,5.89,1.610938,0.5867661,-0.08358837
26341112,2.26,-0.83,5.52,1.584431,0.586965,-0.1419677
26361093,2.32,-0.9,5.03,1.551167,0.5831026,-0.1069894
26381159,2.37,-0.84,4.42,1.529587,0.5783351,-0.1284755
26401130,2.31,-0.75,3.77,1.495667,0.5653217,-0.1144341
26421161,2.4,-0.7,2.94,1.462779,0.5524527,-0.1665176
26441143,2.16,-0.71,2.01,1.423684,0.5491527,-0.139915
26461097,2.33,-0.54,0.87,1.37362,0.5532542,-0.1069072
26481099,2.26,-0.35,359.68,1.352831,0.5270693,-0.1290601
26501140,2.44,-0.19,358.27,1.303075,0.512944,-0.1464955
26521162,2.58,-0.04,356.7,1.268649,0.484405,-0.1300419
26541089,2.43,0.12,354.96,1.240844,0.4668704,-0.1332479
26561149,2.13,0.02,353.1,1.212151,0.4326887,-0.1312615
26581165,2.1,0.06,350.96,1.160748,0.4137392,-0.1224527
26601137,2.08,0.03,348.71,1.118373,0.3761202,-0.1244874
26621128,0.53,-0.17,348.29,0.941781,0.3365088,0.1408501
26641083,2.76,-2.01,350.04,0.6932206,0.2084929,0.01824504
26661144,2.34,-3.2,351.84,0.6224135,0.2128303,0.2462453
26681140,1.46,-3.39,353.58,0.5824441,0.2208808,0.3628734
26701140,1.51,-2.58,355.33,0.5477551,0.2154922,0.5405003
26721098,1.97,-1.0,357.0,0.4226767,0.1798088,0.5233275
26741157,2.97,-0.04,357.96,0.5045086,0.2075639,0.221624
26761141,2.88,-0.36,358.59,0.4988427,0.2645252,0.2132025
26781138,2.28,0.22,358.76,0.4643811,0.2515647,0.2592045
26801095,2.55,0.0,358.6,0.4620278,0.2601237,0.3163235
26821204,2.43,-0.06,358.39,0.4545957,0.277239,0.2556061
26841143,2.61,-0.15,357.92,0.4209058,0.279896,0.2865713
26861139,2.59,-0.3,357.39,0.3948417,0.2804348,0.2837909
26881191,2.42,-0.17,356.79,0.3471069,0.2909633,0.3049148
26901092,2.4,-0.04,356.29,0.3244663,0.2654738,0.247553
26921180,2.44,-0.2,355.94,0.2806025,0.287453,0.2632616
26941136,2.3,-0.02,355.66,0.2701907,0.2739181,0.2819162
26961126,2.57,-0.2,355.3,0.2304679,0.2782067,0.2608547
26981111,2.38,-0.05,354.93,0.2066436,0.271457,0.2934708
27001126,2.5,-0.06,354.43,0.1712526,0.2859983,0.287491
27021162,2.23,0.06,353.96,0.1391448,0.249586,0.2874261
27041146,2.29,0.08,353.58,0.1043785,0.2529128,0.2880256
27061065,2.47,0.04,353.22,0.06965905,0.2681871,0.269006
27081191,2.47,0.05,352.86,0.0420734,0.2673154,0.277693
27101143,2.39,0.09,352.41,0.01125083,0.2753099,0.2857549
27121142,2.35,0.11,351.91,-0.02521977,0.2717014,0.2808026
27141095,2.4,0.14,351.47,-0.07354761,0.2632648,0.2853834
27161159,2.45,0.17,351.02,-0.1036055,0.2629724,0.2683079
27181161,2.52,0.18,350.51,-0.1392175,0.2712478,0.2801442
27201133,2.5,0.22,349.95,-0.1590502,0.298299,0.2738547
27221122,2.41,0.27,349.32,-0.1929915,0.2835077,0.277488
27241159,2.46,0.23,348.6,-0.229645,0.2918956,0.2755566
27261129,2.43,0.32,347.87,-0.2611797,0.2896738,0.2862023
27281185,2.42,0.32,347.07,-0.2916853,0.2903032,0.2743648
27301093,2.43,0.3,346.22,-0.3275537,0.2922497,0.2767978
27321147,2.37,0.33,345.35,-0.3573176,0.2917607,0.2757091
27341142,2.34,0.34,344.43,-0.3915574,0.3016777,0.2821879
27361127,2.35,0.32,343.46,-0.4218345,0.3115234,0.2746177
27381108,2.26,0.36,342.43,-0.4390584,0.3189606,0.2804543
27401088,2.24,0.37,341.29,-0.4646889,0.3356787,0.2789531
27421155,2.27,0.37,340.09,-0.485308,0.3404307,0.2722876
27441143,2.09,0.41,338.85,-0.5231141,0.3460934,0.2793553
27461090,2.15,0.37,337.55,-0.5444767,0.3555012,0.265978
27481146,2.08,0.38,336.14,-0.5621476,0.3710171,0.2762786
27501154,2.05,0.41,334.75,-0.5858222,0.3865988,0.2668992
27521170,1.95,0.44,333.32,-0.6019326,0.4050661,0.2857294
27541093,1.97,0.44,331.88,-0.6303621,0.4116602,0.2738136
27561152,1.95,0.38,330.36,-0.6433468,0.4292594,0.2675313
27581171,1.78,0.44,328.8,-0.6575961,0.4415551,0.2829636
27601089,1.75,0.38,327.19,-0.6773002,0.457053,0.2816916
27621175,1.67,0.38,325.55,-0.691213,0.4692036,0.2767689
27641116,1.52,0.39,323.85,-0.7016926,0.4859842,0.2638069
27661138,1.52,0.41,322.04,-0.7062052,0.4999903,0.2780907
27681104,1.38,0.51,320.14,-0.7213248,0.503415,0.2832915
27701090,1.36,0.52,318.13,-0.7261255,0.5233258,0.268168
27721192,1.29,0.57,316.06,-0.7179624,0.5335932,0.276381
27741126,1.14,0.63,313.88,-0.7151265,0.5411572,0.2686762
27761074,1.05,0.67,311.61,-0.7174582,0.5538593,0.2846426
27781110,0.99,0.67,309.26,-0.7270401,0.5636656,0.2747583
27801141,0.95,0.7,306.85,-0.7157113,0.5696845,0.2847152
27821157,0.84,0.72,304.36,-0.7203479,0.5849963,0.2752182
27841128,0.72,0.78,301.82,-0.7149981,0.5899569,0.2756878
27861077,0.55,0.8,299.3,-0.7053774,0.5883747,0.2657077
27881197,0.42,0.85,296.77,-0.6911676,0.5819219,0.2776488
27901147,0.29,0.87,294.21,-0.6868369,0.5832295,0.2709501
27921171,0.3,0.8,291.69,-0.6698906,0.5821322,0.2715442
27941114,0.11,0.85,289.23,-0.666309,0.5842776,0.274723
27961095,0.04,0.81,286.74,-0.6569807,0.5849601,0.2635784
27981201,-0.12,0.83,284.33,-0.6441069,0.5829586,0.2729817
28001137,-0.16,0.77,281.93,-0.636234,0.5784952,0.2654981
28021172,-0.21,0.71,279.52,-0.6094558,0.5757453,0.2787973
28041081,-0.36,0.72,277.12,-0.612403,0.5683417,0.2806273
28061122,-0.39,0.65,274.71,-0.6129431,0.5668517,0.266934
28081165,-0.51,0.63,272.32,-0.603693,0.5595245,0.2705353
28101147,-0.57,0.61,270.0,-0.602717,0.556528,0.2719288
28121079,-0.66,0.58,267.7,-0.5997104,0.5538305,0.2751725
28141094,-0.7,0.53,265.45,-0.591367,0.5463696,0.2731243
28161124,-0.75,0.49,263.17,-0.5891092,0.5398538,0.2737944
28181179,-0.84,0.45,261.04,-0.5837237,0.5344402,0.270476
28201146,-0.86,0.39,258.93,-0.576549,0.533179,0.2715922
28221172,-0.95,0.35,256.91,-0.5801292,0.5300699,0.2665637
28241094,-0.97,0.27,254.95,-0.5713621,0.5205511,0.2657107
28261144,-0.98,0.21,253.12,-0.5659816,0.5137291,0.2625259
28281159,-1.06,0.2,251.37,-0.5682462,0.5076004,0.2776527
28301125,-1.04,0.1,249.68,-0.5529523,0.4938066,0.2583687
28321176,-1.11,0.09,248.09,-0.5480576,0.4890238,0.2693271
28341092,-1.17,0.05,246.62,-0.551743,0.489813,0.2682053
28361139,-1.08,-0.04,245.25,-0.5517314,0.4834267,0.2647258
28381205,-1.17,-0.05,243.96,-0.5443693,0.4692143,0.2680588
28401066,-1.21,-0.07,242.78,-0.5463022,0.461069,0.2616141
28421185,-1.18,-0.13,241.67,-0.5442759,0.4516277,0.2549531
28441143,-1.18,-0.17,240.73,-0.5478221,0.4477171,0.2514034
28461155,-1.21,-0.2,239.89,-0.5408725,0.4401917,0.2635177
28481121,-1.21,-0.23,239.14,-0.5439379,0.4355789,0.2628262
28501086,-1.23,-0.28,238.49,-0.5504889,0.4200593,0.2502755
28521167,-1.25,-0.28,237.96,-0.5505821,0.4077345,0.2529221
28541143,-1.27,-0.3,237.53,-0.5497041,0.3998288,0.2480953
28561095,-1.24,-0.33,237.24,-0.5430222,0.388587,0.2536476
28581158,-1.27,-0.32,237.11,-0.5447503,0.3835407,0.259559
28601124,-1.25,-0.32,237.12,-0.5478216,0.3832626,0.2544415
28621159,-1.21,-0.31,237.18,-0.5700826,0.3738541,0.2526416
28641097,-1.21,-0.3,237.21,-0.5903435,0.3670923,0.2496101
28661147,-1.23,-0.29,237.25,-0.6087186,0.3582645,0.2488482
28681164,-1.22,-0.3,237.27,-0.624033,0.3484891,0.2538081
28701112,-1.24,-0.29,237.26,-0.6391869,0.3498874,0.248909
28721170,-1.21,-0.3,237.31,-0.6602069,0.3505397,0.2511207
28741107,-1.22,-0.29,237.34,-0.6740474,0.3453832,0.2502919
28761138,-1.22,-0.28,237.36,-0.6945056,0.3371271,0.2531917
28781161,-1.2,-0.28,237.37,-0.712252,0.3318514,0.2501523
28801125,-1.2,-0.27,237.4,-0.7295107,0.3321482,0.2502195
28821104,-1.18,-0.28,237.42,-0.7440904,0.3261155,0.2479137
28841145,-1.18,-0.28,237.43,-0.7590828,0.3203149,0.2484345
28861143,-1.2,-0.26,237.44,-0.7752285,0.3116374,0.2508333
28881193,-1.2,-0.27,237.44,-0.7903136,0.3090765,0.2482523
28901068,-1.19,-0.27,237.44,-0.8101552,0.3061377,0.2476282
28921190,-1.18,-0.28,237.46,-0.8263566,0.3001909,0.2484192
28941140,-1.2,-0.27,237.46,-0.8468853,0.2892088,0.2487557
28961147,-1.2,-0.27,237.44,-0.8630179,0.2841272,0.2491587
28981187,-1.19,-0.28,237.45,-0.8800345,0.2847056,0.2479625
29001074,-1.2,-0.27,237.46,-0.8951393,0.2791547,0.2479307
29021159,-1.19,-0.27,237.46,-0.9117498,0.2734491,0.2482135
29041141,-1.19,-0.27,237.45,-0.9272529,0.2717013,0.2479824
29061093,-1.19,-0.26,237.46,-0.9408047,0.2716449,0.2484105
29081126,-1.18,-0.27,237.46,-0.9526798,0.2733815,0.2473901
29101146,-1.19,-0.27,237.45,-0.9634647,0.2766867,0.2477846
29121169,-1.18,-0.27,237.46,-0.974754,0.2804649,0.2479827
29141074,-1.18,-0.27,237.46,-0.9854493,0.2830301,0.2471334
29161092,-1.18,-0.27,237.46,-0.9960706,0.2866125,0.2473692
29181158,-1.18,-0.27,237.45,-1.006035,0.2915909,0.2461771
29201139,-1.19,-0.26,237.46,-1.015765,0.2964382,0.2461493
29221167,-1.18,-0.27,237.46,-1.025925,0.3006955,0.2460773
29241117,-1.18,-0.26,237.46,-1.037007,0.3040217,0.2450738
29261082,-1.18,-0.26,237.46,-1.048256,0.306761,0.2451922
29281164,-1.18,-0.27,237.45,-1.059407,0.3091033,0.2443772
29301137,-1.19,-0.26,237.45,-1.07115,0.3116208,0.2442282
29321159,-1.18,-0.27,237.45,-1.08259,0.3145001,0.2434959
29341159,-1.18,-0.26,237.45,-1.094355,0.3164065,0.2428984
29361114,-1.18,-0.26,237.46,-1.105875,0.31838,0.2430179
29381182,-1.18,-0.27,237.46,-1.117002,0.3215115,0.242112
29401159,-1.18,-0.26,237.46,-1.127894,0.3246189,0.2419989
29421164,-1.17,-0.27,237.46,-1.138861,0.3281457,0.2413953
29441143,-1.18,-0.27,237.46,-1.149048,0.3314161,0.2401486
29461061,-1.16,-0.28,237.46,-1.159857,0.3342025,0.238306
29481121,-1.17,-0.27,237.46,-1.169237,0.3347858,0.2411301
29501141,-1.19,-0.26,237.45,-1.180298,0.3396339,0.2398654
29521163,-1.15,-0.28,237.45,-1.189381,0.3451108,0.238644
29541138,-1.16,-0.28,237.46,-1.198413,0.3487453,0.2385114
29561082,-1.17,-0.27,237.45,-1.208574,0.3511778,0.2391449
29581110,-1.17,-0.26,237.45,-1.219608,0.354598,0.2377362
29601145,-1.17,-0.26,237.46,-1.2309,0.3568234,0.236889
29621166,-1.17,-0.26,237.46,-1.242028,0.3597921,0.2362725
29641059,-1.18,-0.25,237.45,-1.252278,0.3622761,0.2354014
29661091,-1.19,-0.25,237.45,-1.262692,0.3659448,0.2352907
29681158,-1.19,-0.24,237.45,-1.272546,0.36923,0.2346177
29701149,-1.19,-0.24,237.45,-1.282462,0.3731291,0.2345451
29721155,-1.19,-0.24,237.45,-1.292792,0.3775721,0.2340804
29741093,-1.2,-0.24,237.45,-1.302877,0.3806826,0.2329286
29761124,-1.19,-0.24,237.46,-1.312951,0.3841784,0.2321106
29781164,-1.2,-0.24,237.45,-1.322751,0.3882737,0.2319599
29801077,-1.2,-0.24,237.45,-1.3327,0.3919898,0.2312626
29821153,-1.2,-0.24,237.46,-1.342979,0.3959789,0.2306346
29841141,-1.2,-0.24,237.46,-1.352634,0.3993046,0.2302344
29861146,-1.19,-0.24,237.46,-1.363201,0.4024261,0.2303073
29881105,-1.19,-0.24,237.46,-1.373784,0.4046089,0.2292795
29901145,-1.19,-0.25,237.46,-1.385378,0.4064039,0.2291375
29921151,-1.19,-0.25,237.46,-1.396626,0.4078262,0.2292393
29941136,-1.19,-0.25,237.46,-1.406741,0.409702,0.2284213
29961103,-1.19,-0.25,237.46,-1.416637,0.4130769,0.2272053
29981160,-1.19,-0.24,237.46,-1.425683,0.4169897,0.2261987
30001144,-1.18,-0.24,237.46,-1.434764,0.4214081,0.2262426
30021152,-1.18,-0.24,237.46,-1.443716,0.4265618,0.2256904
30041098,-1.18,-0.24,237.46,-1.452521,0.4311269,0.2248424
30061140,-1.19,-0.24,237.46,-1.461408,0.4350708,0.2251152
30081160,-1.18,-0.24,237.46,-1.471404,0.4380734,0.2247818
30101142,-1.18,-0.24,237.46,-1.482017,0.4407627,0.2247668
30121101,-1.18,-0.24,237.46,-1.492497,0.4429929,0.2243673
30141123,-1.18,-0.24,237.46,-1.503493,0.444709,0.2241141
30161156,-1.18,-0.24,237.46,-1.513064,0.4475884,0.2234789
30181158,-1.17,-0.24,237.46,-1.522455,0.4507779,0.2230469
30201087,-1.17,-0.24,237.46,-1.531891,0.4551055,0.2226034
30221149,-1.17,-0.23,237.46,-1.540611,0.4601692,0.2217188
30241139,-1.17,-0.24,237.46,-1.549864,0.4633458,0.2209765
30261157,-1.17,-0.23,237.46,-1.559461,0.4654558,0.2202375
30281156,-1.17,-0.23,237.45,-1.569081,0.4687633,0.2195574
30301059,-1.17,-0.23,237.46,-1.578878,0.4719932,0.2190412
30321200,-1.16,-0.23,237.46,-1.588226,0.4755615,0.218521
30341150,-1.16,-0.23,237.46,-1.596833,0.4799594,0.2171481
30361144,-1.16,-0.23,237.46,-1.60565,0.4836987,0.2169227
30381077,-1.16,-0.23,237.46,-1.615207,0.4861245,0.2164714
30401161,-1.16,-0.23,237.45,-1.624954,0.4895763,0.2157275
30421157,-1.16,-0.22,237.45,-1.634385,0.4931992,0.2152555
30441143,-1.16,-0.22,237.46,-1.643476,0.4962629,0.2141654
30461152,-1.16,-0.23,237.46,-1.65205,0.4998935,0.2129252
30481100,-1.16,-0.23,237.46,-1.660918,0.5040196,0.2121672
30501110,-1.15,-0.23,237.46,-1.670232,0.5073512,0.2113589
30521146,-1.15,-0.23,237.46,-1.680167,0.5104656,0.2108217
30541138,-1.15,-0.23,237.46,-1.689468,0.5131822,0.2099969
30561143,-1.15,-0.23,237.46,-1.69855,0.5153429,0.2095144
30581089,-1.15,-0.23,237.46,-1.707373,0.518742,0.2089042
30601158,-1.14,-0.23,237.46,-1.716084,0.5227274,0.208538
30621163,-1.14,-0.23,237.46,-1.725003,0.5263269,0.2079518
30641140,-1.14,-0.23,237.46,-1.734008,0.5288099,0.2072962
30661092,-1.14,-0.23,237.46,-1.743075,0.5313579,0.206545
30681107,-1.14,-0.23,237.46,-1.752349,0.5344416,0.2059277
30701138,-1.14,-0.23,237.46,-1.761176,0.5379707,0.2052248
30721159,-1.13,-0.23,237.45,-1.770177,0.5417554,0.2047701
30741139,-1.13,-0.23,237.45,-1.778265,0.5449737,0.2033106
30761102,-1.13,-0.24,237.45,-1.786831,0.5477562,0.2027358
30781094,-1.13,-0.24,237.46,-1.795803,0.5509035,0.2019732
30801139,-1.13,-0.24,237.46,-1.804459,0.5536076,0.2016473
30821157,-1.12,-0.23,237.46,-1.813792,0.5565551,0.2009955
30841082,-1.12,-0.23,237.46,-1.821974,0.5592077,0.200357
30861101,-1.12,-0.23,237.46,-1.830406,0.5623375,0.1996768
30881212,-1.12,-0.23,237.46,-1.838864,0.5654649,0.1994349
30901157,-1.11,-0.24,237.46,-1.847712,0.5684131,0.1990145
30921160,-1.11,-0.23,237.46,-1.856934,0.57176,0.1987704
30941169,-1.11,-0.23,237.46,-1.865275,0.5738214,0.1977978
30961148,-1.11,-0.23,237.45,-1.873727,0.575701,0.1968753
30981170,-1.11,-0.23,237.46,-1.882207,0.5785336,0.1963707
31001138,-1.11,-0.24,237.46,-1.890538,0.5820958,0.1957017
31021146,-1.1,-0.24,237.46,-1.899033,0.5857872,0.195293
31041090,-1.1,-0.24,237.46,-1.906928,0.5878698,0.194273
31061095,-1.1,-0.23,237.45,-1.91548,0.5902277,0.193597
31081170,-1.1,-0.24,237.45,-1.924039,0.5926378,0.1929814
31101145,-1.1,-0.24,237.45,-1.932746,0.5949352,0.1922556
31121158,-1.09,-0.24,237.45,-1.941077,0.5984578,0.1913603
31141091,-1.09,-0.24,237.46,-1.948336,0.6007012,0.1911612
31161165,-1.09,-0.24,237.46,-1.956461,0.6034268,0.1901395
31181168,-1.09,-0.25,237.46,-1.964882,0.6055851,0.1892856
31201151,-1.09,-0.24,237.46,-1.973328,0.6083133,0.1888522
31221092,-1.09,-0.24,237.46,-1.981895,0.6114103,0.1885566
31241107,-1.08,-0.24,237.46,-1.989574,0.6130319,0.1880111
31261145,-1.02,-0.27,237.45,-1.996074,0.615919,0.1869083
31281170,-1.06,-0.25,237.45,-2.003092,0.6195331,0.1857368
31301148,-1.02,-0.27,237.45,-2.011395,0.6203159,0.1863726
31321200,-1.01,-0.28,237.45,-2.020538,0.6218871,0.1849566
31341088,-0.99,-0.29,237.46,-2.027701,0.6204186,0.188545
31361130,-1.05,-0.26,237.46,-2.034997,0.6254889,0.1842105
31381157,-1.04,-0.26,237.46,-2.040832,0.6289312,0.1820821
31401146,-1.08,-0.23,237.46,-2.048055,0.6323687,0.1824198
31421109,-1.09,-0.22,237.46,-2.055259,0.6354147,0.181569
31441142,-1.13,-0.21,237.47,-2.063924,0.6362541,0.1817696
31461156,-1.18,-0.18,237.48,-2.071283,0.6370445,0.180219
31481157,-1.13,-0.2,237.47,-2.079528,0.6373647,0.1801424
31501092,-1.04,-0.25,237.46,-2.088195,0.6392074,0.1794944
31521180,-1.02,-0.26,237.46,-2.096135,0.6427848,0.1783974
31541149,-1.04,-0.25,237.46,-2.10217,0.6445342,0.1779428
31561134,-0.99,-0.28,237.46,-2.108175,0.6460885,0.1779923
31581102,-0.85,-0.35,237.47,-2.113867,0.6489786,0.1775959
31601165,-0.73,-0.41,237.47,-2.119733,0.6502141,0.177079
31621160,-0.58,-0.48,237.45,-2.128694,0.6533933,0.1726635
31641148,-0.73,-0.4,237.45,-2.137069,0.652894,0.1720401
31661060,-0.84,-0.34,237.45,-2.144083,0.6530528,0.1721658
31681163,-0.92,-0.3,237.45,-2.150087,0.656083,0.1717435
31701142,-0.92,-0.29,237.45,-2.155907,0.6588784,0.1717392
31721150,-0.87,-0.32,237.45,-2.161841,0.6626987,0.168415
31741139,-0.95,-0.28,237.45,-2.168765,0.6626178,0.1688806
31761083,-1.0,-0.26,237.46,-2.176292,0.6624635,0.1680969
31781145,-1.08,-0.22,237.47,-2.183159,0.6640813,0.1650272
31801132,-1.16,-0.17,237.48,-2.189951,0.6663032,0.1652358
31821159,-1.19,-0.14,237.48,-2.196851,0.6685305,0.1664983
31841075,-1.17,-0.14,237.47,-2.203309,0.6700122,0.1655041
31861087,-1.17,-0.13,237.47,-2.210875,0.6701978,0.1649061
31881178,-1.15,-0.13,237.46,-2.218469,0.6706616,0.163701
31901146,-1.16,-0.13,237.46,-2.226041,0.6729567,0.1631763
31921103,-1.13,-0.15,237.46,-2.232168,0.6748969,0.1631189
31941089,-1.11,-0.17,237.46,-2.238304,0.6762413,0.1627689
31961148,-1.08,-0.19,237.46,-2.244055,0.6778609,0.1614458
31981162,-0.95,-0.27,237.45,-2.249239,0.678493,0.1605179
32001152,-1.0,-0.23,237.46,-2.256025,0.6801375,0.1590181
32021180,-1.04,-0.21,237.46,-2.263259,0.6813446,0.1594093
32041075,-1.02,-0.21,237.46,-2.26977,0.681119,0.1587291
32061165,-0.99,-0.22,237.46,-2.275566,0.6820349,0.1577612
32081187,-0.99,-0.22,237.46,-2.281462,0.6838213,0.1569568
32101151,-0.99,-0.22,237.46,-2.287477,0.6856139,0.1572552
32121094,-0.94,-0.24,237.46,-2.293726,0.6877894,0.1556088
32141073,-0.95,-0.24,237.46,-2.299326,0.6879296,0.1541464
32161138,-0.94,-0.24,237.46,-2.305662,0.6873749,0.1537351
32181162,-0.91,-0.24,237.45,-2.316022,0.6901866,0.1530775
32201086,-0.96,-0.21,237.46,-2.317412,0.6888484,0.1533866
32221122,-0.96,-0.21,237.46,-2.322864,0.6923927,0.1514365
32241127,-0.96,-0.21,237.46,-2.327196,0.6923877,0.1510661
32261143,-0.93,-0.23,237.45,-2.332632,0.6926485,0.1496915
32281191,-0.89,-0.24,237.45,-2.338925,0.6928433,0.1473343
32301094,-0.95,-0.21,237.45,-2.345114,0.6938156,0.1462701
32321112,-1.01,-0.17,237.45,-2.350581,0.6964599,0.1453152
32341144,-1.08,-0.14,237.47,-2.355384,0.6968492,0.1443112
32361076,-1.14,-0.11,237.48,-2.359942,0.6946718,0.1440202
32381126,-1.13,-0.11,237.49,-2.365555,0.6944947,0.1434459
32401139,-1.09,-0.12,237.47,-2.370684,0.6948941,0.1421955
32421143,-1.09,-0.11,237.46,-2.376427,0.6980183,0.14225
32441074,-1.03,-0.15,237.46,-2.380312,0.6971832,0.1414285
32461097,-0.96,-0.19,237.46,-2.383398,0.6958916,0.1405697
32481193,-0.98,-0.17,237.46,-2.388958,0.6956323,0.1396255
32501125,-0.97,-0.17,237.46,-2.394619,0.6957608,0.1391414
32521157,-0.96,-0.17,237.46,-2.400584,0.6964216,0.1370985
32541139,-0.96,-0.17,237.46,-2.404654,0.6957636,0.1361219
32561076,-0.96,-0.18,237.46,-2.408543,0.6960832,0.1353958
32581140,-0.95,-0.18,237.46,-2.413544,0.6962041,0.1344393
