TimeUS,AccX,AccY,AccZ,GyrX,GyrY,GyrZ,VN,VE,VD,V_horiz_m_s,V_3D_m_s,KE_horiz_J,KE_3D_J
23906234,-0.3213449,-0.7015502,-9.810127,0.003900765,-0.001054333,-3.616797e-06,0.01341393,0.1257168,-0.3247118,0.12643040504674855,0.3484571715139823,0.09550826773870227,0.7254988422676611
23926311,-0.3210211,-0.7014762,-9.817644,0.003738777,-0.001403518,0.000142497,0.01343838,0.1271239,-0.3249156,0.12783221819335844,0.34915787708656154,0.09763792914920054,0.7284195582112766
23945889,-0.3156914,-0.6999531,-9.814856,0.003853605,-0.001434011,0.0002074616,0.01372393,0.1283957,-0.3252488,0.12912707707190968,0.34994368680485566,0.09962596714798104,0.7317019890090851
23965924,-0.3182031,-0.696323,-9.821029,0.003949516,-0.001025599,0.0003747512,0.01380271,0.1298821,-0.3255863,0.13061345529367982,0.35080808635412625,0.10193275135493073,0.7353212228723783
23985877,-0.314434,-0.6878521,-9.821909,0.004297227,-0.0008462526,0.0003633141,0.0140498,0.1315607,-0.3262896,0.13230878528854387,0.3520944727380565,0.10459604762056676,0.7407238434528227
24005988,-0.3168693,-0.6841675,-9.836193,0.004403173,-0.001190082,0.0002954944,0.01396521,0.1332391,-0.3274218,0.133968969762233,0.3537693033240647,0.10723741703344572,0.7477875018470047
24026496,-0.325769,-0.694661,-9.837101,0.004352097,-0.001510361,0.0002349336,0.01381247,0.1345068,-0.3279653,0.1352141396960425,0.35474512199300345,0.10924010985310187,0.7519185069275396
24045897,-0.3368222,-0.6994848,-9.840144,0.004393752,-0.001942942,0.0001455975,0.01358858,0.1359229,-0.3288543,0.13660045479728977,0.3560966650774989,0.11149161339868777,0.7576588884039155
24065980,-0.3270995,-0.7037584,-9.828578,0.004234553,-0.00215247,-4.712964e-05,0.01391402,0.1372761,-0.3293633,0.13797944623664207,0.35709734102995,0.11375400731302814,0.7619231030496958
24085925,-0.3144256,-0.702524,-9.830652,0.003856722,-0.002145837,-0.0001304533,0.01405309,0.1386074,-0.3301099,0.13931798402685885,0.35830440515198536,0.11597176652301588,0.7670827293391255
24105928,-0.3193769,-0.7002408,-9.825677,0.003953163,-0.002048192,-0.0001945839,0.01388282,0.1399526,-0.3307929,0.14063947858945014,0.35944875243673113,0.11818229105402661,0.7719903486292264
24126343,-0.328094,-0.6932493,-9.822408,0.00407482,-0.001991888,3.22899e-06,0.01387569,0.1417014,-0.3308195,0.14237914712111496,0.3601574143554261,0.12112413367124318,0.7750373446132368
24145935,-0.3225099,-0.6960754,-9.811887,0.004071304,-0.002118758,0.0002505823,0.01398355,0.1429888,-0.3309347,0.1436709316321242,0.36077570907716683,0.12333198616135395,0.7777006957542918
24165987,-0.323579,-0.6915445,-9.8181,0.004048983,-0.00231525,0.0003015836,0.0139948,0.1446878,-0.331377,0.14536304171239675,0.3618578865036383,0.12625422302788297,0.7823732518986578
24186093,-0.3195172,-0.6922069,-9.818677,0.004319775,-0.002540936,0.0004127259,0.01410805,0.146263,-0.3316926,0.14694183285845627,0.362783521040527,0.12901161590671992,0.7863810017529109
24205930,-0.3227825,-0.6942911,-9.825605,0.004578156,-0.002483728,0.0003222786,0.01412531,0.1478042,-0.3325846,0.1484776276758088,0.3642226270804659,0.13172249537341071,0.7926322794124417
24226348,-0.3302214,-0.697129,-9.837193,0.004491468,-0.002535196,0.0002615195,0.01403285,0.1492363,-0.3329895,0.14989461003255752,0.3651717420982386,0.13424865484795465,0.7967686473316983
24245882,-0.328311,-0.7012135,-9.828391,0.004125914,-0.002090956,0.0002921207,0.01389141,0.1507134,-0.3333398,0.15135223887127702,0.3660914127310119,0.1368723137628049,0.8007869617904438
24265987,-0.3285744,-0.7043126,-9.825609,0.004112735,-0.002173593,0.0002155536,0.01394965,0.1520327,-0.3337485,0.15267132869144912,0.36701034843266,0.13926849426136464,0.8048121602435585
24285887,-0.3239939,-0.7093832,-9.817686,0.003814352,-0.002182551,3.735943e-05,0.01395861,0.1532516,-0.3341831,0.15388598277845872,0.3679120003768593,0.14149335178176026,0.80877145912728
24305914,-0.3192807,-0.7068745,-9.808351,0.003685689,-0.002026107,-0.0002688988,0.01403563,0.1547609,-0.3344835,0.1553960587605326,0.3688185825721867,0.14428391209288374,0.8127622024320774
24326331,-0.3180493,-0.7075868,-9.819762,0.003635503,-0.002082758,-0.0003920079,0.01440693,0.1558985,-0.334695,0.15656277314315462,0.3695032407967147,0.1464586140572925,0.8157825536316676
24346182,-0.3197058,-0.7065455,-9.84076,0.003612696,-0.002123706,-0.0004513735,0.01445191,0.1574858,-0.3356532,0.15814750995285415,0.3710440749756396,0.1494385435531214,0.8226003908078052
24365925,-0.3171253,-0.707912,-9.834196,0.003760752,-0.001862077,-0.0004913001,0.01473019,0.1587444,-0.3359002,0.1594263561297068,0.3718140763726356,0.15186515909705667,0.8260181016482956
24385903,-0.3197802,-0.7005617,-9.814984,0.003949371,-0.001735015,-0.0004329452,0.01466085,0.1603646,-0.336034,0.16103336752326364,0.37262661554414295,0.15494217909889793,0.829632302805998
24405972,-0.318002,-0.6980765,-9.81481,0.004041592,-0.001627978,-0.0004353261,0.015014,0.161875,-0.3363988,0.16256978754061283,0.3736215845778185,0.15791289153047494,0.8340687035630789
24426328,-0.3101656,-0.7018014,-9.819106,0.004337709,-0.00174497,-0.0004477941,0.01534918,0.1634562,-0.3367311,0.16417529243193812,0.37462162291080103,0.16104732170454658,0.8385396281051264
24445904,-0.3212293,-0.6956499,-9.828734,0.00454903,-0.00152326,-0.0005299299,0.01525464,0.1651506,-0.3370526,0.16585362438575046,0.3756486122543907,0.16435686271329036,0.8431434823346813
24465935,-0.3151339,-0.6982338,-9.840416,0.0046448,-0.001322224,-0.0003694211,0.01559249,0.1667541,-0.3379169,0.16748150826646532,0.3771443847080586,0.16759908227698028,0.8498713743280002
24485908,-0.31878,-0.6997869,-9.837329,0.004733271,-0.001203445,-0.0001150544,0.01557459,0.1683087,-0.3385893,0.16902776798312785,0.378435067645492,0.17070805843741463,0.8556982750324924
24506130,-0.3236355,-0.6955243,-9.837879,0.004947726,-0.001591311,-2.214837e-05,0.01568397,0.1701614,-0.3394316,0.17088267602340765,0.38001934167023776,0.17447531156540239,0.8628778327597983
24526304,-0.3179925,-0.6949083,-9.834997,0.004942492,-0.002139237,-7.335353e-05,0.01595461,0.1718298,-0.3396409,0.1725689130414053,0.380967151735031,0.1779356777460453,0.8671874249390851
24545931,-0.3150214,-0.6917155,-9.831232,0.004501263,-0.002639714,-8.657105e-05,0.01612213,0.173573,-0.3398384,0.1743201348230803,0.38193932439498407,0.18156536869330295,0.8716189439277987
24565920,-0.3181073,-0.70147,-9.824467,0.004092275,-0.002899359,0.0001361331,0.01620505,0.1749934,-0.3399808,0.17574212269419787,0.38271691634640675,0.18453962979214839,0.8751716223947724
24585910,-0.3227131,-0.7064081,-9.816977,0.00396233,-0.002941713,0.000271943,0.01643466,0.1764822,-0.3400966,0.17724577559466856,0.38351240175216705,0.1877109881727797,0.8788135297288505
24605958,-0.3160733,-0.6986842,-9.816652,0.003709652,-0.002921142,0.000279085,0.01676066,0.1782806,-0.3407247,0.17906672516130853,0.38491325418863614,0.1915877300584737,0.8852453241692615
24626373,-0.316851,-0.6974134,-9.827838,0.003763785,-0.003227295,0.0001854813,0.01684238,0.1800922,-0.3409368,0.1808780425173393,0.38594658679556215,0.1954832759328038,0.8900047379583877
24645881,-0.3199397,-0.6931014,-9.832949,0.004147872,-0.003566841,6.628711e-05,0.01714671,0.1818195,-0.3411735,0.1826262309857872,0.3869776445045942,0.19928023295834274,0.8947663916442864
24666164,-0.3196991,-0.7020998,-9.82146,0.004313661,-0.003120948,-3.818551e-06,0.01721115,0.1831997,-0.3413201,0.18400639598778218,0.3877599314375101,0.2023036637423647,0.8983876424598244
24685885,-0.319759,-0.7026519,-9.827527,0.004130205,-0.002770208,8.130562e-06,0.01752291,0.1850076,-0.3420076,0.1858355844089826,0.38923522822374146,0.20634581498495286,0.9052367757700689
24705897,-0.3197243,-0.6955284,-9.817411,0.003871885,-0.002683107,0.0001294625,0.01751299,0.1868822,-0.342186,0.18770098959669898,0.39028569034949273,0.2105091774360911,0.9101294475471912
24726306,-0.3278614,-0.6976007,-9.828651,0.003614992,-0.002467875,0.0001014504,0.01765435,0.1883862,-0.3426085,0.18921161810090442,0.3913842366480956,0.21391119263556593,0.9152601836622595
24745913,-0.325169,-0.7029864,-9.836851,0.003302473,-0.002179508,0.0002265251,0.01779019,0.1900103,-0.3431564,0.1908413083331963,0.39265343475803965,0.2176119196737984,0.9212059009680343
24765922,-0.3246332,-0.7038145,-9.83858,0.003530577,-0.001931815,0.0003069809,0.01795803,0.1917203,-0.343724,0.19255950839564093,0.39398648764846095,0.22154800653458617,0.9274714808861859
24785923,-0.3130459,-0.701278,-9.83692,0.003786887,-0.001493521,0.0002667283,0.01852457,0.1933999,-0.3444115,0.1942850509269689,0.39543136237019044,0.22553641905682703,0.9342866250170205
24805962,-0.308125,-0.7107729,-9.83318,0.00407248,-0.001008107,0.0002889813,0.01859186,0.1947037,-0.3449306,0.19558933522037852,0.39652529158719446,0.22857474861039886,0.9394630335381497
24826494,-0.3174319,-0.7121753,-9.822787,0.004508279,-0.001057956,0.000446313,0.01890412,0.1963184,-0.3449502,0.19722646863830018,0.3973523882041914,0.23241722259091802,0.9433862994591571
24845888,-0.3162052,-0.7027171,-9.821304,0.004885335,-0.001698295,0.0004716196,0.01907509,0.1981404,-0.3453935,0.19905646729174137,0.39864789854321087,0.2367502760947419,0.9495478784021858
24865998,-0.3161543,-0.6980301,-9.831107,0.004783053,-0.001978274,0.0004130353,0.01950186,0.2000054,-0.3458106,0.20095393146843282,0.39995931498713666,0.24128533337140204,0.955805535528753
24885907,-0.3074713,-0.6988138,-9.829851,0.004380303,-0.00190604,0.0002491559,0.02007091,0.201676,-0.3463666,0.20267227339778893,0.4013052105315705,0.24542940116526288,0.962249085198734
24905942,-0.3045116,-0.7011913,-9.830661,0.003799289,-0.001658752,6.453635e-05,0.02041273,0.2033134,-0.3469048,0.2043355528673679,0.40261142361916774,0.24947428353953707,0.9685233516112013
24926306,-0.3132109,-0.697315,-9.824258,0.003486913,-0.001597146,-0.0001686262,0.02069709,0.205245,-0.3468241,0.20628591701681456,0.40353542087439875,0.2542594303678219,0.9729739945041618
24945962,-0.3180536,-0.7002188,-9.822895,0.003191559,-0.001398158,-0.0003095129,0.02075504,0.2068747,-0.3469527,0.2079132347530854,0.40448002326787613,0.2582867812833123,0.9775344331061201
24965964,-0.3167172,-0.7018309,-9.819956,0.003009338,-0.001609863,-0.0002806306,0.02122111,0.2086045,-0.3470521,0.2096811220159843,0.40547667385965874,0.26269788325604554,0.982357714939645
24986211,-0.3152242,-0.7021914,-9.814022,0.002783423,-0.001427525,-0.0001268237,0.02133372,0.210254,-0.3471919,0.2113335565522863,0.4064530570073848,0.2668546859471044,0.9870944231151243
25005943,-0.3202654,-0.7075797,-9.817325,0.002851233,-0.001211269,-3.1819e-05,0.02147835,0.2117579,-0.347471,0.21284437444088697,0.40747861731891216,0.2706837981935167,0.9920819708434915
25026364,-0.3159975,-0.7074972,-9.828393,0.002912017,-0.0007838008,-8.069178e-05,0.02185157,0.2134331,-0.3476938,0.21454878067021238,0.4085610821474739,0.2750362962402725,0.9973598931269516
25045886,-0.3168471,-0.7107045,-9.824122,0.003070493,-0.0006366287,-0.0002163987,0.0220493,0.215104,-0.3474304,0.21623113200112976,0.40922339289274506,0.2793665171177777,1.0005961171116338
25065920,-0.3161959,-0.705022,-9.81449,0.003621239,-0.001101289,-0.0002444376,0.02240704,0.2169502,-0.3475583,0.21810425195672276,0.4103245503506847,0.28422755171156955,1.0059882638074373
25085887,-0.3221599,-0.702137,-9.823312,0.004129499,-0.001359784,-0.0001253366,0.02234623,0.2186383,-0.3478902,0.21977729687595782,0.4114968426101747,0.28860480982706477,1.0117446675819037
25105910,-0.3194919,-0.7019076,-9.825877,0.004275097,-0.001028297,-3.894252e-05,0.02259787,0.2203915,-0.3481525,0.22154700855752238,0.412666015389003,0.2932713850797017,1.0175021105357953
25126367,-0.3223811,-0.7045155,-9.822497,0.004427835,-0.0006516257,0.0001242402,0.02253761,0.2221264,-0.3479984,0.22326683909947778,0.41346217220446185,0.29784228661279577,1.0214320328680915
25146082,-0.3243866,-0.7056138,-9.816545,0.004652124,-0.0007126492,0.0001999826,0.02282228,0.2237701,-0.3479877,0.22493090965540596,0.41435414016237176,0.3022986368574902,1.025843886981448
25165911,-0.3218577,-0.7067109,-9.832688,0.004818482,-0.001365894,0.0002456043,0.0230408,0.2255795,-0.348489,0.22675314614110648,0.4157662473143894,0.3072165109772177,1.0328478951251927
25185929,-0.3207354,-0.7112008,-9.841753,0.004569554,-0.00154267,0.0004064215,0.02333522,0.2271604,-0.3492219,0.22835581845139924,0.41725569529991846,0.31157461942813525,1.0402613336798048
25205927,-0.3185576,-0.7096993,-9.840484,0.00446473,-0.001550321,0.0004855348,0.02338184,0.2290992,-0.3497677,0.2302892830385852,0.4187727281542049,0.316873094447493,1.0478393221281508
25226359,-0.3204315,-0.7060766,-9.837086,0.004564377,-0.001469821,0.0004174146,0.02371013,0.2306521,-0.3497205,0.23186755163029366,0.4196033717920733,0.32123130495668567,1.0520002629751792
25245895,-0.3176022,-0.712394,-9.836067,0.004461274,-0.001584109,0.0004295646,0.02405433,0.232282,-0.3502991,0.23352417073131615,0.42100237264955986,0.32583789143659964,1.0590269117149391
25265985,-0.3102839,-0.7161626,-9.847596,0.004203713,-0.002044732,0.0003652587,0.02451469,0.2338849,-0.3509104,0.23516614653007797,0.4224230406854793,0.33043612093099145,1.0661863211792475
25285899,-0.3128268,-0.7130283,-9.850177,0.003675437,-0.002353376,0.000169851,0.02478867,0.2356716,-0.3517996,0.23697168861897597,0.42416805604275404,0.3355295977114002,1.0750132751083563
25306233,-0.3146392,-0.7140532,-9.847396,0.003264921,-0.002540072,0.0001766237,0.0249473,0.2373312,-0.3525353,0.2386387778017856,0.42571070460680216,0.34026708596761174,1.0828468840004992
25326383,-0.3210125,-0.7103124,-9.84328,0.003171187,-0.002514797,0.000164141,0.02519908,0.2390774,-0.3528142,0.24040174047541002,0.42693191090061,0.3453131560210482,1.0890683678578472
25345882,-0.32058,-0.70432,-9.838225,0.003146122,-0.002397951,0.000226914,0.02541992,0.2409929,-0.3532231,0.24232983758343998,0.42835768763595966,0.350874407344718,1.0963545936270376
25365917,-0.3152883,-0.7089621,-9.833006,0.002957806,-0.002450707,0.0003934014,0.02591569,0.2425945,-0.3533063,0.24397482332901912,0.42935888955291945,0.35565419365009593,1.1014856098277435
25385955,-0.3114578,-0.7118229,-9.825861,0.002625309,-0.002119921,0.0005586366,0.02624849,0.2441849,-0.3533831,0.2455916297744899,0.4303427285093825,0.3603836104763584,1.1065393122858778
25405895,-0.3156412,-0.7152963,-9.819673,0.00243126,-0.001513264,0.0005971531,0.02645769,0.2457431,-0.3537467,0.247163267007349,0.4315395790870591,0.3650108413325329,1.1127027897038506
25426373,-0.3197128,-0.7154489,-9.818098,0.002811949,-0.001250419,0.0004732696,0.02651418,0.2473133,-0.3537325,0.24873051702186125,0.4324275102883863,0.36965454883532534,1.1172864711339192
25445898,-0.3248326,-0.7070473,-9.827119,0.003131708,-0.001160225,0.0003993579,0.02660598,0.2492894,-0.3539371,0.2507051717139485,0.43373327504415704,0.37554717166661944,1.124044209436169
25466205,-0.3252481,-0.7088316,-9.815906,0.003204257,-0.001083488,0.0004124851,0.02678827,0.2509201,-0.3538605,0.25234600847566996,0.4346214001333263,0.3804790852617773,1.128652174686771
25485908,-0.3179388,-0.7057082,-9.821462,0.003317043,-0.001284684,0.0005193881,0.02727393,0.2527556,-0.354043,0.2542228561498846,0.4358620268364806,0.38615983201930437,1.1351048459670796
25505922,-0.3125688,-0.7087768,-9.832644,0.003455511,-0.001729268,0.0004233076,0.02762035,0.2543938,-0.3547125,0.25588882197658125,0.4373786081518076,0.39123755804506083,1.1430177800411545
25526309,-0.306766,-0.7102744,-9.834483,0.003565024,-0.001879754,0.0004360437,0.02819598,0.2561548,-0.3552321,0.2577019496457107,0.43886232433601585,0.39680151173592243,1.150785834836622
25545934,-0.2998649,-0.7084733,-9.851114,0.003735178,-0.001985599,0.0003276926,0.02887858,0.2579984,-0.355845,0.25960960457074084,0.44048020478833827,0.4026979520426241,1.159286294591999
25565975,-0.3122487,-0.7039458,-9.848629,0.00348549,-0.002127325,0.0003222782,0.0289862,0.2599089,-0.3562416,0.2615202403058891,0.441928629600086,0.40864719563565866,1.1669229591197547
25585882,-0.3185252,-0.7092988,-9.839907,0.003430474,-0.002194033,0.0002174438,0.02931904,0.2614857,-0.3569397,0.26312426230017555,0.4434414581961204,0.4136754050307942,1.174925952911432
25605943,-0.3134761,-0.7114847,-9.842625,0.003334323,-0.002099059,0.0001670134,0.02985939,0.2633414,-0.3576272,0.26502882131030975,0.4451263756563658,0.4196856498476642,1.1838715045722081
25626498,-0.3135998,-0.7059675,-9.842692,0.003283695,-0.001828234,0.0001289081,0.03006051,0.2650855,-0.3579033,0.26678447588214366,0.44639526064083623,0.42526439051596776,1.1906306541175355
25645938,-0.3143841,-0.7133808,-9.835329,0.003587648,-0.001407482,0.0001104174,0.03046818,0.2668776,-0.3580498,0.2686111750733249,0.4476065489403751,0.4311079811612775,1.1971009453595167
25665975,-0.3154751,-0.7081929,-9.837983,0.003664236,-0.001026237,5.819695e-05,0.03088117,0.2686689,-0.3586039,0.2704378384911751,0.4491473940512055,0.4369913313144789,1.2053569549583585
25685930,-0.3159027,-0.7107025,-9.831776,0.003755351,-0.001343862,4.628297e-05,0.03116655,0.2704292,-0.358813,0.2722192242504972,0.4503888042797495,0.4427672536579663,1.2120291982477411
25705935,-0.3201362,-0.7104013,-9.830665,0.00411611,-0.002206889,-7.365007e-05,0.03110152,0.272107,-0.3595862,0.27387866655749293,0.4520085831328321,0.4481819058719796,1.2207627613738585
25726302,-0.3304578,-0.7075382,-9.837368,0.004440105,-0.002736931,-0.0002796537,0.03126658,0.2740719,-0.3598371,0.2758496064787956,0.45340461392768866,0.45465570723217563,1.2283150699872254
25745935,-0.3269562,-0.7083989,-9.834864,0.004457388,-0.002776834,-0.0002807346,0.03152085,0.2757828,-0.3598778,0.27757830743875234,0.4544906464311477,0.46037205764436095,1.23420644246808
25765974,-0.3157642,-0.7123148,-9.832354,0.00407866,-0.002239169,-0.0001713593,0.03225572,0.2774455,-0.3602404,0.27931422617362045,0.4558394264816597,0.4661482107342362,1.2415427568423925
25786188,-0.3034942,-0.7106938,-9.846841,0.004076965,-0.00202282,-0.0003206251,0.0328965,0.2794438,-0.3610552,0.28137344770018724,0.45774651775598474,0.47304682699737277,1.251952950243437
25805916,-0.2971093,-0.7078395,-9.839419,0.003848289,-0.002411347,-0.0003758921,0.03349956,0.2812133,-0.3612737,0.2832015900680708,0.4590444716242355,0.4792137651870745,1.259062915899422
25826341,-0.3100302,-0.7068248,-9.836247,0.003680926,-0.002256723,-0.0003936636,0.03372891,0.2832077,-0.3614694,0.2852091175069235,0.46043932048147024,0.4860318382367417,1.2667260978764923
25845901,-0.3149381,-0.7040726,-9.832998,0.003361678,-0.002213955,-0.0001753388,0.03420347,0.2849888,-0.3615257,0.28703395876704363,0.4616159932735985,0.49227124857574833,1.2732087183446763
25865964,-0.319746,-0.7070195,-9.835582,0.003370162,-0.001797677,6.70924e-05,0.0344048,0.2869151,-0.3619196,0.2889705259555894,0.4631303938797474,0.4989361901045236,1.2815763263678794
25885969,-0.3185739,-0.712503,-9.835857,0.003471415,-0.001452185,0.0002160181,0.03511564,0.2884296,-0.3622127,0.2905593611102034,0.4643520026553774,0.5044378354143982,1.2883461246611063
25905952,-0.3076311,-0.7168561,-9.843471,0.003708246,-0.001164102,0.0002033299,0.03552575,0.2902815,-0.3629624,0.29244730834000254,0.46611922505843134,0.5110144332279922,1.2981711135152085
25926299,-0.3129585,-0.7111338,-9.855168,0.003629044,-0.001033448,0.0001268148,0.03581668,0.2922398,-0.3635187,0.2944264513766764,0.46779566107431175,0.5179544382398178,1.3075258636067153
25946174,-0.3220702,-0.7074926,-9.850289,0.003450321,-0.0007926793,0.0001681553,0.03613046,0.2941329,-0.3637528,0.2963436738015873,0.4691861810732085,0.524721948688274,1.3153106432476178
25965984,-0.304913,-0.7130723,-9.853615,0.00337664,-0.001188542,9.517773e-05,0.0370705,0.2958501,-0.3641407,0.2981635518306354,0.47063781513680986,0.5311864842505536,1.3234622193945813
25985893,-0.3041552,-0.7103609,-9.855664,0.003263721,-0.001496478,0.0001108454,0.03748852,0.2978981,-0.3649679,0.30024767628642923,0.4725994447159353,0.5386382860145174,1.334517654996217
26005905,-0.3112127,-0.7124451,-9.831691,0.00329225,-0.001819536,0.0001909198,0.03785338,0.299582,-0.3645086,0.3019639930545104,0.4733379052805558,0.5448139622810108,1.3386914161379218
26026342,-0.3161764,-0.7150159,-9.828429,0.003549931,-0.002112386,0.000181486,0.03814314,0.3011442,-0.3646938,0.30355020725194637,0.4744937260714199,0.55055280172813,1.3452371690848093
26045921,-0.3133653,-0.7154988,-9.827722,0.003569279,-0.002093375,0.0004199979,0.03897401,0.3029715,-0.3646218,0.30546800694627596,0.47566769945306364,0.5575314520246873,1.3519020678102462
26066041,-0.3082436,-0.7153332,-9.826409,0.003294458,-0.001813708,0.000512302,0.03941517,0.3046793,-0.3645023,0.307218214750719,0.47670216926285214,0.5639386130608478,1.3577886251249558
26085941,-0.305171,-0.7171328,-9.826612,0.003248113,-0.001822037,0.0004647679,0.04003812,0.3063132,-0.3646847,0.3089188041336662,0.4779390734826609,0.570199194595562,1.3648439038197493
26106122,-0.3124648,-0.7181776,-9.83535,0.003301939,-0.001806386,0.0002461394,0.04043859,0.3079521,-0.3654213,0.31059583940484153,0.4795857607866273,0.5764069083471987,1.3742649491469963
26126301,-0.3240334,-0.7163893,-9.843666,0.003319579,-0.00115086,0.0002488577,0.04044269,0.309678,-0.3654584,0.31230766058237525,0.4807243669598995,0.5827780472791556,1.3807981040092516
26145903,-0.3223043,-0.7101306,-9.84372,0.003301657,-0.001135655,0.000177988,0.04104549,0.3114016,-0.3655247,0.31409503137092143,0.48193775017318374,0.5894677401731031,1.3877773703758907
26165944,-0.3024263,-0.7093053,-9.838591,0.003302203,-0.001314285,0.0003456248,0.04186859,0.3132091,-0.3656833,0.3159951252019533,0.48329824647963304,0.5966211919296037,1.3956237404254714
26185921,-0.3055848,-0.7100857,-9.833038,0.003555937,-0.001912763,0.0002127634,0.04223439,0.3150078,-0.3659689,0.3178264585579874,0.4847132075018403,0.6035566051130847,1.4038076888221647
26205957,-0.3096483,-0.7107608,-9.828178,0.003877128,-0.002311359,0.0001985049,0.04276514,0.3167664,-0.3660165,0.3196401247781317,0.48594020994401116,0.6104646109748731,1.410923878651567
26226339,-0.3121733,-0.7149734,-9.821589,0.004394904,-0.002140981,0.0001553898,0.04321018,0.3183001,-0.3658234,0.32121966520691475,0.48683553003370905,0.6165128880609634,1.4161277789866344
26245898,-0.3208695,-0.7153674,-9.835206,0.004616729,-0.002442289,2.272003e-05,0.04345063,0.320241,-0.366092,0.32317527029213866,0.4883294050048562,0.6240424755871714,1.4248320065595714
26266199,-0.3176169,-0.7145611,-9.845265,0.004669793,-0.002799435,-3.751729e-05,0.04402054,0.3217376,-0.3666583,0.3247351092747004,0.48978689259160624,0.6300810248940183,1.433349920923386
26285933,-0.3155985,-0.7139702,-9.841263,0.004525001,-0.002986012,-4.351069e-05,0.04445549,0.3236296,-0.3667834,0.3266686525935724,0.49116440333442335,0.6376066413091181,1.4414237648395891
26305979,-0.3121452,-0.7164574,-9.832984,0.004614557,-0.003138294,-7.611029e-05,0.04492977,0.3252574,-0.3671795,0.3283459463538615,0.4925767409320733,0.644171086409902,1.4497252781008956
26326352,-0.3147251,-0.7222373,-9.829703,0.004363124,-0.003170996,-0.0001473263,0.04549986,0.3265566,-0.3670111,0.3297111618729029,0.4933625419372549,0.649538965324888,1.4543544217760676
26345949,-0.3142727,-0.7266442,-9.83633,0.004351341,-0.003201999,-3.615842e-05,0.04605014,0.3281721,-0.367388,0.33138730001680755,0.4947640701955121,0.656159817109267,1.462629123809667
26365924,-0.3133222,-0.7219519,-9.85067,0.004187915,-0.003371608,0.0003471053,0.04635772,0.3300523,-0.3676423,0.3332920025126442,0.4962302083591631,0.6637242646598582,1.471310407636866
26385941,-0.3268075,-0.7139893,-9.853859,0.003813948,-0.00355471,0.0004189051,0.04667734,0.3316459,-0.3683714,0.3349145817313507,0.4978606887415852,0.6702024679113063,1.480994960730617
26405984,-0.3085427,-0.7173564,-9.849275,0.003738819,-0.003434886,0.0002955519,0.04758346,0.3334137,-0.3691311,0.3367920441656269,0.49968655175066656,0.677737564054238,1.4918777337528175
26426528,-0.3074444,-0.7159555,-9.856269,0.003358376,-0.002797007,0.0002448733,0.04812776,0.3351077,-0.3694897,0.3385460853146992,0.501134802511258,0.6848153749943978,1.500538139470785
26445927,-0.3137709,-0.7108361,-9.858963,0.003114523,-0.002528379,0.0002001411,0.04872179,0.3368337,-0.3701044,0.3403391753479081,0.5028001801668871,0.6920887568020524,1.5105279265257283
26465933,-0.3184015,-0.7092922,-9.847409,0.00281117,-0.002213012,4.756409e-05,0.04902204,0.3385027,-0.3702841,0.3420339724545671,0.504080899286872,0.6989987489204831,1.5182328793295232
26485893,-0.3217961,-0.7123724,-9.83624,0.002559197,-0.001760536,8.790711e-05,0.04941209,0.3401287,-0.3705357,0.3436991230740313,0.5053966681492351,0.7058212960311021,1.5261691082536797
26505916,-0.3141249,-0.7192054,-9.844152,0.002776724,-0.001172694,0.000344039,0.04991319,0.3418285,-0.3714368,0.34545339765043,0.5072507726386093,0.7130448484406509,1.537387494396235
26526296,-0.3137878,-0.7182859,-9.84444,0.002832995,-0.00056861,0.0005641833,0.05037355,0.3431962,-0.3716419,0.34687335763076776,0.5083687914001532,0.718918729248404,1.5441719977161736
26545906,-0.3112306,-0.7195603,-9.84731,0.003011555,-0.0003816802,0.0007240165,0.05101504,0.3447821,-0.3719745,0.34853583859713994,0.5097472505437,0.7258264539500041,1.552557500135248
26566017,-0.3148374,-0.7211861,-9.844951,0.003131126,-0.000498365,0.0008118992,0.05148563,0.3461238,-0.372226,0.34993207201246485,0.5108861420110521,0.7316534187620478,1.559502784341148
26586146,-0.3160322,-0.7173327,-9.842967,0.003437933,-0.0004699087,0.0007189914,0.05190432,0.3477797,-0.3726372,0.35163159438075586,0.5123507206890534,0.7387775495463456,1.5684569844187897
26605914,-0.3161032,-0.7165751,-9.845493,0.003841483,-0.0007335036,0.000604995,0.05239572,0.3495689,-0.373395,0.3534738000496337,0.5141668536054501,0.7465387707461323,1.579596131245507
26626328,-0.3056312,-0.7190741,-9.843666,0.004124825,-0.0009852051,0.0003897144,0.05336832,0.350736,-0.3733406,0.35477305319826985,0.5150214780802665,0.7520369176718438,1.584851559231795
26645919,-0.308122,-0.7224891,-9.846068,0.004249091,-0.001162945,0.0004320176,0.05371875,0.3522394,-0.3738068,0.3563120809261489,0.5164201997793681,0.7585758366081868,1.5934716908724709
26665926,-0.3166561,-0.7176474,-9.838585,0.004193813,-0.001328215,0.0005603547,0.05410472,0.3537636,-0.3737144,0.3578770814277416,0.5174344965100398,0.7652541323321495,1.5997372876171252
26685977,-0.3260727,-0.716081,-9.831634,0.004030528,-0.001419995,0.0006950136,0.05419236,0.355439,-0.3740645,0.3595465124338847,0.5188428902506226,0.7724103252551333,1.6084577199626269
26705930,-0.3178473,-0.7114715,-9.829491,0.003875122,-0.001694818,0.0007428013,0.05486485,0.3572202,-0.3744171,0.3614089415794281,0.5203888813435319,0.7804331277450357,1.6180574122601856
26726353,-0.3080699,-0.7101044,-9.839474,0.003680983,-0.001854828,0.0007916574,0.05567825,0.3586566,-0.3742696,0.3629526473889156,0.5213562675664142,0.7871143798735692,1.624078837441425
26746155,-0.30306,-0.7136496,-9.839088,0.003477493,-0.002551539,0.0006003277,0.05627609,0.360229,-0.3744265,0.36459831424005257,0.5226156662873187,0.7942682862114614,1.6319346295274049
26765949,-0.3034215,-0.7185692,-9.849113,0.003252832,-0.002571993,0.0002110678,0.05719972,0.3616489,-0.3750036,0.3661444180091899,0.524108228185981,0.801018865664748,1.6412693732421837
26785886,-0.306219,-0.7140598,-9.858243,0.002863543,-0.001946774,0.0001792862,0.05776464,0.3635153,-0.3755194,0.36807625156809504,0.5258278679803683,0.809493758636307,1.6520573068000581
26805951,-0.3122371,-0.7102259,-9.848549,0.002970403,-0.001549449,0.0002487949,0.05819738,0.3652239,-0.3760118,0.3698316267845064,0.527409049893263,0.8172332072161946,1.6620078278081531
26826336,-0.3147098,-0.7164237,-9.849239,0.003404326,-0.001643819,0.0002546267,0.05879198,0.3665446,-0.3762666,0.37122963338273574,0.5285716554801633,0.8234233581913453,1.6693432699878163
26845923,-0.3140942,-0.7208515,-9.851615,0.003932049,-0.001946589,0.0003175969,0.05941,0.367977,-0.3764179,0.37274202959821956,0.5297424431451666,0.8301463082582748,1.6767466600147252
26865980,-0.3132081,-0.7177662,-9.847795,0.004406128,-0.001759731,0.0002629957,0.05996405,0.3694866,-0.3764315,0.3743207646817933,0.530864115442184,0.8371933083599759,1.6838548366586696
26885893,-0.3109743,-0.7223428,-9.838427,0.004726812,-0.001719354,9.007222e-05,0.06051255,0.3709802,-0.3765626,0.37588306359763335,0.5320596481770653,0.8441962630597662,1.6914476285793574
26906196,-0.3180006,-0.7204694,-9.834729,0.004638887,-0.002187798,8.034437e-05,0.06091108,0.3725974,-0.3769161,0.37754335135653816,0.5334835785595808,0.8516704183673203,1.7005132533416
26926319,-0.3153091,-0.7221089,-9.842544,0.004584533,-0.002623633,9.420067e-05,0.06158193,0.3737187,-0.3770474,0.3787584993531035,0.5344368462961503,0.8571615549724841,1.7065958875068754
26945938,-0.3077395,-0.7190097,-9.834081,0.004646704,-0.00310805,9.380893e-05,0.06228204,0.3750406,-0.3767985,0.38017693795773777,0.5352677963012268,0.8635936623256565,1.7119068921991003
26965912,-0.3146016,-0.7185923,-9.832016,0.004674781,-0.003902792,0.0001213673,0.06261965,0.376389,-0.3769388,0.381562445593277,0.5363513389864544,0.8698996518255567,1.7188447340245607
26985896,-0.3196599,-0.7169942,-9.83179,0.004523891,-0.003684389,0.0004007937,0.06312367,0.3779381,-0.3771347,0.3831733356405152,0.5376359242926099,0.8772602857466265,1.7270880128625643
27005937,-0.3187609,-0.7145693,-9.837986,0.00407178,-0.002909769,0.0004630958,0.06354465,0.3794406,-0.3776276,0.3847246956876859,0.5390878367703564,0.8843782215450956,1.736428782128611
27026318,-0.3224541,-0.7163418,-9.847065,0.003713512,-0.002673847,0.0005502015,0.06405298,0.3806585,-0.3778632,0.3860099452982143,0.5401705987772478,0.8902969752680541,1.7434110478056384
27045864,-0.3177668,-0.7212194,-9.845987,0.003875714,-0.002702066,0.0004375023,0.06455521,0.3818479,-0.3778905,0.3872663087237955,0.5410881849225726,0.8961017833885107,1.7493391325802545
27066198,-0.3128061,-0.721047,-9.843456,0.00416196,-0.002819439,0.000246688,0.06521735,0.383104,-0.378214,0.38861546232364774,0.5422801926615267,0.9023563159032093,1.7570551489343094
27085976,-0.3086805,-0.7261216,-9.845532,0.004432453,-0.002888595,0.0001196852,0.06591717,0.3842972,-0.3788478,0.3899094910727987,0.5436497648242744,0.9083757320911772,1.7659415240910958
27105899,-0.3130765,-0.7186382,-9.857603,0.004557446,-0.003057321,0.0003518401,0.06628493,0.3860894,-0.3796202,0.3917380715956325,0.5454999660728723,0.9169158325063528,1.7779820225883913
27126346,-0.3178453,-0.7175949,-9.857305,0.004713499,-0.003229391,0.0005366965,0.06680587,0.3870788,-0.3798078,0.3928015041670499,0.5463945338459535,0.921900804513484,1.7838182450350024
27145947,-0.3174579,-0.716173,-9.843508,0.004628323,-0.002951132,0.0005421884,0.06746543,0.3884167,-0.3797842,0.3942323135969132,0.5474076686105291,0.92862922457675,1.790439555030349
27165974,-0.3002995,-0.719993,-9.832282,0.004239606,-0.002323551,0.0004717232,0.06855511,0.3895333,-0.3796569,0.3955199045762452,0.5482475322640423,0.9347050696231126,1.7959377558858323
27185954,-0.2979525,-0.7213141,-9.844679,0.004143095,-0.001817456,0.0005375036,0.06936121,0.3908725,-0.3805379,0.39697895247596454,0.5499103400058268,0.9416139250357617,1.8068482577208111
27205913,-0.2987069,-0.7204267,-9.854092,0.004048028,-0.001692242,0.0006614639,0.07004893,0.3923276,-0.3810642,0.39853205431421057,0.5513961578008546,0.9489960949375316,1.8166253939543309
27226463,-0.3013461,-0.7210846,-9.851017,0.004045151,-0.002042841,0.0006530109,0.07094318,0.3932574,-0.3813615,0.3996052019722371,0.5523775078019764,0.9541137967235525,1.8230974439749965
27245940,-0.3066128,-0.7254045,-9.84417,0.004296707,-0.002124237,0.0004578003,0.07164012,0.3943293,-0.3813231,0.40078411100255007,0.5532044922320447,0.9597517242018236,1.8285603810986437
27265981,-0.3025781,-0.7258794,-9.844991,0.004386086,-0.001715498,0.000460715,0.07255124,0.3952781,-0.3816826,0.4018811500495484,0.5542472967078031,0.9650130411217571,1.8354606437997476
27285878,-0.3119949,-0.7309387,-9.847808,0.004638964,-0.001386397,0.0002786119,0.07289615,0.3964206,-0.3821515,0.4030671665978048,0.5554303824435899,0.9707172662153655,1.8433048857050591
27305902,-0.323373,-0.7200071,-9.859743,0.00481089,-0.0009376349,0.000110122,0.07305347,0.398134,-0.3832485,0.40478079430111413,0.5574288332938034,0.9789887613243691,1.8565932525190632
27326352,-0.3258829,-0.7175481,-9.860762,0.004839307,-0.0008502019,3.466865e-05,0.07362903,0.3991534,-0.3830835,0.40588751002008044,0.5581197351487859,0.9843494079720478,1.8611983916062413
27345878,-0.3129679,-0.7170984,-9.854821,0.004833436,-0.001141836,3.125328e-05,0.0744214,0.4004338,-0.383279,0.40729077200496455,0.5592750350242714,0.9911674934383901,1.8689116746883652
27365977,-0.3089224,-0.7165223,-9.846242,0.004610077,-0.00136849,-5.142472e-05,0.07495257,0.4017611,-0.3832082,0.4086928788501396,0.5602485107254235,0.9980034686063189,1.875423402776078
27386230,-0.3152494,-0.7199998,-9.839196,0.004310124,-0.001693237,4.432171e-05,0.0753742,0.4031741,-0.383224,0.4101592677685706,0.5613299022076501,1.0051779839952886,1.882670273196889
27405945,-0.3264472,-0.7180539,-9.851293,0.004110098,-0.002012526,-4.658495e-06,0.07565995,0.4046626,-0.3841013,0.4116749298569959,0.5630364611057196,1.0126205810397557,1.8941350877933536
27426299,-0.325888,-0.7190971,-9.849798,0.003814032,-0.001579872,1.861356e-05,0.07617647,0.4056575,-0.3837983,0.4127479398954172,0.5636151142143022,1.0179061497802677,1.8980304319005354
27445946,-0.3099246,-0.7171565,-9.851659,0.003570624,-0.001077715,0.0001233544,0.07701418,0.4068072,-0.3840868,0.41403294783496686,0.5647530007243453,1.0242541093101516,1.9057020621672354
27465973,-0.3095369,-0.7180529,-9.857285,0.003735491,-0.0006262379,0.0001135845,0.077456,0.4079703,-0.3843721,0.41525798922849155,0.5658454814492203,1.0303242057680877,1.913082125537087
27485902,-0.311823,-0.7253092,-9.856626,0.003895433,-0.0006833441,5.018146e-05,0.07804868,0.4090733,-0.3850406,0.4164523516833977,0.5671761850351197,1.0362595533052283,1.9220907286041788
27505886,-0.3117108,-0.7222338,-9.84982,0.00416826,-0.0006668147,4.002855e-05,0.07876291,0.4105051,-0.3853361,0.4179928625200173,0.568508525073185,1.0439402478781266,1.9311316099083067
27526329,-0.308823,-0.7174001,-9.850296,0.004179503,-0.0006396142,-4.635114e-06,0.07942455,0.4113584,-0.3853746,0.4189558358505852,0.5692429838991628,1.0487558545497433,1.9361245089425747
27546185,-0.3087533,-0.7161275,-9.850476,0.004110598,-0.0005410056,6.938635e-05,0.0799872,0.4124855,-0.3858919,0.4201692990618068,0.5704864576479446,1.0548398832476877,1.9445924201992077
27565942,-0.3112789,-0.7174855,-9.847173,0.00407883,-0.0006788499,0.0002003455,0.08036627,0.4134616,-0.3858155,0.4211997531199097,0.5711942157169686,1.0600201613689304,1.949420421609424
27585896,-0.3137883,-0.7205516,-9.849768,0.004155895,-0.001365204,2.87723e-06,0.0809043,0.4146179,-0.3865376,0.4224375797190633,0.5725948174517999,1.0662597148344273,1.9589923292116433
27605976,-0.3173023,-0.725243,-9.860867,0.004380686,-0.002210658,5.487193e-05,0.08143061,0.4157926,-0.3873086,0.42369143307333,0.5740404010988183,1.072598721996899,1.9688962330098103
27626314,-0.3101664,-0.7202671,-9.864897,0.004361774,-0.002797628,0.0001458762,0.08207454,0.4166732,-0.3875218,0.42467962714786733,0.5749138467541826,1.0776078946438483,1.9748924388584077
27645945,-0.3153157,-0.7199132,-9.85525,0.004165954,-0.002653956,0.0003654082,0.08244172,0.4174789,-0.3878201,0.4255411485882046,0.5757514212798597,1.0819844831220662,1.9806509521570261
27665944,-0.3110341,-0.7251714,-9.848537,0.004039656,-0.002557168,0.0005939039,0.08316186,0.4183715,-0.3880268,0.42655668670284563,0.5766414869649509,1.0871548766511847,1.986779541822669
27685930,-0.307196,-0.725988,-9.841511,0.003994754,-0.002648112,0.0008223331,0.08357244,0.4194094,-0.3881369,0.42765476442559786,0.5775282250050846,1.0927593702770837,1.9928946327982036
27706172,-0.3117755,-0.7262599,-9.834066,0.004081978,-0.003007949,0.001024153,0.08446597,0.4204355,-0.3881587,0.4288362271873622,0.5784182622756485,1.0988055457460382,1.999041924650536
27726320,-0.3075459,-0.7258521,-9.836983,0.004313401,-0.003296613,0.001028785,0.08499768,0.4211137,-0.3881381,0.4296060450378607,0.578975421416732,1.1027540897501076,2.002894918162977
27745886,-0.3073671,-0.7253236,-9.841433,0.004595273,-0.003155863,0.0008807358,0.08568188,0.4218767,-0.3881676,0.4304896451289211,0.5796511194270088,1.1072949740152656,2.0075726360115813
27765926,-0.3180851,-0.7256544,-9.841206,0.004819409,-0.002977751,0.000828759,0.08583763,0.4226289,-0.3881546,0.4312577951054646,0.5802131326852116,1.1112501328893805,2.0114674940588118
27785933,-0.320036,-0.7289168,-9.844653,0.004762618,-0.00202521,0.000600638,0.08635648,0.4234698,-0.3886297,0.4321852764151394,0.5812204030074309,1.1160350760714317,2.0184575123109196
27805965,-0.3181351,-0.7283924,-9.844761,0.004615199,-0.001786787,0.0004912782,0.08696065,0.4246638,-0.3888777,0.43347606355929563,0.582346428885893,1.1227114486312033,2.026285995336011
27826324,-0.3204998,-0.7282657,-9.843072,0.004445634,-0.001675965,0.0003443186,0.08714584,0.4249732,-0.3886664,0.43381634149435355,0.5824587441497514,1.1244747934315849,2.0270676771031204
27845913,-0.3179464,-0.7265293,-9.83965,0.004235735,-0.001589465,0.0002315145,0.08760781,0.4257329,-0.3886538,0.4346534602593267,0.5830741005822898,1.1288186923295513,2.031353055449831
27866139,-0.3121505,-0.7186751,-9.851466,0.004027174,-0.001903529,0.00026525,0.08830678,0.4268386,-0.3892151,0.4358775950240255,0.5843609089526253,1.1351859351174722,2.0403290896738318
27885866,-0.3100618,-0.7244679,-9.848028,0.004348076,-0.002404064,0.0002369512,0.08878036,0.4276215,-0.3893801,0.4367403113796339,0.5851144861136063,1.139684045014278,2.0455947971134374
27905972,-0.3145959,-0.7259043,-9.85067,0.004372619,-0.001962242,0.0001211686,0.08926955,0.4288438,-0.3900301,0.4380365936261975,0.586514736610814,1.1464594426999637,2.0553972291633738
27926335,-0.3207119,-0.7254422,-9.849299,0.0045531,-0.001845527,-6.344135e-05,0.08944412,0.4292971,-0.3900955,0.4385159639864715,0.5869163056102926,1.1489700977591317,2.058212730002625
27945882,-0.3251495,-0.7204919,-9.854538,0.004392399,-0.001353841,-2.817748e-05,0.08970105,0.4300855,-0.3902251,0.43934020494527076,0.5876184513367178,1.1532933986960812,2.063140279999391
27965939,-0.324102,-0.7202643,-9.848625,0.004082336,-0.001206075,0.0001141679,0.0899345,0.4308623,-0.3904844,0.44014831119923653,0.588394937516376,1.1575399517129512,2.0685963999070274
27985885,-0.322394,-0.7286448,-9.843869,0.004191375,-0.001494791,0.0002575163,0.09041849,0.4315811,-0.3903816,0.44095096009770757,0.5889274512447608,1.1617655515362633,2.072342368407159
28005919,-0.3199222,-0.7280743,-9.843751,0.00455121,-0.002328262,0.0002030923,0.09087371,0.4327368,-0.3910656,0.4421754959780156,0.5902977831118494,1.1682270362293392,2.081997549661915
28026514,-0.3071709,-0.7249547,-9.850396,0.004435741,-0.002701837,0.0002478696,0.09168316,0.4331757,-0.3908685,0.44277193779425045,0.5906142338196105,1.1713807586660014,2.084230409812195
28045909,-0.3049085,-0.7225998,-9.832757,0.004402163,-0.002686158,0.0002334924,0.09208505,0.4337464,-0.3903233,0.44341357212704086,0.5907350289845291,1.1747781857801132,2.0850830499543807
28065917,-0.3085004,-0.7229172,-9.835731,0.004533018,-0.002984372,9.278358e-05,0.09279672,0.4346064,-0.390625,0.4444029187164711,0.5916771457380439,1.1800263761282173,2.0917390226125923
28085956,-0.3079148,-0.7241371,-9.846074,0.00457215,-0.002808489,3.874633e-06,0.09337763,0.4354606,-0.3908755,0.44535976012295597,0.5925613659672954,1.1851132627222418,2.097995610311236
28105979,-0.3148631,-0.7236945,-9.847901,0.004341118,-0.00239499,-2.435654e-05,0.09380864,0.4365788,-0.3911455,0.4465435136110361,0.5936294397335257,1.1914216295498352,2.105565572517079
28126364,-0.3114538,-0.7263578,-9.851258,0.00421687,-0.001593198,-4.767323e-05,0.09441736,0.4369039,-0.3909497,0.44698954764578064,0.593836108395801,1.193802942834863,2.1070319087171505
28145870,-0.3051408,-0.7226699,-9.855297,0.003751675,-0.0009449084,-8.959487e-05,0.0952308,0.4377652,-0.391313,0.44800365578829826,0.5948387508969806,1.1992259717080882,2.1141530089228637
28165989,-0.3017549,-0.7222368,-9.852886,0.003459492,-0.0005756273,-0.0001904274,0.09581696,0.4385312,-0.3913264,0.44887693547015933,0.5955055453428134,1.2039057566025624,2.1188954558408986
28186089,-0.3145848,-0.717555,-9.851706,0.003491717,-7.544246e-05,-3.828894e-05,0.09609441,0.4397759,-0.3917981,0.45015217188641676,0.5967769508096539,1.2107559426779972,2.1279528058805663
28205951,-0.3152244,-0.7205617,-9.85077,0.003497035,0.0001544269,-9.02992e-05,0.09663875,0.4408012,-0.3918136,0.4512701473873521,0.5976308585305502,1.2167773568899398,2.134046792331076
28226356,-0.3086746,-0.7206236,-9.839733,0.003335342,-0.0002459978,-1.289035e-05,0.09734204,0.4412673,-0.3914087,0.4518764242585041,0.5978236138162674,1.2200490092338931,2.135423612587141
28245897,-0.312941,-0.725074,-9.840485,0.00325856,-0.0008296369,0.0001256258,0.09769639,0.4417522,-0.391191,0.45242633745602395,0.5980969731614365,1.2230203051726356,2.1373769360966106
28266029,-0.3133659,-0.7260557,-9.841091,0.003171983,-0.0009046177,0.0001832051,0.09807671,0.4425278,-0.3910634,0.4532658103334776,0.5986488767523281,1.2275631215331528,2.1413233538800243
28285956,-0.3123986,-0.7283285,-9.848083,0.003275848,-0.0007258787,7.410094e-05,0.09865005,0.4433351,-0.3913616,0.45417820649719914,0.5995346071842496,1.2325101134606493,2.1476644276391452
28305914,-0.3164976,-0.7266576,-9.851505,0.003706803,-0.0007067947,-3.661939e-05,0.09871802,0.4445814,-0.3918348,0.45540956149237843,0.6007764802234858,1.2392022654746155,2.1565709656585796
28326356,-0.329495,-0.7229472,-9.856665,0.004006311,-0.001078501,6.652448e-05,0.09886289,0.4449903,-0.391729,0.4558401453505846,0.601033982029504,1.2415466727266216,2.1584200391365966
28346032,-0.3238893,-0.7175741,-9.86053,0.003726155,-0.001436604,0.0002393834,0.09937975,0.4456593,-0.391849,0.4566054603118019,0.6016927664411069,1.245719064659651,2.1631542564956256
28365919,-0.3071348,-0.721285,-9.860335,0.003662987,-0.001744428,0.0002782471,0.1001322,0.4464869,-0.3919765,0.4575773260864769,0.6025135566115505,1.2510276308569885,2.1690599507566826
28385939,-0.3133727,-0.7206311,-9.859506,0.004065063,-0.001583334,0.0003529786,0.1002088,0.4475679,-0.3922426,0.45864891661035245,0.6035006925949713,1.256894001529404,2.176173188626595
28405951,-0.3190659,-0.7234844,-9.848706,0.004514514,-0.001709874,0.0002939249,0.1007672,0.4484623,-0.3923865,0.45964384377159884,0.6043505840978232,1.2623529671248515,2.1823067802837954
28426317,-0.3168674,-0.7238944,-9.841523,0.004659342,-0.001848909,8.950548e-05,0.1009833,0.4490412,-0.3919997,0.46025604414969934,0.6045654563208355,1.2657178664035715,2.1838588610841096
28445908,-0.3135501,-0.7165834,-9.846788,0.004418849,-0.002244116,-0.0001167224,0.1016499,0.4498129,-0.3917718,0.4611554479526616,0.6051028759241357,1.2706694743791094,2.187743205448668
28465966,-0.3101713,-0.7197085,-9.840625,0.004264033,-0.002495056,-0.000125761,0.1019657,0.4505645,-0.3914146,0.4619581936027761,0.605483907077554,1.2750971015045214,2.1904993013361524
28485931,-0.3139676,-0.7147664,-9.840289,0.004241323,-0.002134301,-0.0002177533,0.1023947,0.4518059,-0.391347,0.4632636893421499,0.6064369054336156,1.2823141440308272,2.1974001786246027
28506120,-0.3179225,-0.7118965,-9.843385,0.004432437,-0.001600358,-0.0001869922,0.1025772,0.4530493,-0.3913749,0.46451668451233263,0.6074125966263294,1.2892601073872214,2.204476623678531
28526306,-0.322086,-0.7156556,-9.844075,0.004658397,-0.001078047,-0.0001379317,0.102855,0.4534751,-0.3911231,0.4649933519363584,0.6076150892617957,1.291907433636435,2.2059466777742545
28545905,-0.3163007,-0.7226111,-9.842603,0.004657096,-0.0005848426,-4.878492e-05,0.1032164,0.4540665,-0.3906662,0.46565009572769334,0.6078240629274643,1.2955593196159796,2.207464296555059
28565989,-0.3186056,-0.7234904,-9.841451,0.004155985,-0.0006970612,4.794637e-05,0.1034136,0.4547234,-0.3906653,0.4663343684230447,0.6083478608465801,1.299369765455807,2.2112705407847444
28585957,-0.3283064,-0.7242594,-9.848802,0.004000862,-0.0008682443,4.986264e-05,0.1033186,0.4555933,-0.3907964,0.46716162953612744,0.6090663464383909,1.3039839289623287,2.216496840823764
28605940,-0.3303451,-0.7228376,-9.847259,0.004009011,-0.0006125055,-6.60076e-05,0.1034847,0.4566852,-0.3908798,0.4682632326300347,0.6099651408737797,1.3101409688229517,2.2230434016599903
28626315,-0.326579,-0.7203302,-9.85042,0.003888873,-0.0007127459,2.084419e-05,0.1036402,0.4571667,-0.3906353,0.46876719450589754,0.6101955590226956,1.3129625288034565,2.2247232559998444
28645859,-0.3240722,-0.7244567,-9.846693,0.003653037,-0.001039851,-8.867174e-06,0.1036622,0.4576379,-0.3903723,0.4692316051005622,0.6103841674163412,1.3155653378708685,2.2260987701994264
28666221,-0.3208625,-0.7176605,-9.845997,0.003694088,-0.001520791,-4.88306e-05,0.1039366,0.4586254,-0.3904703,0.4702553288849793,0.6112341037007097,1.321311944209702,2.2323025989226895
28685913,-0.3189169,-0.7121375,-9.847171,0.003489786,-0.001435952,-0.0002050657,0.1041691,0.4594638,-0.3903811,0.4711243836878431,0.6118460493804466,1.3262001548088687,2.236774639151198
28705957,-0.308251,-0.7191028,-9.841425,0.003536903,-0.001415901,-0.0001745417,0.1049724,0.4605325,-0.3902331,0.47234456524661106,0.6126918153963051,1.3330785952001096,2.2429627824053795
28726330,-0.3135201,-0.7244067,-9.837965,0.00391605,-0.001748681,-0.0002665744,0.1048673,0.4608864,-0.3899905,0.472666292762928,0.6127854554446441,1.3348952102776435,2.2436484360668874
28745927,-0.3156945,-0.7283078,-9.847795,0.004214192,-0.001740216,-0.0004222381,0.1053755,0.4612661,-0.3896694,0.47314945948342796,0.6129540376780465,1.3376257057815235,2.2448830975272744
28765976,-0.313343,-0.7293831,-9.848807,0.004102367,-0.001398192,-0.0005718113,0.1055192,0.4619928,-0.3895971,0.4738899121320056,0.613479868576704,1.341815601702368,2.248736356164618
28785946,-0.3203042,-0.7238281,-9.848255,0.003706246,-0.001033325,-0.0005467702,0.1058478,0.4628274,-0.3893518,0.4747767464352061,0.6140095952986728,1.34684242975971,2.252621504135069
28805891,-0.3197746,-0.7204764,-9.840088,0.003238957,-0.001069497,-0.000426391,0.1060615,0.4640625,-0.3894643,0.4760284084889262,0.6150491741828372,1.3539531979887873,2.2602557828113654
28826517,-0.3152741,-0.7197844,-9.840682,0.002771787,-0.001197635,-0.0001384228,0.1061854,0.4642788,-0.3890722,0.47626688243315846,0.6149856259421353,1.3553101062330346,2.259788737689754
28845878,-0.3161105,-0.7258948,-9.842207,0.002646105,-0.001024664,-5.783204e-06,0.1064183,0.4645057,-0.388945,0.4765400297009476,0.6151167474003452,1.3568651394465956,2.2607524622709705
28865982,-0.3193128,-0.7253318,-9.839919,0.002739546,-0.00100574,0.0001136199,0.1063654,0.4651656,-0.3885917,0.4771714930090858,0.6153829239176287,1.3604634865996068,2.2627094547202247
28885933,-0.32354,-0.7229427,-9.840796,0.003015184,-0.0009863388,0.000203256,0.1064332,0.4658562,-0.3885338,0.4778598383843112,0.615880295904261,1.3643914002155628,2.266368519826642
28905961,-0.3172278,-0.7188799,-9.842124,0.002894407,-0.0004563308,0.0003507774,0.1067125,0.4670975,-0.3887593,0.47913216565212985,0.6170100692038907,1.3716666021709374,2.274691017356465
28926329,-0.3246544,-0.7144306,-9.847065,0.002666665,-0.000272672,0.000482473,0.1064215,0.4673159,-0.3884461,0.4792803835491914,0.6169279201497287,1.3725153741789835,2.2740853504951137
28945888,-0.3380623,-0.7166135,-9.843534,0.002972518,-0.0006180144,0.0004823234,0.1060892,0.4676117,-0.3880544,0.4794951723777102,0.6168483101159393,1.373745831492842,2.273498480215018
28965967,-0.3245673,-0.7184871,-9.832016,0.003714974,-0.001198741,0.0003819951,0.1063503,0.4683129,-0.3877814,0.4802367734945961,0.6172534105231496,1.3779984677335875,2.276485592494698
28986118,-0.3169844,-0.7152562,-9.839957,0.004238517,-0.001360764,0.0004318738,0.1065297,0.4692632,-0.3881542,0.4812032084850744,0.6182396063291076,1.3835502539415718,2.28376575973297
29005952,-0.3231058,-0.7154445,-9.85345,0.00432655,-0.001317246,0.0005982169,0.1064333,0.4702373,-0.3885735,0.48213189653888283,0.6192257508876953,1.3888957148195755,2.2910571701105193
29026315,-0.3155488,-0.7239591,-9.851742,0.004358385,-0.00129418,0.0005268196,0.1065502,0.4700692,-0.3884357,0.48199377372397667,0.6190317366203206,1.388100037504363,2.2896217383854407
29045906,-0.3140658,-0.7236818,-9.848546,0.004258458,-0.0008530192,0.000431264,0.1069105,0.4706372,-0.3882345,0.4826274225881596,0.6193991088339892,1.3917521434786877,2.2923401547454314
29065913,-0.3178594,-0.7168519,-9.852771,0.004200919,-0.00110855,0.0003086924,0.1065498,0.4713477,-0.3884648,0.4832406379593194,0.6200213020649936,1.3952910471975966,2.296947829710861
29085939,-0.3351946,-0.722478,-9.858867,0.004310953,-0.001350585,7.368356e-05,0.1062192,0.4720113,-0.3889053,0.4838152392973272,0.6207451313900255,1.3986111850135716,2.3023139959129097
29105898,-0.3316779,-0.7236118,-9.855157,0.004627058,-0.001526263,9.613911e-05,0.1062388,0.4728934,-0.3892147,0.4846801526666839,0.6216131699739719,1.403616231074275,2.3087575251834127
29126326,-0.3299406,-0.7201991,-9.86286,0.004837047,-0.001313763,0.0001520188,0.1059511,0.4733459,-0.3893664,0.48505873524555765,0.6220033521509188,1.4058098104121692,2.311656816269705
29146131,-0.3263398,-0.7211437,-9.860194,0.00496429,-0.0008763638,-6.732189e-05,0.1060631,0.4737846,-0.3892433,0.485511306128673,0.6222793383792041,1.4084343395631507,2.3137086604676185
29165996,-0.3201101,-0.725278,-9.855916,0.004720022,-0.0004616238,-0.0001870981,0.1059913,0.4743457,-0.3891618,0.48604320670510354,0.6226434817481188,1.4115220427354753,2.316417309546434
29185934,-0.3120751,-0.7260257,-9.849748,0.00438403,-0.0001688193,-4.42264e-05,0.1064752,0.4751556,-0.3891454,0.4869392286788979,0.6233329405442648,1.41673112924774,2.321550129736171
29205901,-0.3091797,-0.722975,-9.843008,0.004495785,-0.0007104325,1.913112e-05,0.1066056,0.4762093,-0.3890624,0.4879959542433216,0.6241070440650466,1.4228868068631537,2.3273198746483694
29226297,-0.3096747,-0.7255644,-9.839217,0.004042996,-0.0010484,-2.613684e-05,0.1067474,0.4765703,-0.3885973,0.48837921561922554,0.6241170722037173,1.4251226930368786,2.3273946659014366
29245873,-0.3165795,-0.7213356,-9.837794,0.003723211,-0.001141478,6.423391e-05,0.1069148,0.4773461,-0.3876215,0.4891728463889323,0.62413179770502,1.4297581900243936,2.3275044929163373
29265912,-0.3102448,-0.7184844,-9.839593,0.003650962,-0.001439467,0.0001898114,0.1072731,0.4783425,-0.387393,0.4902234850451985,0.6248138936826388,1.4359064151069134,2.3325946003896876
29285934,-0.314569,-0.7154529,-9.843314,0.003493213,-0.001658672,0.0002535783,0.1073414,0.4793516,-0.3869488,0.49122309857794755,0.6253235213854985,1.4417682921447068,2.336401300727811
29306135,-0.3200951,-0.7155728,-9.842237,0.003331746,-0.001881846,0.0004694729,0.10745,0.4807893,-0.3870115,0.49264982847301386,0.6264836427447567,1.4501555246295776,2.3450784838947705
29326313,-0.3211331,-0.7188377,-9.836856,0.00347083,-0.001447822,0.0003774097,0.1073903,0.4810354,-0.3859158,0.49287699539261315,0.6259862117306498,1.4514932022088187,2.3413559552294174
29345919,-0.3233518,-0.7215213,-9.831676,0.003560746,-0.001266788,0.0002295839,0.1073622,0.4816518,-0.3853162,0.49347249004587884,0.626085994424504,1.4550027131316778,2.342102442676757
29365982,-0.3153867,-0.7215105,-9.828253,0.003480915,-0.001338016,0.0002254718,0.1073149,0.4824322,-0.384646,0.4942239526356953,0.6262666051090781,1.4594374592691284,2.343453917532228
29385939,-0.3186088,-0.715413,-9.831344,0.003642091,-0.001578015,7.351967e-05,0.1073548,0.483676,-0.3844844,0.49544679437760014,0.6271329842245582,1.466668468202764,2.34994228491684
29405929,-0.3254172,-0.7184941,-9.836181,0.003857807,-0.001942715,-0.0001494893,0.1072847,0.4846636,-0.3840917,0.49639582191941345,0.6276426101117897,1.4722926518138237,2.3537630950169417
29426320,-0.3294657,-0.7204337,-9.840914,0.00417037,-0.001955954,-0.0002985104,0.106856,0.484905,-0.3837097,0.49653908583413653,0.627522268636811,1.473142605971975,2.3528605808696628
29445910,-0.3374461,-0.7141741,-9.847939,0.004183414,-0.001869094,-0.0003946985,0.1064598,0.4859189,-0.3835478,0.49744433496950186,0.6281399376556868,1.4785189266996683,2.357494693136588
29466194,-0.3301818,-0.7071969,-9.846922,0.00414517,-0.002153141,-0.0004258341,0.1064842,0.4867879,-0.3831042,0.4982984491607916,0.6285460782581417,1.4836005330053987,2.3605442806497976
29485934,-0.3171419,-0.7163443,-9.841647,0.004371899,-0.001903158,-0.0005494686,0.1066219,0.4878279,-0.3830748,0.499343859057083,0.6293572848335514,1.4898321302286692,2.3666412870390325
29505936,-0.3193027,-0.7179921,-9.843715,0.004678445,-0.001721162,-0.0004364403,0.106584,0.488899,-0.3830846,0.5003822351532876,0.6301874260996961,1.496034728010575,2.372888747284606
29526311,-0.3237332,-0.718417,-9.843802,0.004823432,-0.001599691,-0.0003501745,0.1060771,0.4891673,-0.3824395,0.5005367104755655,0.6299182246085202,1.4969585662388576,2.3708618939213517
29545898,-0.3233485,-0.7158365,-9.844244,0.004794611,-0.001294677,-0.0002477423,0.106188,0.4898083,-0.3825026,0.501186653945304,0.6304730772203123,1.5008486710050173,2.375040399070408
29565934,-0.3227819,-0.715304,-9.857181,0.00483175,-0.00104434,-5.849317e-05,0.1061033,0.4907535,-0.3825728,0.5020925293540425,0.6312359743653557,1.5062790254980114,2.3807916606145554
29585976,-0.3145669,-0.7198253,-9.8504,0.004676498,-0.0009105037,-3.784365e-05,0.1061174,0.4915727,-0.3827602,0.5028962337978382,0.631988918156078,1.5111051162590983,2.386474706215737
29605983,-0.3165895,-0.7223701,-9.842054,0.004562306,-0.0006101988,-0.0001507445,0.1063605,0.4927705,-0.3824643,0.5041183607353535,0.6327829504695824,1.5184585467422378,2.392475217869815
29626523,-0.3124469,-0.7157767,-9.83733,0.004411682,-0.0002515135,-8.584154e-05,0.1060176,0.4931442,-0.3818417,0.5044114724145358,0.6326405119515268,1.5202248276828147,2.3913982537396823
29645895,-0.3264096,-0.7145965,-9.838916,0.003990951,-0.0002361606,-0.0001335111,0.1054732,0.4935757,-0.3818135,0.5047192957959206,0.6328689566813812,1.5220808661036616,2.393125620077605
29665930,-0.318095,-0.7156738,-9.845929,0.003442604,0.000217759,-0.0001141283,0.1058529,0.4942652,-0.3817249,0.5054729709583392,0.6334167851024001,1.526629973107464,2.397270521305524
29685936,-0.3129587,-0.7204067,-9.84446,0.002903265,0.000491575,-9.839581e-05,0.105775,0.4950479,-0.3815754,0.5062220598901336,0.6339247272386289,1.5311581241684746,2.401116844832306
29705916,-0.3099771,-0.7185938,-9.842534,0.002586706,0.0006993124,2.22734e-05,0.1057591,0.4961695,-0.3819111,0.5073156413546304,0.6350001954852219,1.537780730779283,2.4092708583909634
29726300,-0.3254204,-0.717125,-9.856337,0.002632819,5.629475e-05,0.000147403,0.1051624,0.49665,-0.3820876,0.5076616519629584,0.6353827877331271,1.5398791084207155,2.412174939511432
29745902,-0.3289011,-0.7174907,-9.866451,0.002999339,-0.000381362,0.0002457277,0.1049706,0.4971466,-0.3822631,0.508107831819113,0.6358448288517647,1.542587073316622,2.4156844121057417
29765973,-0.3259158,-0.7204337,-9.853645,0.003351327,-9.759794e-05,0.0002497164,0.1046637,0.4977783,-0.3817481,0.5086626839552711,0.635979038885866,1.5459579131402656,2.4167042939655845
29786111,-0.3177566,-0.7155687,-9.83453,0.003746994,-3.5275e-05,0.000122217,0.1047855,0.4990008,-0.3816307,0.509884103900965,0.636886010674893,1.5533912514800678,2.423602148795445
29805926,-0.3148001,-0.7074013,-9.84002,0.003952183,-0.0001752553,-2.600086e-05,0.1044456,0.5003961,-0.3817579,0.5111801446208274,0.6380001837515252,1.5612982130210558,2.432089300940205
29826351,-0.3155098,-0.7057799,-9.8453,0.003890331,-0.0004028724,-1.458987e-05,0.1044677,0.5009123,-0.381408,0.5116899770706672,0.6381995730949528,1.5644141299916152,2.433609703214015
29845909,-0.3164465,-0.7078561,-9.844648,0.003962471,-0.001227748,6.339631e-05,0.1042054,0.5015952,-0.3810694,0.5123050946967052,0.6384907185453521,1.568177647561895,2.435830626069646
29865966,-0.3107803,-0.7104944,-9.841702,0.004040038,-0.001707272,0.0002861142,0.1043702,0.5024892,-0.3807867,0.513213926900547,0.6390516768318271,1.573746495218963,2.44011259782788
29885990,-0.3126654,-0.7162793,-9.837963,0.003904815,-0.00228287,0.0002337303,0.1043094,0.5036433,-0.38066,0.514331628974196,0.6398742533992519,1.580608721765419,2.4463983844754185
29905961,-0.3166495,-0.719623,-9.839704,0.004128901,-0.002620925,9.253813e-05,0.1042499,0.5045924,-0.3805736,0.5152489997930807,0.6405605332868471,1.586252152431926,2.4516488359082618
29926292,-0.3157135,-0.714326,-9.840911,0.004464937,-0.003106126,-5.052671e-05,0.1041116,0.5053636,-0.3802148,0.5159763497094804,0.6409328261203041,1.5907337709206317,2.4544994534013957
29946113,-0.3079904,-0.7167969,-9.838502,0.004295103,-0.002901897,-8.039349e-05,0.1041602,0.5057902,-0.3796607,0.5164039830211227,0.6409487661307804,1.5933716152384776,2.4546215418073047
29965967,-0.3125733,-0.717041,-9.835947,0.004365942,-0.002196768,-0.0001585311,0.1039499,0.5069359,-0.3793399,0.5174839016035379,0.6416294476961215,1.6000427908024497,2.4598378802012086
29985911,-0.3193846,-0.7093582,-9.841475,0.004604489,-0.00181771,-0.0001517242,0.103783,0.5080879,-0.3792759,0.5185790443272945,0.6424752396289058,1.606822245662075,2.4663272403789143
30005945,-0.3236689,-0.7061492,-9.837859,0.004566662,-0.001658802,-0.0001912385,0.1034572,0.5096524,-0.3791572,0.520047075809104,0.6435908198299911,1.61593254231916,2.4748996316324043
30026324,-0.3275636,-0.7023397,-9.838284,0.004281783,-0.001559924,-0.0003425248,0.1031197,0.5104747,-0.3785312,0.5207860327122646,0.6438198204790063,1.6205280989123754,2.476661168418679
30045962,-0.3238937,-0.7058553,-9.835329,0.004087952,-0.001814335,-0.0003493114,0.1029879,0.5112637,-0.3777616,0.5215333915331788,0.6439727516895881,1.6251825439424972,2.477837906888993
30065971,-0.3175874,-0.7126879,-9.830883,0.00419824,-0.00214349,-0.0003294043,0.102859,0.5122011,-0.3773152,0.5224269716641838,0.6444351797296994,1.6307563958152045,2.4813977877176687
30085890,-0.3213956,-0.71288,-9.835184,0.004551841,-0.002226401,-9.231699e-05,0.1025211,0.5135691,-0.3770779,0.5237020110902955,0.6453305657478422,1.6387261836096192,2.4882979460533696
30106117,-0.3268047,-0.7131189,-9.834441,0.004776518,-0.002254198,0.000333695,0.1024026,0.5149592,-0.3770456,0.5250421603560994,0.6463997637923145,1.647123889154615,2.4965501114187902
30126322,-0.3221872,-0.7092668,-9.849689,0.004998571,-0.002056021,0.0004708262,0.1021546,0.515767,-0.3768217,0.525786230886812,0.6468738317330899,1.6517956845262056,2.500213381231773
30145920,-0.3153387,-0.7094801,-9.84959,0.005163722,-0.002264601,0.0005026998,0.1021603,0.5164765,-0.3763645,0.5264833349198624,0.6471745813987058,1.6561785941413316,2.5025387593813253
30165971,-0.3096933,-0.7155579,-9.840094,0.005100663,-0.002625047,0.0004605578,0.1022042,0.5176754,-0.3758622,0.5276680000367655,0.6478471360217933,1.6636402716202296,2.5077428221185487
30185947,-0.3198755,-0.7095591,-9.83492,0.005079803,-0.00247609,0.0003308296,0.1018247,0.5191265,-0.3755124,0.5290185181374467,0.648745061704596,1.6721670403807316,2.5146991766394478
30205958,-0.3105385,-0.7033927,-9.846132,0.005261743,-0.002185817,0.0001339141,0.1023302,0.5208626,-0.3758571,0.5308194777048031,0.6504136203457074,1.6835716745170297,2.5276513182489793
30226360,-0.3108435,-0.7140024,-9.843312,0.005297642,-0.002079366,8.036093e-05,0.1020691,0.5211832,-0.3751609,0.531083824962736,0.6502274448420798,1.6852489240938737,2.526204486904513
30245887,-0.3170071,-0.7188846,-9.844946,0.004874133,-0.001918373,8.059003e-05,0.101612,0.5221356,-0.3749303,0.5319309948962929,0.6507866879319598,1.690629735404876,2.530551796306964
30266223,-0.3240415,-0.7147262,-9.847527,0.004377623,-0.001455736,0.0001248277,0.1015646,0.5233138,-0.3746646,0.5330785132075763,0.6515721477601387,1.6979318899305103,2.536663925827141
