FMT, 128, 89, FMT, BBnNZ, Type,Length,Name,Format,Columns
FMT, 118, 44, FMTU, QBNN, TimeUS,FmtType,UnitIds,MultIds
FMT, 72, 36, ATT, QffffffB, TimeUS,DesRoll,Roll,DesPitch,Pitch,DesYaw,Yaw,AEKF
ATT, 23001629, 0, -0.001283008, 0, -0.5908679, 0, 1.880746, 3
FMT, 47, 44, XKF4, QBcccccfffHBIHb, TimeUS,C,SV,SP,SH,SM,SVT,errRP,OFN,OFE,FS,TS,SS,GPS,PI
XKF4, 23001140, 0, 0, 0, 0.06, 0, 0, 0.0106458, 0, 0, 0, 50, 65703, 0, 0
FMT, 44, 56, XKF1, QBccCfffffffccce, TimeUS,C,Roll,Pitch,Yaw,VN,VE,VD,dPD,PN,PE,PD,GX,GY,GZ,OH
XKF1, 23001140, 0, 0, -0.59, 1.88, 0.06812859, 0.06256288, -0.2512821, 0.08335721, 0, 0, -0.8091962, 0.01, -0.41, -0.02, 0
FMT, 45, 46, XKF2, QBccccchhhhhhfff, TimeUS,C,AX,AY,AZ,VWN,VWE,MN,ME,MD,MX,MY,MZ,IDX,IDY,IS
XKF2, 23001140, 0, 0, 0, 0.06, 0, 0, 0, 0, 0, 0, 0, 0, 0, 0, 0
FMT, 46, 42, XKF3, QBcccccchhhccff, TimeUS,C,IVN,IVE,IVD,IPN,IPE,IPD,IMX,IMY,IMZ,IYAW,IVT,RErr,ErSc
XKF3, 23001140, 0, 0, 0, 0, 0.07, 0.06, -0.64, 0, 0, 0, 0, 0, 0, 0
FMT, 48, 41, XKF5, QBBhhhcccCCfff, TimeUS,C,NI,FIX,FIY,AFI,HAGL,offset,RI,rng,Herr,eAng,eVel,ePos
XKF5, 23001140, 0, 0, 0, 0, 0, 1.15, 0.36, 0, 0, 0.5, 2.148842E-05, 0.01100586, 0.01966704
FMT, 51, 20, XKFS, QBBBBBBBBB, TimeUS,C,MI,BI,GI,AI,SS,GPS_GTA,GPS_CHK_WAIT,MAG_FUSION
XKFS, 23001140, 0, 0, 0, 0, 0, 0, 0, 0, 0
FMT, 52, 28, XKQ, QBffff, TimeUS,C,Q1,Q2,Q3,Q4
XKQ, 23001140, 0, 0.9993654, 0.01997957, -0.02417509, 0.01688367
XKF4, 23001140, 1, 0, 0, 0.02, 0, 0, 0.01121816, 0, 0, 0, 50, 65703, 0, 0
XKF1, 23001140, 1, 2.08, 0.26, 2.14, -0.02222486, 0.06213028, -0.06424289, 0.03538847, 0, 0, -0.4033941, 0.04, -0.01, 0, 0
XKF2, 23001140, 1, 0, 0, -0.05, 0, 0, 0, 0, 0, 0, 0, 0, 0, 0, 0
XKF3, 23001140, 1, 0, 0, 0, -0.02, 0.07, -0.23, 0, 0, 0, 0, 0, 0, 0
XKFS, 23001140, 1, 0, 0, 0, 0, 0, 0, 0, 0
XKQ, 23001140, 1, 0.9989532, 0.03810314, -0.01635421, 0.0193203
FMT, 70, 45, AHR2, QccCfLLffff, TimeUS,Roll,Pitch,Yaw,Alt,Lat,Lng,Q1,Q2,Q3,Q4
AHR2, 23001881, -0.09, -0.91, 0.7, 0.32, 0, 0, 0.9999461, -0.0007835663, -0.008012142, 0.00654596
FMT, 109, 52, PIDS, QffffffffffB, TimeUS,Tar,Act,Err,P,I,D,FF,DFF,Dmod,SRate,Flags
PIDS, 23001900, 0, 0, 0, 0, 0, 0, 0, 0, 0, 0, 0
FMT, 108, 52, PIDA, QffffffffffB, TimeUS,Tar,Act,Err,P,I,D,FF,DFF,Dmod,SRate,Flags
PIDA, 23001916, 0, 0, 0, 0, 0, 0, 0, 0, 0, 0, 0
FMT, 163, 54, IMU, QBffffffIIfBBHH, TimeUS,I,GyrX,GyrY,GyrZ,AccX,AccY,AccZ,EG,EA,T,GH,AH,GHz,AHz
IMU, 23001936, 0, 0.0009305103, -0.008830739, -0.000582724, -0.4422356, -0.3521481, -9.759865, 0, 0, 44.32367, 1, 1, 1976, 1976
IMU, 23001936, 1, 0.001350299, 0.0009400843, -0.0002490166, -0.3464278, -0.7123697, -9.839926, 0, 0, 42.5, 1, 1, 2004, 2019
FMT, 119, 76, UNIT, QbZ, TimeUS,Id,Label
FMT, 120, 20, MULT, Qbd, TimeUS,Id,Mult
FMT, 32, 35, PARM, QNff, TimeUS,Name,Value,Default
FMT, 94, 51, GPS, QBBIHBcLLeffffB, TimeUS,I,Status,GMS,GWk,NSats,HDop,Lat,Lng,Alt,Spd,GCrs,VZ,Yaw,U
FMT, 95, 39, GPA, QBCCCCfBIHeHH, TimeUS,I,VDop,HAcc,VAcc,SAcc,YAcc,VV,SMS,Delta,AEl,RTCMFU,RTCMFD
FMT, 99, 22, UBX1, QBHBBHI, TimeUS,Instance,noisePerMS,jamInd,aPower,agcCnt,config
FMT, 100, 16, UBX2, QBbBbB, TimeUS,Instance,ofsI,magI,ofsQ,magQ
FMT, 96, 42, GRAW, QIHBBddfBbB, TimeUS,WkMS,Week,numSV,sv,cpMes,prMes,doMes,mesQI,cno,lli
FMT, 97, 24, GRXH, QdHbBB, TimeUS,rcvTime,week,leapS,numMeas,recStat
FMT, 98, 41, GRXS, QddfBBBHBBBBB, TimeUS,prMes,cpMes,doMes,gnss,sv,freq,lock,cno,prD,cpD,doD,trk
FMT, 101, 23, SBPH, QIII, TimeUS,CrcError,LastInject,IARhyp
FMT, 102, 67, SBRH, QQQQQQQQ, TimeUS,msg_flag,1,2,3,4,5,6
FMT, 103, 123, SBRM, QQQQQQQQQQQQQQQ, TimeUS,msg_flag,1,2,3,4,5,6,7,8,9,10,11,12,13
FMT, 104, 23, SBRE, QHIiBB, TimeUS,GWk,GMS,ns_residual,level,quality
FMT, 59, 75, MSG, QZ, TimeUS,Message
FMT, 60, 39, RCIN, QHHHHHHHHHHHHHH, TimeUS,C1,C2,C3,C4,C5,C6,C7,C8,C9,C10,C11,C12,C13,C14
FMT, 61, 18, RCI2, QHHHB, TimeUS,C15,C16,OMask,Flags
FMT, 62, 39, RCOU, QHHHHHHHHHHHHHH, TimeUS,C1,C2,C3,C4,C5,C6,C7,C8,C9,C10,C11,C12,C13,C14
FMT, 207, 19, RCO2, QHHHH, TimeUS,C15,C16,C17,C18
FMT, 208, 39, RCO3, QHHHHHHHHHHHHHH, TimeUS,C19,C20,C21,C22,C23,C24,C25,C26,C27,C28,C29,C30,C31,C32
FMT, 63, 19, RSSI, Qff, TimeUS,RXRSSI,RXLQ
FMT, 64, 43, BARO, QBfffcfIffB, TimeUS,I,Alt,AltAMSL,Press,Temp,CRt,SMS,Offset,GndTemp,Health
FMT, 65, 24, BARD, QBfff, TimeUS,I,DynPrX,DynPrY,DynPrZ
FMT, 66, 25, CANF, QBIBBBBBBBBB, TimeUS,Bus,Id,DLC,B0,B1,B2,B3,B4,B5,B6,B7
FMT, 67, 81, CAFD, QBIBQQQQQQQQ, TimeUS,Bus,Id,DLC,D0,D1,D2,D3,D4,D5,D6,D7
FMT, 196, 50, PL, QBBfffffffIIB, TimeUS,Heal,TAcq,pX,pY,vX,vY,mX,mY,mZ,LastMeasMS,EKFOutl,Est
FMT, 68, 24, POWR, QffHHB, TimeUS,Vcc,VServo,Flags,AccFlags,Safety
FMT, 69, 27, MCU, Qffff, TimeUS,MTemp,MVolt,MVmin,MVmax
FMT, 93, 46, CMD, QHHHffffLLfB, TimeUS,CTot,CNum,CId,Prm1,Prm2,Prm3,Prm4,Lat,Lng,Alt,Frame
FMT, 92, 46, MISE, QHHHffffLLfB, TimeUS,CTot,CNum,CId,Prm1,Prm2,Prm3,Prm4,Lat,Lng,Alt,Frame
FMT, 78, 48, MAVC, QBBBBBHffffiifBB, TimeUS,TS,TC,SS,SC,Fr,Cmd,P1,P2,P3,P4,X,Y,Z,Res,WL
FMT, 79, 20, RAD, QBBBBBHH, TimeUS,RSSI,RemRSSI,TxBuf,Noise,RemNoise,RxErrors,Fixed
FMT, 81, 46, CAM, QBHIHLLeeeccC, TimeUS,I,Img,GPSTime,GPSWeek,Lat,Lng,Alt,RelAlt,GPSAlt,R,P,Y
FMT, 82, 46, TRIG, QBHIHLLeeeccC, TimeUS,I,Img,GPSTime,GPSWeek,Lat,Lng,Alt,RelAlt,GPSAlt,R,P,Y
FMT, 83, 48, MNT, QBfffffffff, TimeUS,I,DRoll,Roll,DPitch,Pitch,DYawB,YawB,DYawE,YawE,Dist
FMT, 114, 41, ARSP, QBffcffBBffB, TimeUS,I,Airspeed,DiffPress,Temp,RawPress,Offset,U,H,Hp,TR,Pri
FMT, 88, 41, BAT, QBfffffcfBBB, TimeUS,Inst,Volt,VoltR,Curr,CurrTot,EnrgTot,Temp,Res,RemPct,H,SH
FMT, 89, 40, BCL, QBfHHHHHHHHHHHH, TimeUS,Instance,Volt,V1,V2,V3,V4,V5,V6,V7,V8,V9,V10,V11,V12
FMT, 113, 35, MAG, QBhhhhhhhhhBI, TimeUS,I,MagX,MagY,MagZ,OfsX,OfsY,OfsZ,MOX,MOY,MOZ,Health,S
FMT, 122, 14, MODE, QMBB, TimeUS,Mode,ModeNum,Rsn
FMT, 116, 17, RFND, QBCBBb, TimeUS,Instance,Dist,Stat,Orient,Quality
FMT, 117, 36, DMS, QIIIIBBBBBBBBB, TimeUS,N,Dp,RT,RS,Fa,Fmn,Fmx,Pa,Pmn,Pmx,Sa,Smn,Smx
FMT, 174, 41, BCN, QBBfffffff, TimeUS,Health,Cnt,D0,D1,D2,D3,PosX,PosY,PosZ
FMT, 175, 57, PRX, QBBfffffffffff, TimeUS,Layer,He,D0,D45,D90,D135,D180,D225,D270,D315,DUp,CAn,CDis
FMT, 176, 44, PRXR, QBffffffff, TimeUS,Layer,D0,D45,D90,D135,D180,D225,D270,D315
FMT, 179, 61, PM, QHHHIIHHIIIIIIQ, TimeUS,LR,NLon,NL,MaxT,Mem,Load,ErrL,InE,ErC,SPIC,I2CC,I2CI,Ex,R
FMT, 178, 29, SRTL, QBHHBfff, TimeUS,Active,NumPts,MaxPts,Action,N,E,D
FMT, 170, 48, OABR, QBBHHHBfLLiLLi, TimeUS,Type,Act,DYaw,Yaw,DP,RChg,Mar,DLt,DLg,DAlt,OLt,OLg,OAlt
FMT, 171, 31, OADJ, QBBBBLLLL, TimeUS,State,Err,CurrPoint,TotPoints,DLat,DLng,OALat,OALng
FMT, 172, 37, SA, QBffffffB, TimeUS,State,DVelX,DVelY,DVelZ,MVelX,MVelY,MVelZ,Back
FMT, 173, 21, OAVG, QBBLL, TimeUS,version,point_num,Lat,Lon
FMT, 77, 45, SIM, QccCfLLffff, TimeUS,Roll,Pitch,Yaw,Alt,Lat,Lng,Q1,Q2,Q3,Q4
FMT, 84, 38, TERR, QBLLHffHHf, TimeUS,Status,Lat,Lng,Spacing,TerrH,CHeight,Pending,Loaded,ROfs
FMT, 86, 40, ESC, QBffffcfcf, TimeUS,Instance,RPM,RawRPM,Volt,Curr,Temp,CTot,MotTemp,Err
FMT, 87, 15, EDT2, QBBBB, TimeUS,Instance,Stress,MaxStress,Status
FMT, 85, 46, CSRV, QBfffBfffffB, TimeUS,Id,Pos,Force,Speed,Pow,PosCmd,V,A,MotT,PCBT,Err
FMT, 105, 52, PIDR, QffffffffffB, TimeUS,Tar,Act,Err,P,I,D,FF,DFF,Dmod,SRate,Flags
FMT, 106, 52, PIDP, QffffffffffB, TimeUS,Tar,Act,Err,P,I,D,FF,DFF,Dmod,SRate,Flags
FMT, 107, 52, PIDY, QffffffffffB, TimeUS,Tar,Act,Err,P,I,D,FF,DFF,Dmod,SRate,Flags
FMT, 110, 52, PIDN, QffffffffffB, TimeUS,Tar,Act,Err,P,I,D,FF,DFF,Dmod,SRate,Flags
FMT, 111, 52, PIDE, QffffffffffB, TimeUS,Tar,Act,Err,P,I,D,FF,DFF,Dmod,SRate,Flags
FMT, 112, 56, DSTL, QBfLLeccfeffff, TimeUS,Stg,THdg,Lat,Lng,Alt,XT,Travel,L1I,Loiter,Des,P,I,D
FMT, 161, 32, ACC, QBQfff, TimeUS,I,SampleUS,AccX,AccY,AccZ
FMT, 162, 32, GYR, QBQfff, TimeUS,I,SampleUS,GyrX,GyrY,GyrZ
FMT, 166, 28, VIBE, QBfffI, TimeUS,IMU,VibeX,VibeY,VibeZ,Clip
FMT, 164, 31, ISBH, QHBBHHQf, TimeUS,N,type,instance,mul,smp_cnt,SampleUS,smp_rate
FMT, 165, 207, ISBD, QHHaaa, TimeUS,N,seqno,x,y,z
FMT, 129, 15, RFRH, QI, TimeUS,TF
FMT, 130, 5, RFRF, BB, FTypes,Slow
FMT, 138, 38, RFRN, IIIfIfffBBB, HLat,HLon,HAlt,E2T,AM,TX,TY,TZ,VC,EKT,Flags
FMT, 131, 4, REV2, B, Event
FMT, 132, 15, RSO2, III, Lat,Lon,Alt
FMT, 133, 11, RWA2, ff, Airspeed,uncertainty
FMT, 134, 4, REV3, B, Event
FMT, 135, 15, RSO3, III, Lat,Lon,Alt
FMT, 136, 11, RWA3, ff, Airspeed,Uncertainty
FMT, 137, 16, REY3, ffIB, yawangle,yawangleerr,timestamp_ms,type
FMT, 139, 13, RISH, HBBfBB, LR,PG,PA,LD,AC,GC
FMT, 140, 37, RISI, ffffffffBB, DVX,DVY,DVZ,DAX,DAY,DAZ,DVDT,DADT,Flags,I
FMT, 148, 5, RASH, BB, Primary,NumInst
FMT, 149, 14, RASI, fIBBB, pd,UpdateMS,H,Use,I
FMT, 141, 5, RBRH, BB, Primary,NumInst
FMT, 142, 13, RBRI, IfBB, LastUpdate,Alt,H,I
FMT, 143, 8, RRNH, hhB, GCl,MaxD,NumSensors
FMT, 144, 20, RRNI, fffHBBB, PX,PY,PZ,Dist,Orient,Status,I
FMT, 145, 5, RGPH, BB, NumInst,Primary
FMT, 146, 23, RGPI, ffffBBBB, OX,OY,OZ,Lg,Flags,Stat,NSats,I
FMT, 147, 58, RGPJ, IffffffIiiiffHB, TS,VX,VY,VZ,SA,Y,YA,YT,Lat,Lon,Alt,HA,VA,HD,I
FMT, 153, 14, RMGH, fBBBBBBB, Dec,Avail,NumInst,AutoDec,NumEna,LOE,C,FUsable
FMT, 154, 35, RMGI, IffffffBBBB, LU,OX,OY,OZ,FX,FY,FZ,UFY,H,HSF,I
FMT, 150, 33, RBCH, ffffiiiBB, PX,PY,PZ,AE,OLat,OLng,OAlt,Flags,NumInst
FMT, 151, 25, RBCI, IffffBB, LU,PX,PY,PZ,Dist,H,I
FMT, 152, 21, RVOH, fffIBB, OX,OY,OZ,Del,H,Ena
FMT, 155, 40, ROFH, ffffIffffB, FX,FY,GX,GY,Tms,PX,PY,PZ,HgtOvr,Qual
FMT, 156, 49, REPH, fffffffffIIH, PX,PY,PZ,Q1,Q2,Q3,Q4,PEr,AEr,TS,RT,D
FMT, 157, 19, RSLL, IIfI, Lat,Lng,PosAccSD,TS
FMT, 158, 25, REVH, ffffIH, VX,VY,VZ,Er,TS,D
FMT, 159, 31, RWOH, ffIffff, DA,DT,TS,PX,PY,PZ,R
FMT, 160, 53, RBOH, ffffffffIfffH, Q,DPX,DPY,DPZ,DAX,DAY,DAZ,DT,TS,OX,OY,OZ,D
FMT, 43, 37, XKF0, QBBccCCcccccccc, TimeUS,C,ID,rng,innov,SIV,TR,BPN,BPE,BPD,OFH,OFL,OFN,OFE,OFD
FMT, 49, 36, XKFD, QBffffff, TimeUS,C,IX,IY,IZ,IVX,IVY,IVZ
FMT, 50, 29, XKFM, QBBffff, TimeUS,C,OGNM,GLR,ALR,GDR,ADR
FMT, 53, 48, XKT, QBIffffffff, TimeUS,C,Cnt,IMUMin,IMUMax,EKFMin,EKFMax,AngMin,AngMax,VMin,VMax
FMT, 54, 20, XKTV, QBff, TimeUS,C,TVS,TVD
FMT, 55, 60, XKV1, QBffffffffffff, TimeUS,C,V00,V01,V02,V03,V04,V05,V06,V07,V08,V09,V10,V11
FMT, 56, 60, XKV2, QBffffffffffff, TimeUS,C,V12,V13,V14,V15,V16,V17,V18,V19,V20,V21,V22,V23
FMT, 57, 60, XKY0, QBffffffffffff, TimeUS,C,YC,YCS,Y0,Y1,Y2,Y3,Y4,W0,W1,W2,W3,W4
FMT, 58, 52, XKY1, QBffffffffff, TimeUS,C,IVN0,IVN1,IVN2,IVN3,IVN4,IVE0,IVE1,IVE2,IVE3,IVE4
FMT, 41, 60, NKY0, QBffffffffffff, TimeUS,C,YC,YCS,Y0,Y1,Y2,Y3,Y4,W0,W1,W2,W3,W4
FMT, 42, 52, NKY1, QBffffffffff, TimeUS,C,IVN0,IVN1,IVN2,IVN3,IVN4,IVE0,IVE1,IVE2,IVE3,IVE4
FMT, 71, 19, AOA, Qff, TimeUS,AOA,SSA
FMT, 73, 24, ORGN, QBLLe, TimeUS,Type,Lat,Lng,Alt
FMT, 74, 31, POS, QLLfff, TimeUS,Lat,Lng,Alt,RelHomeAlt,RelOriginAlt
FMT, 76, 35, ATSC, Qffffff, TimeUS,AngPScX,AngPScY,AngPScZ,PDScX,PDScY,PDScZ
FMT, 204, 51, VSTB, Qffffffffff, TimeUS,GyrX,GyrY,GyrZ,AccX,AccY,AccZ,Q1,Q2,Q3,Q4
FMT, 90, 38, MON, QIbIHHHHHII, TimeUS,Dly,Tsk,IErr,IErrCnt,IErrLn,MM,MC,SmLn,SPICnt,I2CCnt
FMT, 91, 47, WDOG, QbIHHHHHHHIBIIn, TimeUS,Tsk,IE,IEC,IEL,MvMsg,MvCmd,SmLn,FL,FT,FA,FP,ICSR,LR,TN
FMT, 210, 20, UART, QBff, TimeUS,I,Tx,Rx
FMT, 115, 21, RPM, QBffB, TimeUS,I,RPM,Qual,H
FMT, 209, 27, FNCE, QBBBLLBf, TimeUS,Tot,Seq,Type,Lat,Lng,Count,Radius
FMT, 177, 33, DSF, QIHIIII, TimeUS,Dp,Blk,Bytes,FMn,FMx,FAv
FMT, 121, 24, RALY, QBBLLhB, TimeUS,Tot,Seq,Lat,Lng,Alt,Flags
FMT, 183, 23, MAV, QBHHHBHH, TimeUS,chan,txp,rxp,rxdp,flags,ss,tf
FMT, 167, 43, VISO, Qffffffff, TimeUS,dt,AngDX,AngDY,AngDZ,PosDX,PosDY,PosDZ,conf
FMT, 168, 58, VISP, QQIffffffffBBb, TimeUS,RTimeUS,CTimeMS,PX,PY,PZ,R,P,Y,PErr,AErr,Rst,Ign,Q
FMT, 169, 42, VISV, QQIffffBBb, TimeUS,RTimeUS,CTimeMS,VX,VY,VZ,VErr,Rst,Ign,Q
FMT, 180, 28, OF, QBffff, TimeUS,Qual,flowX,flowY,bodyX,bodyY
FMT, 182, 21, WENC, Qfbfb, TimeUS,Dist0,Qual0,Dist1,Qual1
FMT, 185, 35, ADSB, QIiiiHHhH, TimeUS,ICAO_address,Lat,Lng,Alt,Heading,Hor_vel,Ver_vel,Squark
FMT, 181, 12, EV, QB, TimeUS,Id
FMT, 186, 18, ARM, QBIBB, TimeUS,ArmState,ArmChecks,Forced,Method
FMT, 184, 13, ERR, QBB, TimeUS,Subsys,ECode
FMT, 187, 35, WINC, QBBBBBfffHfb, TimeUS,Heal,ThEnd,Mov,Clut,Mode,DLen,Len,DRate,Tens,Vcc,Temp
ISBH, 23003141, 0, 1, 0, 938, 1024, 22142329, 1976.843
ISBD, 23003145, 0, 0, [0 1 -1 1 4 3 1 1 1 1 0 0 1 2 0 0 1 1 0 2 3 1 1 2 -1 -1 1 1 1 1 1 1], [-8 -7 -5 -7 -8 -6 -7 -8 -9 -8 -9 -8 -8 -9 -8 -7 -8 -10 -10 -9 -7 -6 -8 -7 -6 -10 -15 -11 -8 -8 -6 -6], [0 -1 0 0 0 0 0 -1 -1 0 -1 0 0 -2 0 0 0 0 0 -1 -1 -1 -1 -2 -1 -1 -1 0 0 0 0 0]
FMT, 251, 43, DCM, Qffffffff, TimeUS,Roll,Pitch,Yaw,ErrRP,ErrYaw,VWN,VWE,VWD
DCM, 23021126, -0.09338877, -0.9246311, 0.7058581, 0.006188951, 1, 0, 0, 0
FMT, 250, 51, EAHR, QffffffLLfI, TimeUS,Roll,Pitch,Yaw,VN,VE,VD,Lat,Lon,Alt,Flg
EAHR, 23021164, 0, 0, 0, 0, 0, 0, 0, 0, 0, 0
ATT, 23021724, 0, -0.0007863255, 0, -0.5925859, 0, 1.87986, 3
XKF4, 23021191, 0, 0, 0, 0.06, 0, 0, 0.01067307, 0, 0, 0, 50, 65703, 0, 0
XKF1, 23021191, 0, 0, -0.59, 1.87, 0.06908661, 0.06325963, -0.2506228, 0.08118723, 0, 0, -0.8086612, 0.01, -0.41, -0.02, 0
XKF2, 23021191, 0, 0, 0, 0.06, 0, 0, 0, 0, 0, 0, 0, 0, 0, 0, 0
XKF3, 23021191, 0, 0, 0, 0, 0.07, 0.06, -0.64, 0, 0, 0, 0, 0, 0, 0
XKF5, 23021191, 0, 0, 0, 0, 0, 1.16, 0.36, 0, 0, 0.5, 2.013689E-05, 0.01166322, 0.02343554
XKFS, 23021191, 0, 0, 0, 0, 0, 0, 0, 0, 0
XKQ, 23021191, 0, 0.9993652, 0.01998396, -0.02419015, 0.01687633
XKF4, 23021191, 1, 0, 0, 0.02, 0, 0, 0.01124549, 0, 0, 0, 50, 65703, 0, 0
XKF1, 23021191, 1, 2.08, 0.26, 2.14, -0.02267901, 0.06283496, -0.06444107, 0.03565633, 0, 0, -0.4029471, 0.04, -0.01, 0, 0
XKF2, 23021191, 1, 0, 0, -0.05, 0, 0, 0, 0, 0, 0, 0, 0, 0, 0, 0
XKF3, 23021191, 1, 0, 0, 0, -0.02, 0.07, -0.23, 0, 0, 0, 0, 0, 0, 0
XKFS, 23021191, 1, 0, 0, 0, 0, 0, 0, 0, 0
XKQ, 23021191, 1, 0.9989524, 0.0381236, -0.01634163, 0.01932625
AHR2, 23021798, -0.09, -0.92, 0.7, 0.32, 0, 0, 0.9999458, -0.0007780393, -0.008078427, 0.006531912
PIDS, 23021803, 0, 0, 0, 0, 0, 0, 0, 0, 0, 0, 0
PIDA, 23021807, 0, 0, 0, 0, 0, 0, 0, 0, 0, 0, 0
IMU, 23021811, 0, 0.0009389761, -0.008893359, -0.0006191285, -0.4407848, -0.3523528, -9.764855, 0, 0, 44.32367, 1, 1, 1976, 1976
IMU, 23021811, 1, 0.001862682, 0.000452319, -0.0001269926, -0.3525411, -0.7086002, -9.851413, 0, 0, 42.5, 1, 1, 2004, 2019
FMT, 188, 47, PSCN, Qfffffffff, TimeUS,DPN,TPN,PN,DVN,TVN,VN,DAN,TAN,AN
FMT, 189, 47, PSCE, Qfffffffff, TimeUS,DPE,TPE,PE,DVE,TVE,VE,DAE,TAE,AE
FMT, 190, 47, PSCD, Qfffffffff, TimeUS,DPD,TPD,PD,DVD,TVD,VD,DAD,TAD,AD
FMT, 191, 35, PSON, Qffffff, TimeUS,TPON,PON,TVON,VON,TAON,AON
FMT, 192, 35, PSOE, Qffffff, TimeUS,TPOE,POE,TVOE,VOE,TAOE,AOE
FMT, 193, 35, PSOD, Qffffff, TimeUS,TPOD,POD,TVOD,VOD,TAOD,AOD
FMT, 194, 35, PSOT, Qffffff, TimeUS,TPOT,POT,TVOT,VOT,TAOT,AOT
FMT, 75, 63, RATE, Qfffffffffffff, TimeUS,RDes,R,ROut,PDes,P,POut,YDes,Y,YOut,ADes,A,AOut,AOutSlew
FMT, 195, 39, ANG, Qfffffff, TimeUS,DesRoll,Roll,DesPitch,Pitch,DesYaw,Yaw,Dt
FMT, 201, 33, STAK, QBBHHN, TimeUS,Id,Pri,Total,Free,Name
FMT, 202, 88, FILE, NIBZ, FileName,Offset,Length,Data
FMT, 197, 78, AISR, QBBBZ, TimeUS,num,total,ID,payload
FMT, 198, 41, AIS1, QBBIBbHbLLHHBBbI, US,typ,rep,mmsi,nav,rot,sog,pos,lon,lat,cog,hed,sec,man,raim,rad
FMT, 199, 38, AIS4, QBIHBBBBBBLLBBI, US,rep,mmsi,year,mth,day,h,m,s,fix,lon,lat,epfd,raim,rad
FMT, 200, 175, AIS5, QBIBINZBHHBBBBZB, US,rep,mmsi,ver,imo,cal,nam,typ,bow,stn,prt,str,fix,dght,dst,dte
FMT, 203, 39, SCR, QNIii, TimeUS,Name,Runtime,Total_mem,Run_mem
FMT, 206, 90, VER, QBHBBBBIZHBB, TimeUS,BT,BST,Maj,Min,Pat,FWT,GH,FWS,APJ,BU,FV
FMT, 205, 32, MOTB, QfffffB, TimeUS,LiftMax,BatVolt,ThLimit,ThrAvMx,ThrOut,FailFlags
FMT, 0, 29, THR, Qhffff, TimeUS,ThrIn,ThrOut,DesSpeed,Speed,AccX
FMT, 1, 29, NTUN, QfffHf, TimeUS,WpDist,WpBrg,DesYaw,Yaw,XTrack
FMT, 2, 33, STER, Qhfffff, TimeUS,SteerIn,SteerOut,DesLatAcc,LatAcc,DesTurnRate,TurnRate
FMT, 3, 36, GUIP, QBffffff, TimeUS,Type,pX,pY,pZ,vX,vY,vZ
ATT, 23041989, 0, 0.0002085342, 0, -0.5938362, 0, 1.879395, 3
XKF4, 23041120, 0, 0, 0, 0.04, 0, 0, 0.01070002, 0, 0, 0, 50, 65703, 0, 0
XKF1, 23041120, 0, 0, -0.59, 1.87, 0.0700196, 0.06391452, -0.2493223, 0.07072183, 0, 0, -0.8064854, 0.01, -0.41, -0.02, 0
XKF2, 23041120, 0, 0, 0, 0.06, 0, 0, 0, 0, 0, 0, 0, 0, 0, 0, 0
XKF3, 23041120, 0, 0, 0, 0, 0.07, 0.07, -0.46, 0, 0, 0, 0, 0, 0, 0
XKF5, 23041120, 0, 0, 0, 0, 0, 1.13, 0.36, 0, 0, 0.5, 2.124268E-05, 0.01007377, 0.01666517
XKFS, 23041120, 0, 0, 0, 0, 0, 0, 0, 0, 0
XKQ, 23041120, 0, 0.9993647, 0.01999271, -0.02420099, 0.0168727
XKF4, 23041120, 1, 0, 0, 0, 0, 0, 0.01127212, 0, 0, 0, 50, 65703, 0, 0
XKF1, 23041120, 1, 2.08, 0.26, 2.14, -0.02291551, 0.06344985, -0.06425741, 0.03436501, 0, 0, -0.402328, 0.04, -0.01, 0, 0
XKF2, 23041120, 1, 0, 0, -0.05, 0, 0, 0, 0, 0, 0, 0, 0, 0, 0, 0
XKF3, 23041120, 1, 0, 0, 0, -0.03, 0.08, -0.06, 0, 0, 0, 0, 0, 0, 0
XKFS, 23041120, 1, 0, 0, 0, 0, 0, 0, 0, 0
XKQ, 23041120, 1, 0.9989526, 0.03812924, -0.01634095, 0.01930823
AHR2, 23042083, -0.09, -0.93, 0.7, 0.32, 0, 0, 0.9999453, -0.0007681311, -0.008140648, 0.006521735
PIDS, 23042088, 0, 0, 0, 0, 0, 0, 0, 0, 0, 0, 0
PIDA, 23042092, 0, 0, 0, 0, 0, 0, 0, 0, 0, 0, 0
IMU, 23042096, 0, 0.0009510674, -0.008849355, -0.0006873006, -0.4410459, -0.3546758, -9.76156, 0, 0, 44.32367, 1, 1, 1976, 1976
IMU, 23042096, 1, 0.002031975, 0.0002323043, -7.799015E-05, -0.3502098, -0.7094875, -9.857529, 0, 0, 42.5, 1, 1, 2004, 2019
BARO, 23042235, 0, 0.279335, 0.279335, 101122.5, 26.42, -0.07534623, 23042, 0, 25.84294, 1
MAG, 23042248, 0, 431, -1197, 1239, 0, 0, 0, 0, 0, 0, 1, 23042247
THR, 23042255, 0, 0, 0, 0.07207806, -0.4410459
NTUN, 23042259, 0, 0, 0, 187, 0
STER, 23042267, 0, 0, 0, -2.0891E-05, 0, -0.01660652
RCIN, 23042273, 1522, 1479, 1521, 1495, 2000, 1000, 1500, 1500, 0, 0, 0, 0, 0, 0
RCI2, 23042277, 0, 0, 0, 1
RCOU, 23042284, 1496, 1500, 1504, 0, 0, 0, 0, 0, 0, 0, 0, 0, 0, 0
RCO2, 23042287, 0, 0, 0, 0
VIBE, 23042291, 0, 0.007275575, 0.009709437, 0.00906655, 0
VIBE, 23042291, 1, 0.06423459, 0.03835429, 0.07287878, 0
POWR, 23042343, 5.154336, 5.857802, 1, 1, 6
MCU, 23042343, 26.38749, 3.366306, 3.356611, 3.374924
BAT, 23042355, 0, 24.01772, 24.15944, 0.3297762, 1.869245, 0.04491923, 0, 0.4297382, 255, 0, 0
ISBD, 23043389, 0, 1, [3 1 1 0 -1 0 0 2 0 2 3 0 0 1 0 0 2 1 0 1 1 0 -1 0 1 2 2 2 1 0 0 0], [-7 -7 -8 -9 -8 -8 -7 -9 -10 -8 -7 -5 -7 -8 -6 -7 -12 -11 -7 -6 -7 -8 -7 -7 -9 -7 -6 -7 -10 -10 -10 -8], [0 0 1 0 -1 -1 0 0 -1 -1 0 0 0 -1 -1 0 -1 -1 -1 -2 0 0 0 0 -1 0 0 -1 -2 -1 -1 0]
ATT, 23061595, 0, 0.001198912, 0, -0.5944412, 0, 1.879374, 3
XKF4, 23061093, 0, 0, 0, 0.04, 0, 0, 0.01072467, 0, 0, 0, 50, 65703, 0, 0
XKF1, 23061093, 0, 0, -0.59, 1.87, 0.07097769, 0.06455686, -0.248202, 0.07640151, 0, 0, -0.8047264, 0.01, -0.41, -0.02, 0
XKF2, 23061093, 0, 0, 0, 0.06, 0, 0, 0, 0, 0, 0, 0, 0, 0, 0, 0
XKF3, 23061093, 0, 0, 0, 0, 0.07, 0.07, -0.46, 0, 0, 0, 0, 0, 0, 0
XKF5, 23061093, 0, 0, 0, 0, 0, 1.14, 0.36, 0, 0, 0.5, 2.014573E-05, 0.01027574, 0.0166055
XKFS, 23061093, 0, 0, 0, 0, 0, 0, 0, 0, 0
XKQ, 23061093, 0, 0.9993644, 0.02000142, -0.02420613, 0.01687283
XKF4, 23061093, 1, 0, 0, 0, 0, 0, 0.01129523, 0, 0, 0, 50, 65703, 0, 0
XKF1, 23061093, 1, 2.09, 0.26, 2.14, -0.02298685, 0.06392824, -0.06407733, 0.03444165, 0, 0, -0.4018837, 0.04, -0.01, 0, 0
XKF2, 23061093, 1, 0, 0, -0.05, 0, 0, 0, 0, 0, 0, 0, 0, 0, 0, 0
XKF3, 23061093, 1, 0, 0, 0, -0.03, 0.08, -0.06, 0, 0, 0, 0, 0, 0, 0
XKFS, 23061093, 1, 0, 0, 0, 0, 0, 0, 0, 0
XKQ, 23061093, 1, 0.9989517, 0.03813553, -0.01635655, 0.01933003
AHR2, 23061667, -0.09, -0.93, 0.7, 0.27, 0, 0, 0.9999449, -0.0007583461, -0.008195904, 0.006515577
PIDS, 23061698, 0, 0, 0, 0, 0, 0, 0, 0, 0, 0, 0
PIDA, 23061725, 0, 0, 0, 0, 0, 0, 0, 0, 0, 0, 0
IMU, 23061741, 0, 0.001002927, -0.008655649, -0.0006855535, -0.4392565, -0.3556794, -9.757463, 0, 0, 44.80676, 1, 1, 1976, 1976
IMU, 23061741, 1, 0.002102088, -3.677863E-06, -1.108089E-05, -0.342777, -0.7142724, -9.850798, 0, 0, 42.5, 1, 1, 2004, 2019
ATT, 23081907, 0, 0.001530603, 0, -0.5952465, 0, 1.879146, 3
XKF4, 23081199, 0, 0, 0, 0.04, 0, 0, 0.01075197, 0, 0, 0, 50, 65703, 0, 0
XKF1, 23081199, 0, 0, -0.59, 1.87, 0.07190865, 0.06523908, -0.2472348, 0.08152162, 0, 0, -0.8034742, 0.01, -0.41, -0.02, 0
XKF2, 23081199, 0, 0, 0, 0.06, 0, 0, 0, 0, 0, 0, 0, 0, 0, 0, 0
XKF3, 23081199, 0, 0, 0, 0, 0.07, 0.07, -0.46, 0, 0, 0, 0, 0, 0, 0
XKF5, 23081199, 0, 0, 0, 0, 0, 1.14, 0.36, 0, 0, 0.5, 1.926446E-05, 0.01074434, 0.01901892
XKFS, 23081199, 0, 0, 0, 0, 0, 0, 0, 0, 0
XKQ, 23081199, 0, 0.9993643, 0.02000438, -0.02421314, 0.01687104
XKF4, 23081199, 1, 0, 0, 0, 0, 0, 0.01132253, 0, 0, 0, 50, 65703, 0, 0
XKF1, 23081199, 1, 2.08, 0.25, 2.14, -0.02317433, 0.06427239, -0.06380052, 0.03299223, 0, 0, -0.4015392, 0.04, -0.01, 0, 0
XKF2, 23081199, 1, 0, 0, -0.05, 0, 0, 0, 0, 0, 0, 0, 0, 0, 0, 0
XKF3, 23081199, 1, 0, 0, 0, -0.03, 0.08, -0.06, 0, 0, 0, 0, 0, 0, 0
XKFS, 23081199, 1, 0, 0, 0, 0, 0, 0, 0, 0
XKQ, 23081199, 1, 0.9989519, 0.03812671, -0.01636408, 0.0193343
AHR2, 23081993, -0.09, -0.94, 0.7, 0.27, 0, 0, 0.9999445, -0.0007542536, -0.008253015, 0.006507327
PIDS, 23081998, 0, 0, 0, 0, 0, 0, 0, 0, 0, 0, 0
PIDA, 23082002, 0, 0, 0, 0, 0, 0, 0, 0, 0, 0, 0
IMU, 23082006, 0, 0.0009941591, -0.008460687, -0.0006634205, -0.43862, -0.3561414, -9.759125, 0, 0, 44.32367, 1, 1, 1976, 1976
IMU, 23082006, 1, 0.001774692, -0.0003095488, 0.0002849013, -0.3390948, -0.7198899, -9.836101, 0, 0, 42.5, 1, 1, 2004, 2019
ISBD, 23083203, 0, 2, [2 0 0 3 2 -1 0 0 1 1 1 2 0 0 1 2 1 0 1 3 1 2 2 1 0 2 1 0 0 2 1 1], [-8 -7 -9 -13 -8 -5 -9 -9 -9 -9 -9 -9 -9 -9 -8 -7 -6 -6 -6 -6 -7 -10 -11 -6 -7 -10 -5 -6 -11 -8 -6 -6], [1 0 -2 -2 -1 0 0 0 -1 0 -1 -1 1 1 0 -1 -1 0 -1 -1 -1 -3 -2 -2 -2 -1 -1 -1 -1 0 0 0]
ATT, 23101656, 0, 0.002573701, 0, -0.5970844, 0, 1.878522, 3
XKF4, 23101145, 0, 0, 0, 0.04, 0, 0, 0.01075661, 0, 0, 0, 50, 65703, 0, 0
XKF1, 23101145, 0, 0, -0.59, 1.87, 0.07287291, 0.06597003, -0.2463982, 0.08052886, 0, 0, -0.8028141, 0.01, -0.41, -0.02, 0
XKF2, 23101145, 0, 0, 0, 0.06, 0, 0, 0, 0, 0, 0, 0, 0, 0, 0, 0
XKF3, 23101145, 0, 0, 0, 0, 0.07, 0.07, -0.46, 0, 0, 0, 0, 0, 0, 0
XKF5, 23101145, 0, 0, 0, 0, 0, 1.15, 0.36, 0, 0, 0.5, 1.863707E-05, 0.01138089, 0.02270355
XKFS, 23101145, 0, 0, 0, 0, 0, 0, 0, 0, 0
XKQ, 23101145, 0, 0.9993638, 0.0200136, -0.02422913, 0.01686613
XKF4, 23101145, 1, 0, 0, 0, 0, 0, 0.01130783, 0, 0, 0, 50, 65703, 0, 0
XKF1, 23101145, 1, 2.09, 0.25, 2.14, -0.02325641, 0.0648051, -0.06342807, 0.03048212, 0, 0, -0.4013172, 0.04, -0.01, 0, 0
XKF2, 23101145, 1, 0, 0, -0.05, 0, 0, 0, 0, 0, 0, 0, 0, 0, 0, 0
XKF3, 23101145, 1, 0, 0, 0, -0.03, 0.08, -0.06, 0, 0, 0, 0, 0, 0, 0
XKFS, 23101145, 1, 0, 0, 0, 0, 0, 0, 0, 0
XKQ, 23101145, 1, 0.9989513, 0.03814096, -0.01637835, 0.01932493
AHR2, 23101727, -0.08, -0.95, 0.7, 0.27, 0, 0, 0.999944, -0.0007438418, -0.008320439, 0.006495757
PIDS, 23101737, 0, 0, 0, 0, 0, 0, 0, 0, 0, 0, 0
PIDA, 23101741, 0, 0, 0, 0, 0, 0, 0, 0, 0, 0, 0
IMU, 23101745, 0, 0.0009443198, -0.008359359, -0.0006548033, -0.4392522, -0.3545764, -9.758018, 0, 0, 44.80676, 1, 1, 1976, 1976
IMU, 23101745, 1, 0.001472091, -0.0005744724, 0.0004804446, -0.3425194, -0.7201212, -9.829254, 0, 0, 42.5, 1, 1, 2004, 2019
DCM, 23121125, -0.08847243, -0.9599105, 0.7004625, 0.006188951, 1, 0, 0, 0
EAHR, 23121144, 0, 0, 0, 0, 0, 0, 0, 0, 0, 0
ATT, 23121677, 0, 0.003577525, 0, -0.5987068, 0, 1.877985, 3
XKF4, 23121157, 0, 0, 0, 0.04, 0, 0, 0.0107841, 0, 0, 0, 50, 65703, 0, 0
XKF1, 23121157, 0, 0, -0.59, 1.87, 0.0737808, 0.06669752, -0.2456148, 0.07138605, 0, 0, -0.8025905, 0.01, -0.41, -0.02, 0
XKF2, 23121157, 0, 0, 0, 0.06, 0, 0, 0, 0, 0, 0, 0, 0, 0, 0, 0
XKF3, 23121157, 0, 0, 0, 0, 0.07, 0.07, -0.46, 0, 0, 0, 0, 0, 0, 0
XKF5, 23121157, 0, 0, 0, 0, 0, 1.15, 0.36, 0, 0, 0.5, 1.814158E-05, 0.0121212, 0.02685843
XKFS, 23121157, 0, 0, 0, 0, 0, 0, 0, 0, 0
XKQ, 23121157, 0, 0.9993633, 0.02002247, -0.02424322, 0.01686194
XKF4, 23121157, 1, 0, 0, 0, 0, 0, 0.01133515, 0, 0, 0, 50, 65703, 0, 0
XKF1, 23121157, 1, 2.08, 0.25, 2.14, -0.02338492, 0.06537652, -0.06259656, 0.02707834, 0, 0, -0.4012333, 0.04, -0.01, 0, 0
XKF2, 23121157, 1, 0, 0, -0.05, 0, 0, 0, 0, 0, 0, 0, 0, 0, 0, 0
XKF3, 23121157, 1, 0, 0, 0, -0.03, 0.08, -0.06, 0, 0, 0, 0, 0, 0, 0
XKFS, 23121157, 1, 0, 0, 0, 0, 0, 0, 0, 0
XKQ, 23121157, 1, 0.9989513, 0.03813256, -0.01638851, 0.01933206
AHR2, 23121749, -0.08, -0.95, 0.7, 0.27, 0, 0, 0.9999435, -0.0007337501, -0.008386002, 0.006484918
PIDS, 23121757, 0, 0, 0, 0, 0, 0, 0, 0, 0, 0, 0
PIDA, 23121761, 0, 0, 0, 0, 0, 0, 0, 0, 0, 0, 0
IMU, 23121765, 0, 0.0009687623, -0.008376389, -0.0006806584, -0.4415616, -0.3535436, -9.756841, 0, 0, 44.32367, 1, 1, 1976, 1976
IMU, 23121765, 1, 0.001256309, -0.0009319559, 0.0005026236, -0.3413114, -0.7160869, -9.818264, 0, 0, 42.5, 1, 1, 2004, 2019
ISBD, 23122908, 0, 3, [0 1 1 0 0 0 1 0 0 1 2 1 -1 0 0 -1 -1 1 0 0 0 0 0 0 2 0 0 0 0 1 1 2], [-8 -9 -8 -7 -8 -9 -10 -11 -10 -8 -8 -8 -5 -9 -9 -5 -9 -10 -5 -6 -10 -10 -8 -7 -8 -6 -6 -7 -7 -7 -8 -9], [0 0 -1 -1 0 1 -2 -2 0 0 0 0 0 0 -1 -2 -3 -2 -1 -1 -1 0 0 0 -1 0 0 0 0 -2 -2 0]
ATT, 23141987, 0, 0.004127782, 0, -0.5993685, 0, 1.878043, 3
XKF4, 23141090, 0, 0, 0, 0.05, 0, 0, 0.0108112, 0, 0, 0, 50, 65703, 0, 0
XKF1, 23141090, 0, 0, -0.59, 1.87, 0.07467394, 0.06737953, -0.2445494, 0.0570657, 0, 0, -0.800388, 0.01, -0.41, -0.02, 0
XKF2, 23141090, 0, 0, 0, 0.06, 0, 0, 0, 0, 0, 0, 0, 0, 0, 0, 0
XKF3, 23141090, 0, 0, 0, 0, 0.08, 0.08, -0.51, 0, 0, 0, 0, 0, 0, 0
XKF5, 23141090, 0, 0, 0, 0, 0, 1.13, 0.36, 0, 0, 0.5, 1.891375E-05, 0.009849591, 0.01596717
XKFS, 23141090, 0, 0, 0, 0, 0, 0, 0, 0, 0
XKQ, 23141090, 0, 0.9993631, 0.02002737, -0.0242489, 0.01686267
XKF4, 23141090, 1, 0, 0, 0.01, 0, 0, 0.01136141, 0, 0, 0, 50, 65703, 0, 0
XKF1, 23141090, 1, 2.08, 0.25, 2.14, -0.02383071, 0.06586545, -0.06231193, 0.02172823, 0, 0, -0.4006933, 0.04, -0.01, 0, 0
XKF2, 23141090, 1, 0, 0, -0.05, 0, 0, 0, 0, 0, 0, 0, 0, 0, 0, 0
XKF3, 23141090, 1, 0, 0, 0, -0.03, 0.08, -0.11, 0, 0, 0, 0, 0, 0, 0
XKFS, 23141090, 1, 0, 0, 0, 0, 0, 0, 0, 0
XKQ, 23141090, 1, 0.9989513, 0.0381274, -0.01638279, 0.01934301
AHR2, 23142118, -0.08, -0.96, 0.69, 0.27, 0, 0, 0.9999431, -0.0007276261, -0.008441984, 0.006479237
PIDS, 23142123, 0, 0, 0, 0, 0, 0, 0, 0, 0, 0, 0
PIDA, 23142127, 0, 0, 0, 0, 0, 0, 0, 0, 0, 0, 0
IMU, 23142131, 0, 0.00097535, -0.008339609, -0.0006839036, -0.4431294, -0.3544675, -9.760221, 0, 0, 44.32367, 1, 1, 1976, 1976
IMU, 23142131, 1, 0.001031255, -0.0009219725, 0.000371717, -0.34435, -0.7169522, -9.819784, 0, 0, 42.5, 1, 1, 2004, 2019
BARO, 23142284, 0, 0.2734528, 0.2734528, 101122.6, 26.43, 0.1598805, 23142, 0, 25.84294, 1
MAG, 23142297, 0, 431, -1195, 1219, 0, 0, 0, 0, 0, 0, 1, 23142295
THR, 23142306, 0, 0, 0, 0.07684219, -0.4431294
NTUN, 23142310, 0, 0, 0, 187, 0
STER, 23142317, 0, 0, 0, -2.198243E-05, 0, -0.01639074
RCIN, 23142323, 1522, 1479, 1521, 1495, 2000, 1000, 1500, 1500, 0, 0, 0, 0, 0, 0
RCI2, 23142327, 0, 0, 0, 1
RCOU, 23142333, 1496, 1500, 1504, 0, 0, 0, 0, 0, 0, 0, 0, 0, 0, 0
RCO2, 23142337, 0, 0, 0, 0
VIBE, 23142341, 0, 0.007531187, 0.008998821, 0.009359791, 0
VIBE, 23142341, 1, 0.06092393, 0.03826294, 0.07199088, 0
POWR, 23142421, 5.154437, 5.862637, 1, 1, 6
MCU, 23142421, 26.40767, 3.366306, 3.353951, 3.375349
BAT, 23142434, 0, 24.03475, 24.19008, 0.3614538, 1.879294, 0.04516076, 0, 0.4297382, 255, 0, 0
ISBD, 23143457, 0, 4, [1 0 -1 0 1 0 -1 0 2 1 2 1 1 1 0 0 0 1 1 1 0 1 0 -1 0 -3 -1 3 0 1 4 1], [-8 -4 -4 -10 -10 -5 -8 -12 -8 -8 -10 -8 -7 -7 -7 -6 -7 -7 -7 -7 -7 -8 -8 -6 -4 -6 -6 -4 -4 -7 -9 -7], [0 0 0 0 0 0 0 0 0 -1 -1 0 0 -1 -2 -1 0 0 0 0 0 -1 -1 0 -1 -1 0 0 2 2 0 0]
ATT, 23161649, 0, 0.00521058, 0, -0.6003433, 0, 1.878059, 3
XKF4, 23161165, 0, 0, 0, 0.05, 0, 0, 0.01083605, 0, 0, 0, 50, 65703, 0, 0
XKF1, 23161165, 0, 0, -0.6, 1.87, 0.07553096, 0.06803227, -0.2435375, 0.0636309, 0, 0, -0.798719, 0.01, -0.41, -0.02, 0
XKF2, 23161165, 0, 0, 0, 0.06, 0, 0, 0, 0, 0, 0, 0, 0, 0, 0, 0
XKF3, 23161165, 0, 0, 0, 0, 0.08, 0.08, -0.51, 0, 0, 0, 0, 0, 0, 0
XKF5, 23161165, 0, 0, 0, 0, 0, 1.14, 0.36, 0, 0, 0.5, 1.841551E-05, 0.01013349, 0.01669857
XKFS, 23161165, 0, 0, 0, 0, 0, 0, 0, 0, 0
XKQ, 23161165, 0, 0.9993626, 0.02003695, -0.02425724, 0.0168632
XKV1, 23161165, 0, 5.16432E-07, 1.379161E-05, 1.354122E-05, 0.00208238, 0.07502896, 0.07510405, 0.02404862, 0.112851, 0.1130663, 0.221156, 3.798842E-10, 3.573951E-10
XKV2, 23161165, 0, 2.610853E-08, 1.34473E-05, 1.344734E-05, 1.707727E-07, 0, 0, 0, 0, 0, 0, 0, 0
XKF4, 23161165, 1, 0, 0, 0.01, 0, 0, 0.01138828, 0, 0, 0, 50, 65703, 0, 0
XKF1, 23161165, 1, 2.08, 0.25, 2.14, -0.02414863, 0.06646733, -0.06245822, 0.02103053, 0, 0, -0.4003221, 0.04, -0.01, 0, 0
XKF2, 23161165, 1, 0, 0, -0.05, 0, 0, 0, 0, 0, 0, 0, 0, 0, 0, 0
XKF3, 23161165, 1, 0, 0, 0, -0.03, 0.08, -0.11, 0, 0, 0, 0, 0, 0, 0
XKFS, 23161165, 1, 0, 0, 0, 0, 0, 0, 0, 0
XKQ, 23161165, 1, 0.9989515, 0.03811849, -0.01638428, 0.01935194
AHR2, 23161757, -0.08, -0.97, 0.69, 0.27, 0, 0, 0.9999426, -0.0007168904, -0.008500614, 0.006473397
PIDS, 23161764, 0, 0, 0, 0, 0, 0, 0, 0, 0, 0, 0
PIDA, 23161768, 0, 0, 0, 0, 0, 0, 0, 0, 0, 0, 0
IMU, 23161772, 0, 0.001030806, -0.008277173, -0.0006154359, -0.4438212, -0.3551475, -9.762448, 0, 0, 44.32367, 1, 1, 1976, 1976
IMU, 23161772, 1, 0.000866225, -0.0007388676, 0.0004158389, -0.35012, -0.7129953, -9.838491, 0, 0, 42.5, 1, 1, 2004, 2019
ATT, 23181694, 0, 0.005705555, 0, -0.6015388, 0, 1.877433, 3
XKF4, 23181172, 0, 0, 0, 0.05, 0, 0, 0.01086335, 0, 0, 0, 50, 65703, 0, 0
XKF1, 23181172, 0, 0, -0.6, 1.87, 0.07640508, 0.06881921, -0.2426862, 0.06980553, 0, 0, -0.7976639, 0.01, -0.41, -0.02, 0
XKF2, 23181172, 0, 0, 0, 0.06, 0, 0, 0, 0, 0, 0, 0, 0, 0, 0, 0
XKF3, 23181172, 0, 0, 0, 0, 0.08, 0.08, -0.51, 0, 0, 0, 0, 0, 0, 0
XKF5, 23181172, 0, 0, 0, 0, 0, 1.14, 0.36, 0, 0, 0.5, 1.81374E-05, 0.01065853, 0.01960111
XKFS, 23181172, 0, 0, 0, 0, 0, 0, 0, 0, 0
XKQ, 23181172, 0, 0.9993624, 0.0200413, -0.0242677, 0.01685805
XKF4, 23181172, 1, 0, 0, 0.01, 0, 0, 0.01141568, 0, 0, 0, 50, 65703, 0, 0
XKF1, 23181172, 1, 2.09, 0.25, 2.14, -0.02438998, 0.06703336, -0.06256813, 0.02009833, 0, 0, -0.4000531, 0.04, -0.01, 0, 0
XKF2, 23181172, 1, 0, 0, -0.05, 0, 0, 0, 0, 0, 0, 0, 0, 0, 0, 0
XKF3, 23181172, 1, 0, 0, 0, -0.03, 0.08, -0.11, 0, 0, 0, 0, 0, 0, 0
XKFS, 23181172, 1, 0, 0, 0, 0, 0, 0, 0, 0
XKQ, 23181172, 1, 0.9989505, 0.03813898, -0.0164098, 0.01933661
AHR2, 23181772, -0.08, -0.98, 0.69, 0.27, 0, 0, 0.9999422, -0.0007112266, -0.008562536, 0.006461548
PIDS, 23181776, 0, 0, 0, 0, 0, 0, 0, 0, 0, 0, 0
PIDA, 23181780, 0, 0, 0, 0, 0, 0, 0, 0, 0, 0, 0
IMU, 23181784, 0, 0.0009978872, -0.008210039, -0.0005673755, -0.4452804, -0.3549989, -9.761588, 0, 0, 44.32367, 1, 1, 1976, 1976
IMU, 23181784, 1, 0.000738391, -0.0008683905, 0.0003404572, -0.3507865, -0.714837, -9.848371, 0, 0, 42.5, 1, 1, 2004, 2019
ISBD, 23182960, 0, 5, [-1 0 3 3 1 0 0 0 0 0 0 0 0 0 1 0 0 3 1 0 1 0 -1 0 2 1 0 0 1 1 1 3], [-7 -8 -8 -8 -6 -6 -7 -7 -7 -8 -8 -8 -8 -7 -5 -4 -7 -8 -5 -7 -10 -7 -5 -6 -7 -8 -9 -8 -7 -6 -5 -6], [0 0 -1 -2 0 2 2 0 -2 -3 -1 -2 -2 -1 0 0 0 0 0 0 -2 -1 -1 0 0 0 -2 -1 -1 0 0 0]
ATT, 23201643, 0, 0.006382598, 0, -0.6025575, 0, 1.877109, 3
XKF4, 23201140, 0, 0, 0, 0.05, 0, 0, 0.01089063, 0, 0, 0, 50, 65703, 0, 0
XKF1, 23201140, 0, 0, -0.6, 1.87, 0.07739949, 0.06956331, -0.2419464, 0.0680536, 0, 0, -0.7970673, 0.01, -0.41, -0.02, 0
XKF2, 23201140, 0, 0, 0, 0.06, 0, 0, 0, 0, 0, 0, 0, 0, 0, 0, 0
XKF3, 23201140, 0, 0, 0, 0, 0.08, 0.08, -0.51, 0, 0, 0, 0, 0, 0, 0
XKF5, 23201140, 0, 0, 0, 0, 0, 1.15, 0.36, 0, 0, 0.5, 1.802717E-05, 0.01133159, 0.02350462
XKFS, 23201140, 0, 0, 0, 0, 0, 0, 0, 0, 0
XKQ, 23201140, 0, 0.9993621, 0.02004728, -0.02427655, 0.01685553
XKF4, 23201140, 1, 0, 0, 0.01, 0, 0, 0.01144258, 0, 0, 0, 50, 65703, 0, 0
XKF1, 23201140, 1, 2.08, 0.25, 2.14, -0.02452101, 0.06754933, -0.0625975, 0.01840528, 0, 0, -0.3999074, 0.04, -0.01, 0, 0
XKF2, 23201140, 1, 0, 0, -0.05, 0, 0, 0, 0, 0, 0, 0, 0, 0, 0, 0
XKF3, 23201140, 1, 0, 0, 0, -0.03, 0.08, -0.11, 0, 0, 0, 0, 0, 0, 0
XKFS, 23201140, 1, 0, 0, 0, 0, 0, 0, 0, 0
XKQ, 23201140, 1, 0.9989513, 0.03811504, -0.01641181, 0.01934421
AHR2, 23201717, -0.08, -0.98, 0.69, 0.27, 0, 0, 0.9999418, -0.0007044537, -0.008619907, 0.006452405
PIDS, 23201722, 0, 0, 0, 0, 0, 0, 0, 0, 0, 0, 0
PIDA, 23201726, 0, 0, 0, 0, 0, 0, 0, 0, 0, 0, 0
IMU, 23201730, 0, 0.0009741349, -0.008181917, -0.0005968628, -0.4429157, -0.3525287, -9.761656, 0, 0, 44.32367, 1, 1, 1976, 1976
IMU, 23201730, 1, 0.0006849078, -0.001134136, 0.0003745969, -0.3484229, -0.7156626, -9.854014, 0, 0, 42.5, 1, 1, 2004, 2019
ISBD, 23202871, 0, 6, [2 0 0 -1 0 0 1 3 0 -1 2 1 0 0 0 1 2 0 0 1 0 0 1 1 0 0 2 2 0 1 2 0], [-7 -8 -9 -8 -8 -6 -6 -9 -6 -5 -10 -5 -2 -5 -5 -5 -7 -7 -8 -9 -8 -7 -7 -8 -9 -9 -11 -8 -5 -10 -8 -4], [0 0 0 0 0 -1 -3 -2 0 0 0 0 0 0 0 0 -1 -1 0 0 0 0 -1 -3 -2 0 0 -1 -1 -1 -1 0]
DCM, 23221079, -0.08460885, -0.9930819, 0.695297, 0.006984491, 1, 0, 0, 0
EAHR, 23221099, 0, 0, 0, 0, 0, 0, 0, 0, 0, 0
ATT, 23221624, 0, 0.006934349, 0, -0.6034756, 0, 1.876386, 3
XKF4, 23221111, 0, 0, 0, 0.05, 0, 0, 0.01091726, 0, 0, 0, 50, 65703, 0, 0
XKF1, 23221111, 0, 0, -0.6, 1.87, 0.07840553, 0.07038622, -0.2413218, 0.0599401, 0, 0, -0.796784, 0.01, -0.41, -0.02, 0
XKF2, 23221111, 0, 0, 0, 0.06, 0, 0, 0, 0, 0, 0, 0, 0, 0, 0, 0
XKF3, 23221111, 0, 0, 0, 0, 0.08, 0.08, -0.51, 0, 0, 0, 0, 0, 0, 0
XKF5, 23221111, 0, 0, 0, 0, 0, 1.15, 0.36, 0, 0, 0.5, 1.802211E-05, 0.01208906, 0.02772542
XKFS, 23221111, 0, 0, 0, 0, 0, 0, 0, 0, 0
XKQ, 23221111, 0, 0.9993619, 0.02005206, -0.02428459, 0.0168495
XKF4, 23221111, 1, 0, 0, 0.01, 0, 0, 0.01147011, 0, 0, 0, 50, 65703, 0, 0
XKF1, 23221111, 1, 2.08, 0.25, 2.14, -0.02384635, 0.06807952, -0.06229059, 0.0157763, 0, 0, -0.3999028, 0.04, -0.01, 0, 0
XKF2, 23221111, 1, 0, 0, -0.05, 0, 0, 0, 0, 0, 0, 0, 0, 0, 0, 0
XKF3, 23221111, 1, 0, 0, 0, -0.03, 0.08, -0.11, 0, 0, 0, 0, 0, 0, 0
XKFS, 23221111, 1, 0, 0, 0, 0, 0, 0, 0, 0
XKQ, 23221111, 1, 0.9989514, 0.03812443, -0.01638171, 0.01934705
AHR2, 23221766, -0.08, -0.99, 0.69, 0.27, 0, 0, 0.9999413, -0.0006987657, -0.008675237, 0.006439894
PIDS, 23221771, 0, 0, 0, 0, 0, 0, 0, 0, 0, 0, 0
PIDA, 23221775, 0, 0, 0, 0, 0, 0, 0, 0, 0, 0, 0
IMU, 23221779, 0, 0.0009158861, -0.00814313, -0.0006556386, -0.4391135, -0.3515869, -9.761193, 0, 0, 44.80676, 1, 1, 1976, 1976
IMU, 23221779, 1, 0.0007110853, -0.0009017015, 0.0004643396, -0.3224062, -0.7185279, -9.843735, 0, 0, 42.5, 1, 1, 2004, 2019
ISBD, 23222911, 0, 7, [0 2 1 2 2 1 0 0 1 1 1 2 1 0 0 2 2 0 -1 1 1 0 0 1 1 0 0 2 1 0 1 3], [-11 -11 -4 -6 -9 -10 -11 -9 -6 -6 -6 -7 -9 -9 -7 -5 -8 -6 -5 -10 -9 -3 -8 -11 -6 -5 -4 -6 -9 -8 -9 -11], [0 -2 -1 -1 -1 -1 -1 0 0 0 -1 -1 0 -1 0 0 0 0 0 -1 -1 0 0 -1 -2 0 3 2 0 0 -1 -1]
ATT, 23242237, 0, 0.008167198, 0, -0.6044636, 0, 1.875909, 3
XKF4, 23241145, 0, 0, 0, 0.05, 0, 0, 0.0109438, 0, 0, 0, 50, 65703, 0, 0
XKF1, 23241145, 0, 0, -0.6, 1.87, 0.07938887, 0.07112738, -0.2401496, 0.04810298, 0, 0, -0.7947525, 0.01, -0.41, -0.02, 0
XKF2, 23241145, 0, 0, 0, 0.06, 0, 0, 0, 0, 0, 0, 0, 0, 0, 0, 0
XKF3, 23241145, 0, 0, 0, 0, 0.09, 0.08, -0.51, 0, 0, 0, 0, 0, 0, 0
XKF5, 23241145, 0, 0, 0, 0, 0, 1.13, 0.36, 0, 0, 0.5, 1.826496E-05, 0.009597274, 0.01540877
XKFS, 23241145, 0, 0, 0, 0, 0, 0, 0, 0, 0
XKQ, 23241145, 0, 0.9993616, 0.02006285, -0.02429312, 0.01684577
XKF4, 23241145, 1, 0, 0, 0.01, 0, 0, 0.01149665, 0, 0, 0, 50, 65703, 0, 0
XKF1, 23241145, 1, 2.08, 0.25, 2.14, -0.02448301, 0.06852449, -0.06202977, 0.0116293, 0, 0, -0.3994202, 0.04, -0.01, 0, 0
XKF2, 23241145, 1, 0, 0, -0.05, 0, 0, 0, 0, 0, 0, 0, 0, 0, 0, 0
XKF3, 23241145, 1, 0, 0, 0, -0.03, 0.09, -0.12, 0, 0, 0, 0, 0, 0, 0
XKFS, 23241145, 1, 0, 0, 0, 0, 0, 0, 0, 0
XKQ, 23241145, 1, 0.9989519, 0.03811919, -0.01636778, 0.01934412
AHR2, 23242337, -0.08, -0.99, 0.69, 0.27, 0, 0, 0.999941, -0.0006870882, -0.008732389, 0.006429642
PIDS, 23242359, 0, 0, 0, 0, 0, 0, 0, 0, 0, 0, 0
PIDA, 23242363, 0, 0, 0, 0, 0, 0, 0, 0, 0, 0, 0
IMU, 23242367, 0, 0.0009344565, -0.008141973, -0.0007217521, -0.438755, -0.3518961, -9.761454, 0, 0, 44.80676, 1, 1, 1976, 1976
IMU, 23242367, 1, 0.0006947237, -1.00278E-05, 0.0004134864, -0.3325525, -0.7193514, -9.833215, 0, 0, 42.5, 1, 1, 2004, 2019
BARO, 23242442, 0, 0.2940369, 0.2940369, 101122.3, 26.43, 0.2453339, 23242, 0, 25.84294, 1
MAG, 23242459, 0, 442, -1189, 1230, 0, 0, 0, 0, 0, 0, 1, 23242458
THR, 23242466, 0, 0, 0, 0.08167505, -0.438755
NTUN, 23242470, 0, 0, 0, 187, 0
STER, 23242476, 0, 0, 0, -2.649654E-05, 0, -0.01858756
RCIN, 23242483, 1522, 1479, 1522, 1495, 2000, 1000, 1500, 1500, 0, 0, 0, 0, 0, 0
RCI2, 23242487, 0, 0, 0, 1
RCOU, 23242493, 1496, 1500, 1504, 0, 0, 0, 0, 0, 0, 0, 0, 0, 0, 0
RCO2, 23242496, 0, 0, 0, 0
VIBE, 23242500, 0, 0.007429055, 0.009434588, 0.008819628, 0
VIBE, 23242500, 1, 0.06269784, 0.03887267, 0.07006145, 0
POWR, 23242636, 5.124628, 5.862637, 1, 1, 6
MCU, 23242636, 26.42785, 3.366306, 3.357172, 3.375774
BAT, 23242660, 0, 24.05521, 24.2278, 0.4016153, 1.890476, 0.04542975, 0, 0.4297382, 255, 0, 0
ISBD, 23243702, 0, 8, [0 0 0 0 0 -1 0 0 1 0 1 2 0 0 3 3 0 0 0 0 0 0 1 2 1 0 0 1 2 3 2 2], [-10 -9 -7 -6 -8 -8 -8 -10 -8 -4 -9 -11 -6 -8 -12 -6 -5 -7 -6 -6 -8 -8 -8 -8 -7 -7 -9 -7 -6 -10 -12 -6], [0 -1 -1 -1 0 0 0 0 0 0 0 0 1 1 1 0 0 0 0 0 0 0 0 0 -2 -3 -2 0 0 -1 0 0]
ATT, 23261671, 0, 0.009185963, 0, -0.6056894, 0, 1.875469, 3
XKF4, 23261151, 0, 0, 0, 0.05, 0, 0, 0.01094676, 0, 0, 0, 50, 65703, 0, 0
XKF1, 23261151, 0, 0, -0.6, 1.87, 0.08035956, 0.07194374, -0.2391676, 0.05493391, 0, 0, -0.7931225, 0.01, -0.41, -0.02, 0
XKF2, 23261151, 0, 0, 0, 0.06, 0, 0, 0, 0, 0, 0, 0, 0, 0, 0, 0
XKF3, 23261151, 0, 0, 0, 0, 0.09, 0.08, -0.51, 0, 0, 0, 0, 0, 0, 0
XKF5, 23261151, 0, 0, 0, 0, 0, 1.13, 0.36, 0, 0, 0.5, 1.817669E-05, 0.009931635, 0.01663802
XKFS, 23261151, 0, 0, 0, 0, 0, 0, 0, 0, 0
XKQ, 23261151, 0, 0.9993612, 0.02007181, -0.02430373, 0.01684236
XKF4, 23261151, 1, 0, 0, 0.01, 0, 0, 0.01148236, 0, 0, 0, 50, 65703, 0, 0
XKF1, 23261151, 1, 2.09, 0.26, 2.14, -0.02456636, 0.06920336, -0.06195119, 0.01249008, 0, 0, -0.3991003, 0.04, -0.01, 0, 0
XKF2, 23261151, 1, 0, 0, -0.05, 0, 0, 0, 0, 0, 0, 0, 0, 0, 0, 0
XKF3, 23261151, 1, 0, 0, 0, -0.03, 0.09, -0.12, 0, 0, 0, 0, 0, 0, 0
XKFS, 23261151, 1, 0, 0, 0, 0, 0, 0, 0, 0
XKQ, 23261151, 1, 0.9989517, 0.03813615, -0.01634038, 0.0193406
AHR2, 23261746, -0.08, -1, 0.69, 0.29, 0, 0, 0.9999406, -0.0006773303, -0.008790351, 0.006419785
PIDS, 23261750, 0, 0, 0, 0, 0, 0, 0, 0, 0, 0, 0
PIDA, 23261754, 0, 0, 0, 0, 0, 0, 0, 0, 0, 0, 0
IMU, 23261758, 0, 0.0009952525, -0.008182466, -0.0007750639, -0.4405057, -0.3517815, -9.75945, 0, 0, 44.32367, 1, 1, 1976, 1976
IMU, 23261758, 1, 0.0008593334, 0.0005726622, 0.0002655099, -0.3473255, -0.714469, -9.840046, 0, 0, 42.5, 1, 1, 2004, 2019
ATT, 23281694, 0, 0.009884991, 0, -0.6075009, 0, 1.874605, 3
XKF4, 23281171, 0, 0, 0, 0.05, 0, 0, 0.01097412, 0, 0, 0, 50, 65703, 0, 0
XKF1, 23281171, 0, 0, -0.6, 1.87, 0.08140013, 0.07269945, -0.2384996, 0.06195839, 0, 0, -0.7920983, 0.01, -0.41, -0.02, 0
XKF2, 23281171, 0, 0, 0, 0.06, 0, 0, 0, 0, 0, 0, 0, 0, 0, 0, 0
XKF3, 23281171, 0, 0, 0, 0, 0.09, 0.08, -0.51, 0, 0, 0, 0, 0, 0, 0
XKF5, 23281171, 0, 0, 0, 0, 0, 1.14, 0.36, 0, 0, 0.5, 1.819219E-05, 0.01049137, 0.01983469
XKFS, 23281171, 0, 0, 0, 0, 0, 0, 0, 0, 0
XKQ, 23281171, 0, 0.9993608, 0.02007798, -0.02431958, 0.01683527
XKF4, 23281171, 1, 0, 0, 0.01, 0, 0, 0.01150897, 0, 0, 0, 50, 65703, 0, 0
XKF1, 23281171, 1, 2.09, 0.26, 2.14, -0.02455556, 0.06974231, -0.06154172, 0.01326005, 0, 0, -0.3988717, 0.04, -0.01, 0, 0
XKF2, 23281171, 1, 0, 0, -0.05, 0, 0, 0, 0, 0, 0, 0, 0, 0, 0, 0
XKF3, 23281171, 1, 0, 0, 0, -0.03, 0.09, -0.12, 0, 0, 0, 0, 0, 0, 0
XKFS, 23281171, 1, 0, 0, 0, 0, 0, 0, 0, 0
XKQ, 23281171, 1, 0.9989517, 0.03813805, -0.01632874, 0.0193486
AHR2, 23281765, -0.08, -1.01, 0.69, 0.29, 0, 0, 0.99994, -0.0006702928, -0.008854687, 0.00640593
PIDS, 23281770, 0, 0, 0, 0, 0, 0, 0, 0, 0, 0, 0
PIDA, 23281774, 0, 0, 0, 0, 0, 0, 0, 0, 0, 0, 0
IMU, 23281778, 0, 0.001018163, -0.008282617, -0.0007752255, -0.4392352, -0.3522547, -9.764523, 0, 0, 44.32367, 1, 1, 1976, 1976
IMU, 23281778, 1, 0.00110949, 0.001127635, 9.545829E-05, -0.3410072, -0.7143793, -9.833184, 0, 0, 42.5, 1, 1, 2004, 2019
ISBD, 23282911, 0, 9, [1 3 4 1 0 2 2 0 0 0 1 0 1 0 0 1 2 2 1 2 1 0 0 2 2 1 1 2 0 0 0 2], [-6 -11 -8 -6 -9 -8 -7 -7 -8 -9 -9 -8 -7 -7 -7 -8 -7 -7 -8 -11 -12 -8 -8 -11 -7 -6 -11 -8 -6 -9 -9 -6], [-1 -2 -2 -1 0 -1 0 0 -1 -1 0 0 0 -2 -2 0 0 -1 -1 -1 0 -1 -2 -2 -2 -1 0 0 0 1 0 -1]
ATT, 23301607, 0, 0.01039427, 0, -0.6093292, 0, 1.874359, 3
XKF4, 23301089, 0, 0, 0, 0.05, 0, 0, 0.01100066, 0, 0, 0, 50, 65703, 0, 0
XKF1, 23301089, 0, 0.01, -0.6, 1.87, 0.08236598, 0.07342936, -0.2379149, 0.06129706, 0, 0, -0.7914139, 0.01, -0.41, -0.02, 0
XKF2, 23301089, 0, 0, 0, 0.06, 0, 0, 0, 0, 0, 0, 0, 0, 0, 0, 0
XKF3, 23301089, 0, 0, 0, 0, 0.09, 0.08, -0.51, 0, 0, 0, 0, 0, 0, 0
XKF5, 23301089, 0, 0, 0, 0, 0, 1.14, 0.36, 0, 0, 0.5, 1.825353E-05, 0.01118564, 0.02386299
XKFS, 23301089, 0, 0, 0, 0, 0, 0, 0, 0, 0
XKQ, 23301089, 0, 0.9993603, 0.02008262, -0.02433549, 0.01683354
XKF4, 23301089, 1, 0, 0, 0.01, 0, 0, 0.01153537, 0, 0, 0, 50, 65703, 0, 0
XKF1, 23301089, 1, 2.09, 0.26, 2.14, -0.02488142, 0.07038188, -0.0610885, 0.01304859, 0, 0, -0.3987824, 0.04, -0.01, 0, 0
XKF2, 23301089, 1, 0, 0, -0.05, 0, 0, 0, 0, 0, 0, 0, 0, 0, 0, 0
XKF3, 23301089, 1, 0, 0, 0, -0.03, 0.09, -0.12, 0, 0, 0, 0, 0, 0, 0
XKFS, 23301089, 1, 0, 0, 0, 0, 0, 0, 0, 0
XKQ, 23301089, 1, 0.9989517, 0.03814217, -0.01633456, 0.019338
AHR2, 23301733, -0.08, -1.02, 0.69, 0.29, 0, 0, 0.9999395, -0.0006648899, -0.008917993, 0.006397548
PIDS, 23301738, 0, 0, 0, 0, 0, 0, 0, 0, 0, 0, 0
PIDA, 23301753, 0, 0, 0, 0, 0, 0, 0, 0, 0, 0, 0
IMU, 23301757, 0, 0.0009975883, -0.008425043, -0.0007856595, -0.4394352, -0.3529606, -9.769816, 0, 0, 44.32367, 1, 1, 1976, 1976
IMU, 23301757, 1, 0.001185476, 0.001097508, 8.841411E-06, -0.344474, -0.7123211, -9.828588, 0, 0, 42.5, 1, 1, 2004, 2019
ISBD, 23302918, 0, 10, [2 3 3 1 0 1 1 1 1 2 1 1 0 1 3 1 1 3 1 0 1 1 0 -1 0 0 1 0 0 0 0 -1], [-6 -6 -6 -7 -8 -9 -8 -6 -5 -9 -10 -5 -5 -10 -8 -5 -8 -10 -5 -4 -6 -8 -8 -7 -7 -8 -10 -9 -9 -9 -9 -8], [-1 0 0 0 0 1 0 0 0 -1 -2 -3 -1 0 0 0 -2 -1 0 1 0 0 -1 -2 -2 -1 0 0 0 -2 -1 0]
DCM, 23321131, -0.07958208, -1.02809, 0.6890385, 0.006984491, 1, 0, 0, 0
EAHR, 23321149, 0, 0, 0, 0, 0, 0, 0, 0, 0, 0
ATT, 23321654, 0, 0.01157183, 0, -0.6110566, 0, 1.873653, 3
XKF4, 23321161, 0, 0, 0, 0.05, 0, 0, 0.01102741, 0, 0, 0, 50, 65703, 0, 0
XKF1, 23321161, 0, 0.01, -0.61, 1.87, 0.08326918, 0.0741249, -0.2373446, 0.05577506, 0, 0, -0.7911596, 0.01, -0.41, -0.02, 0
XKF2, 23321161, 0, 0, 0, 0.06, 0, 0, 0, 0, 0, 0, 0, 0, 0, 0, 0
XKF3, 23321161, 0, 0, 0, 0, 0.09, 0.08, -0.51, 0, 0, 0, 0, 0, 0, 0
XKF5, 23321161, 0, 0, 0, 0, 0, 1.15, 0.36, 0, 0, 0.5, 1.840672E-05, 0.01195453, 0.0281137
XKFS, 23321161, 0, 0, 0, 0, 0, 0, 0, 0, 0
XKQ, 23321161, 0, 0.9993598, 0.02009298, -0.02435051, 0.01682792
XKF4, 23321161, 1, 0, 0, 0.01, 0, 0, 0.01156174, 0, 0, 0, 50, 65703, 0, 0
XKF1, 23321161, 1, 2.09, 0.26, 2.14, -0.02508236, 0.07092461, -0.0613073, 0.0104723, 0, 0, -0.3987699, 0.04, -0.01, 0, 0
XKF2, 23321161, 1, 0, 0, -0.05, 0, 0, 0, 0, 0, 0, 0, 0, 0, 0, 0
XKF3, 23321161, 1, 0, 0, 0, -0.03, 0.09, -0.12, 0, 0, 0, 0, 0, 0, 0
XKFS, 23321161, 1, 0, 0, 0, 0, 0, 0, 0, 0
XKQ, 23321161, 1, 0.9989515, 0.03815204, -0.01631713, 0.01934165
AHR2, 23321744, -0.07, -1.02, 0.68, 0.29, 0, 0, 0.9999391, -0.0006536498, -0.008980441, 0.006385428
PIDS, 23321761, 0, 0, 0, 0, 0, 0, 0, 0, 0, 0, 0
PIDA, 23321765, 0, 0, 0, 0, 0, 0, 0, 0, 0, 0, 0
IMU, 23321769, 0, 0.0009932034, -0.008579451, -0.0008117424, -0.4434911, -0.3551077, -9.767547, 0, 0, 44.32367, 1, 1, 1976, 1976
IMU, 23321769, 1, 0.001216932, 0.001082197, -7.610434E-05, -0.3433436, -0.7146887, -9.836364, 0, 0, 42.5, 1, 1, 2004, 2019
ISBD, 23322960, 0, 11, [-2 0 1 0 0 2 -1 -1 0 0 1 0 0 2 3 2 0 0 1 1 1 1 1 2 2 1 0 1 1 1 2 1], [-6 -10 -10 -4 -6 -8 -2 -6 -10 -7 -6 -7 -6 -7 -8 -9 -9 -9 -8 -7 -7 -5 -4 -8 -7 -3 -7 -8 -4 -6 -9 -8], [-1 0 -1 -1 0 0 0 -2 -1 0 -1 0 0 -1 -2 -1 0 -1 -1 0 0 0 -1 -1 -3 -2 0 -1 -1 -1 0 -1]
ATT, 23341998, 0, 0.01148944, 0, -0.6125286, 0, 1.873127, 3
XKF4, 23341143, 0, 0, 0, 0.04, 0, 0, 0.01105452, 0, 0, 0, 50, 65703, 0, 0
XKF1, 23341143, 0, 0.01, -0.61, 1.87, 0.08427159, 0.07489987, -0.2364188, 0.04495489, 0, 0, -0.7892669, 0.01, -0.41, -0.02, 0
XKF2, 23341143, 0, 0, 0, 0.06, 0, 0, 0, 0, 0, 0, 0, 0, 0, 0, 0
XKF3, 23341143, 0, 0, 0, 0, 0.1, 0.09, -0.49, 0, 0, 0, 0, 0, 0, 0
XKF5, 23341143, 0, 0, 0, 0, 0, 1.12, 0.36, 0, 0, 0.5, 1.827592E-05, 0.009381563, 0.01497914
XKFS, 23341143, 0, 0, 0, 0, 0, 0, 0, 0, 0
XKQ, 23341143, 0, 0.9993597, 0.02009235, -0.02436345, 0.01682357
XKF4, 23341143, 1, 0, 0, 0.01, 0, 0, 0.01159002, 0, 0, 0, 50, 65703, 0, 0
XKF1, 23341143, 1, 2.09, 0.26, 2.14, -0.02537167, 0.07147689, -0.06121048, 0.00734719, 0, 0, -0.3984092, 0.04, -0.01, 0, 0
XKF2, 23341143, 1, 0, 0, -0.05, 0, 0, 0, 0, 0, 0, 0, 0, 0, 0, 0
XKF3, 23341143, 1, 0, 0, 0, -0.03, 0.1, -0.1, 0, 0, 0, 0, 0, 0, 0
XKFS, 23341143, 1, 0, 0, 0, 0, 0, 0, 0, 0
XKQ, 23341143, 1, 0.9989524, 0.03813861, -0.01629214, 0.01934038
AHR2, 23342144, -0.07, -1.03, 0.68, 0.29, 0, 0, 0.9999386, -0.0006533653, -0.009041958, 0.006374196
PIDS, 23342149, 0, 0, 0, 0, 0, 0, 0, 0, 0, 0, 0
PIDA, 23342153, 0, 0, 0, 0, 0, 0, 0, 0, 0, 0, 0
IMU, 23342157, 0, 0.0009429867, -0.008664207, -0.0008331743, -0.4427549, -0.3553073, -9.766293, 0, 0, 44.32367, 1, 1, 1976, 1976
IMU, 23342157, 1, 0.001246487, 0.001201707, -0.0001161903, -0.3444809, -0.7133329, -9.84437, 0, 0, 42.5, 1, 1, 2004, 2019
BARO, 23342227, 0, 0.3440228, 0.3440228, 101121.8, 26.44, 0.1176131, 23342, 0, 25.84294, 1
MAG, 23342244, 0, 424, -1198, 1229, 0, 0, 0, 0, 0, 0, 1, 23342242
THR, 23342251, 0, 0, 0, 0.08667532, -0.4427549
NTUN, 23342255, 0, 0, 0, 187, 0
STER, 23342261, 0, 0, 0, -3.776298E-05, 0, -0.0249628
RCIN, 23342269, 1522, 1479, 1523, 1495, 2000, 1000, 1500, 1500, 0, 0, 0, 0, 0, 0
RCI2, 23342277, 0, 0, 0, 1
RCOU, 23342296, 1496, 1500, 1504, 0, 0, 0, 0, 0, 0, 0, 0, 0, 0, 0
RCO2, 23342300, 0, 0, 0, 0
VIBE, 23342316, 0, 0.007582027, 0.008400341, 0.008804308, 0
VIBE, 23342316, 1, 0.0600731, 0.0368204, 0.07561471, 0
POWR, 23342397, 5.125031, 5.860219, 1, 1, 6
MCU, 23342397, 26.38749, 3.366447, 3.356471, 3.376341
BAT, 23342423, 0, 24.01141, 24.14581, 0.3127473, 1.899144, 0.04563787, 0, 0.4297382, 255, 0, 0
ISBD, 23343448, 0, 12, [1 2 0 0 0 0 1 1 1 0 0 0 -1 0 2 0 -2 0 2 1 2 1 0 0 2 3 2 2 0 0 0 0], [-9 -8 -5 -3 -3 -7 -8 -7 -7 -8 -7 -6 -3 -10 -10 -5 -8 -10 -7 -8 -11 -10 -8 -6 -7 -8 -5 -4 -3 -5 -7 -8], [-1 -1 -1 0 0 0 0 0 0 0 0 0 0 0 -1 0 0 -2 -1 0 -1 -1 0 0 -1 -1 0 0 -1 -1 -1 -1]
ATT, 23361642, 0, 0.0122429, 0, -0.6139845, 0, 1.872356, 3
XKF4, 23361143, 0, 0, 0, 0.04, 0, 0, 0.01107873, 0, 0, 0, 50, 65703, 0, 0
XKF1, 23361143, 0, 0.01, -0.61, 1.87, 0.0852528, 0.07567301, -0.2355837, 0.05140906, 0, 0, -0.7878796, 0.01, -0.41, -0.02, 0
XKF2, 23361143, 0, 0, 0, 0.06, 0, 0, 0, 0, 0, 0, 0, 0, 0, 0, 0
XKF3, 23361143, 0, 0, 0, 0, 0.1, 0.09, -0.49, 0, 0, 0, 0, 0, 0, 0
XKF5, 23361143, 0, 0, 0, 0, 0, 1.13, 0.36, 0, 0, 0.5, 1.834898E-05, 0.009799235, 0.01700729
XKFS, 23361143, 0, 0, 0, 0, 0, 0, 0, 0, 0
XKQ, 23361143, 0, 0.9993593, 0.02009896, -0.02437617, 0.01681725
XKF4, 23361143, 1, 0, 0, 0.01, 0, 0, 0.01161264, 0, 0, 0, 50, 65703, 0, 0
XKF1, 23361143, 1, 2.09, 0.26, 2.14, -0.02529165, 0.07194809, -0.06068741, 0.008529527, 0, 0, -0.3981986, 0.04, -0.01, 0, 0
XKF2, 23361143, 1, 0, 0, -0.05, 0, 0, 0, 0, 0, 0, 0, 0, 0, 0, 0
XKF3, 23361143, 1, 0, 0, 0, -0.03, 0.1, -0.1, 0, 0, 0, 0, 0, 0, 0
XKFS, 23361143, 1, 0, 0, 0, 0, 0, 0, 0, 0
XKQ, 23361143, 1, 0.9989518, 0.03815687, -0.01629778, 0.01933202
AHR2, 23361714, -0.07, -1.04, 0.68, 0.34, 0, 0, 0.9999381, -0.0006458473, -0.009103215, 0.006361158
PIDS, 23361719, 0, 0, 0, 0, 0, 0, 0, 0, 0, 0, 0
PIDA, 23361722, 0, 0, 0, 0, 0, 0, 0, 0, 0, 0, 0
IMU, 23361727, 0, 0.0008510207, -0.008677576, -0.0008385169, -0.4430119, -0.3552044, -9.767052, 0, 0, 44.32367, 1, 1, 1976, 1976
IMU, 23361727, 1, 0.001262954, 0.001137854, -0.0002707541, -0.3359771, -0.7194257, -9.834835, 0, 0, 42.5, 1, 1, 2004, 2019
ATT, 23381676, 0, 0.01279508, 0, -0.6152064, 0, 1.871547, 3
XKF4, 23381124, 0, 0, 0, 0.04, 0, 0, 0.01110534, 0, 0, 0, 50, 65703, 0, 0
XKF1, 23381124, 0, 0.01, -0.61, 1.87, 0.08619484, 0.07645838, -0.234832, 0.05617952, 0, 0, -0.7869644, 0.01, -0.41, -0.02, 0
XKF2, 23381124, 0, 0, 0, 0.06, 0, 0, 0, 0, 0, 0, 0, 0, 0, 0, 0
XKF3, 23381124, 0, 0, 0, 0, 0.1, 0.09, -0.49, 0, 0, 0, 0, 0, 0, 0
XKF5, 23381124, 0, 0, 0, 0, 0, 1.13, 0.36, 0, 0, 0.5, 1.847323E-05, 0.0104142, 0.02060998
XKFS, 23381124, 0, 0, 0, 0, 0, 0, 0, 0, 0
XKQ, 23381124, 0, 0.9993591, 0.02010377, -0.02438689, 0.01681052
XKF4, 23381124, 1, 0, 0, 0.01, 0, 0, 0.01163921, 0, 0, 0, 50, 65703, 0, 0
XKF1, 23381124, 1, 2.09, 0.26, 2.14, -0.02540826, 0.07248785, -0.06031081, 0.008871228, 0, 0, -0.398066, 0.04, -0.01, 0, 0
XKF2, 23381124, 1, 0, 0, -0.05, 0, 0, 0, 0, 0, 0, 0, 0, 0, 0, 0
XKF3, 23381124, 1, 0, 0, 0, -0.03, 0.1, -0.1, 0, 0, 0, 0, 0, 0, 0
XKFS, 23381124, 1, 0, 0, 0, 0, 0, 0, 0, 0
XKQ, 23381124, 1, 0.9989522, 0.038151, -0.01628681, 0.01933597
AHR2, 23381751, -0.07, -1.04, 0.68, 0.34, 0, 0, 0.9999377, -0.0006400751, -0.009162448, 0.006347711
PIDS, 23381755, 0, 0, 0, 0, 0, 0, 0, 0, 0, 0, 0
PIDA, 23381759, 0, 0, 0, 0, 0, 0, 0, 0, 0, 0, 0
IMU, 23381763, 0, 0.0008341479, -0.008618519, -0.0008941678, -0.4442031, -0.3527299, -9.76556, 0, 0, 44.32367, 1, 1, 1976, 1976
IMU, 23381763, 1, 0.001238713, 0.0008540243, -0.000222142, -0.3348099, -0.7185313, -9.827052, 0, 0, 42.5, 1, 1, 2004, 2019
ISBD, 23382916, 0, 13, [2 3 3 2 0 0 1 0 -1 0 0 0 0 0 0 -1 0 1 1 0 2 3 0 0 2 1 3 4 1 1 3 0], [-8 -10 -11 -5 -5 -11 -8 -4 -10 -10 -6 -7 -8 -7 -7 -5 -5 -6 -8 -8 -7 -7 -7 -7 -10 -13 -10 -5 -6 -8 -7 -6], [-1 -1 -1 -2 -2 -1 0 0 0 -3 -3 -1 0 0 0 1 0 -1 0 0 0 0 0 0 0 0 0 0 0 0 1 0]
ATT, 23401842, 0, 0.01341748, 0, -0.6165947, 0, 1.871365, 3
XKF4, 23401094, 0, 0, 0, 0.04, 0, 0, 0.01113257, 0, 0, 0, 50, 65703, 0, 0
XKF1, 23401094, 0, 0.01, -0.61, 1.87, 0.08709632, 0.07713728, -0.2340841, 0.05505972, 0, 0, -0.786263, 0.01, -0.41, -0.02, 0
XKF2, 23401094, 0, 0, 0, 0.06, 0, 0, 0, 0, 0, 0, 0, 0, 0, 0, 0
XKF3, 23401094, 0, 0, 0, 0, 0.1, 0.09, -0.49, 0, 0, 0, 0, 0, 0, 0
XKF5, 23401094, 0, 0, 0, 0, 0, 1.14, 0.36, 0, 0, 0.5, 1.859315E-05, 0.01114353, 0.02478776
XKFS, 23401094, 0, 0, 0, 0, 0, 0, 0, 0, 0
XKQ, 23401094, 0, 0.9993587, 0.02010935, -0.02439894, 0.01680929
XKF4, 23401094, 1, 0, 0, 0.01, 0, 0, 0.01166522, 0, 0, 0, 50, 65703, 0, 0
XKF1, 23401094, 1, 2.09, 0.26, 2.14, -0.02574508, 0.07307789, -0.06000149, 0.008217484, 0, 0, -0.3980658, 0.04, -0.01, 0, 0
XKF2, 23401094, 1, 0, 0, -0.05, 0, 0, 0, 0, 0, 0, 0, 0, 0, 0, 0
XKF3, 23401094, 1, 0, 0, 0, -0.03, 0.1, -0.1, 0, 0, 0, 0, 0, 0, 0
XKFS, 23401094, 1, 0, 0, 0, 0, 0, 0, 0, 0
XKQ, 23401094, 1, 0.9989508, 0.03818342, -0.01628814, 0.01934062
AHR2, 23401923, -0.07, -1.05, 0.68, 0.34, 0, 0, 0.9999372, -0.0006336736, -0.009220758, 0.006340089
PIDS, 23401928, 0, 0, 0, 0, 0, 0, 0, 0, 0, 0, 0
PIDA, 23401934, 0, 0, 0, 0, 0, 0, 0, 0, 0, 0, 0
IMU, 23401938, 0, 0.0008139649, -0.008581157, -0.0008859074, -0.4436248, -0.35465, -9.762176, 0, 0, 44.32367, 1, 1, 1976, 1976
IMU, 23401938, 1, 0.001438698, 0.0006740578, -0.0001333266, -0.3428113, -0.71329, -9.826503, 0, 0, 42.5, 1, 1, 2004, 2019
MAV, 23402039, 0, 47, 0, 0, 4, 0, 1626
MAV, 23402045, 1, 457, 0, 0, 4, 0, 0
MAV, 23402051, 2, 443, 0, 0, 4, 0, 0
MAV, 23402058, 3, 63, 0, 0, 4, 0, 1087
ISBD, 23403154, 0, 14, [0 2 0 1 1 1 1 1 1 2 1 1 0 0 1 1 1 1 0 2 4 2 0 2 2 0 0 1 0 0 0 0], [-9 -9 -7 -6 -8 -9 -6 -6 -7 -9 -10 -7 -6 -6 -10 -12 -10 -6 -6 -8 -7 -6 -8 -8 -8 -7 -7 -7 -8 -9 -8 -8], [0 0 0 -1 -3 -1 1 0 -2 -1 0 0 -1 -1 -1 -1 -1 0 0 0 0 0 0 2 1 0 0 0 -2 -1 0 0]
DCM, 23421126, -0.07601243, -1.062475, 0.6830046, 0.007879421, 1, 0, 0, 0
EAHR, 23421143, 0, 0, 0, 0, 0, 0, 0, 0, 0, 0
ATT, 23421683, 0, 0.01478266, 0, -0.61801, 0, 1.871245, 3
XKF4, 23421156, 0, 0, 0, 0.04, 0, 0, 0.01113801, 0, 0, 0, 50, 65703, 0, 0
XKF1, 23421156, 0, 0.01, -0.61, 1.87, 0.08811802, 0.07785711, -0.233639, 0.05056146, 0, 0, -0.7863234, 0.01, -0.41, -0.02, 0
XKF2, 23421156, 0, 0, 0, 0.06, 0, 0, 0, 0, 0, 0, 0, 0, 0, 0, 0
XKF3, 23421156, 0, 0, 0, 0, 0.1, 0.09, -0.49, 0, 0, 0, 0, 0, 0, 0
XKF5, 23421156, 0, 0, 0, 0, 0, 1.14, 0.36, 0, 0, 0.5, 1.881963E-05, 0.01192773, 0.02905441
XKFS, 23421156, 0, 0, 0, 0, 0, 0, 0, 0, 0
XKQ, 23421156, 0, 0.9993581, 0.02012143, -0.0244111, 0.01680878
XKF4, 23421156, 1, 0, 0, 0.01, 0, 0, 0.01165411, 0, 0, 0, 50, 65703, 0, 0
XKF1, 23421156, 1, 2.09, 0.26, 2.14, -0.02593996, 0.07367585, -0.05975422, 0.006021996, 0, 0, -0.3981331, 0.04, -0.01, 0, 0
XKF2, 23421156, 1, 0, 0, -0.05, 0, 0, 0, 0, 0, 0, 0, 0, 0, 0, 0
XKF3, 23421156, 1, 0, 0, 0, -0.03, 0.1, -0.1, 0, 0, 0, 0, 0, 0, 0
XKFS, 23421156, 1, 0, 0, 0, 0, 0, 0, 0, 0
XKQ, 23421156, 1, 0.9989504, 0.03819583, -0.01628063, 0.01934063
AHR2, 23421757, -0.07, -1.06, 0.68, 0.34, 0, 0, 0.9999367, -0.0006212999, -0.009280274, 0.006332838
PIDS, 23421762, 0, 0, 0, 0, 0, 0, 0, 0, 0, 0, 0
PIDA, 23421766, 0, 0, 0, 0, 0, 0, 0, 0, 0, 0, 0
IMU, 23421770, 0, 0.0008776444, -0.008559598, -0.0008020361, -0.4437669, -0.3564175, -9.763517, 0, 0, 44.32367, 1, 1, 1976, 1976
IMU, 23421770, 1, 0.001843719, 0.0003604876, -1.344603E-05, -0.3431311, -0.71656, -9.827147, 0, 0, 42.5, 1, 1, 2004, 2019
ATT, 23442010, 0, 0.01553612, 0, -0.6194343, 0, 1.871186, 3
XKF4, 23441141, 0, 0, 0, 0.04, 0, 0, 0.01116532, 0, 0, 0, 50, 65703, 0, 0
XKF1, 23441141, 0, 0.01, -0.61, 1.87, 0.08901981, 0.07858686, -0.2326741, 0.03788574, 0, 0, -0.7846228, 0.01, -0.41, -0.02, 0
XKF2, 23441141, 0, 0, 0, 0.06, 0, 0, 0, 0, 0, 0, 0, 0, 0, 0, 0
XKF3, 23441141, 0, 0, 0, 0, 0.11, 0.1, -0.43, 0, 0, 0, 0, 0, 0, 0
XKF5, 23441141, 0, 0, 0, 0, 0, 1.12, 0.36, 0, 0, 0.5, 1.861202E-05, 0.009337373, 0.01553598
XKFS, 23441141, 0, 0, 0, 0, 0, 0, 0, 0, 0
XKQ, 23441141, 0, 0.9993577, 0.02012818, -0.02442342, 0.01680866
XKF4, 23441141, 1, 0, 0, 0, 0, 0, 0.01168053, 0, 0, 0, 50, 65703, 0, 0
XKF1, 23441141, 1, 2.09, 0.26, 2.14, -0.02641538, 0.07437423, -0.05995815, 0.002617104, 0, 0, -0.3980592, 0.04, -0.01, 0, 0
XKF2, 23441141, 1, 0, 0, -0.05, 0, 0, 0, 0, 0, 0, 0, 0, 0, 0, 0
XKF3, 23441141, 1, 0, 0, 0, -0.04, 0.1, -0.05, 0, 0, 0, 0, 0, 0, 0
XKFS, 23441141, 1, 0, 0, 0, 0, 0, 0, 0, 0
XKQ, 23441141, 1, 0.9989498, 0.03821122, -0.01628672, 0.01933618
AHR2, 23442152, -0.07, -1.06, 0.68, 0.34, 0, 0, 0.9999362, -0.00061423, -0.00933763, 0.006326186
PIDS, 23442157, 0, 0, 0, 0, 0, 0, 0, 0, 0, 0, 0
PIDA, 23442161, 0, 0, 0, 0, 0, 0, 0, 0, 0, 0, 0
IMU, 23442165, 0, 0.0009312792, -0.008518995, -0.0007188045, -0.4448341, -0.3567509, -9.76273, 0, 0, 44.80676, 1, 1, 1976, 1976
IMU, 23442165, 1, 0.002009046, 0.0001866156, 8.162852E-05, -0.3519964, -0.711337, -9.841459, 0, 0, 42.5, 1, 1, 2004, 2019
BARO, 23442233, 0, 0.2969761, 0.2969761, 101122.3, 26.44, 0.08637369, 23442, 0, 25.84294, 1
MAG, 23442250, 0, 445, -1187, 1224, 0, 0, 0, 0, 0, 0, 1, 23442248
THR, 23442257, 0, 0, 0, 0.0915392, -0.4448341
NTUN, 23442261, 0, 0, 0, 187, 0
STER, 23442269, 0, 0, 0, -2.942982E-05, 0, -0.01842057
RCIN, 23442278, 1522, 1479, 1523, 1495, 2000, 1000, 1500, 1500, 0, 0, 0, 0, 0, 0
RCI2, 23442282, 0, 0, 0, 1
RCOU, 23442288, 1496, 1500, 1504, 0, 0, 0, 0, 0, 0, 0, 0, 0, 0, 0
RCO2, 23442291, 0, 0, 0, 0
VIBE, 23442295, 0, 0.007369438, 0.00860843, 0.009495103, 0
VIBE, 23442295, 1, 0.06562121, 0.0380013, 0.07248767, 0
POWR, 23442354, 5.155041, 5.862637, 1, 1, 6
MCU, 23442354, 26.44803, 3.366306, 3.355771, 3.375491
BAT, 23442367, 0, 24.06094, 24.23626, 0.407963, 1.910471, 0.04591041, 0, 0.4297382, 255, 0, 0
ISBD, 23443486, 0, 15, [0 0 1 0 1 2 1 0 2 3 0 0 1 -1 -2 0 1 0 0 0 0 0 2 3 0 0 2 2 4 0 0 2], [-6 -7 -8 -9 -8 -9 -8 -2 -8 -11 -4 -8 -15 -9 -4 -5 -7 -8 -7 -8 -9 -7 -6 -8 -8 -8 -8 -10 -9 -3 -7 -12], [0 0 0 0 0 0 0 0 0 -1 0 -1 -1 0 0 -1 -1 -2 -1 0 -1 0 -1 -2 0 0 0 -1 0 0 0 0]
ATT, 23461598, 0, 0.01571947, 0, -0.6205096, 0, 1.871172, 3
XKF4, 23461082, 0, 0, 0, 0.04, 0, 0, 0.01118879, 0, 0, 0, 50, 65703, 0, 0
XKF1, 23461082, 0, 0.01, -0.62, 1.87, 0.09001538, 0.07928573, -0.2318296, 0.04308131, 0, 0, -0.783523, 0.01, -0.41, -0.02, 0
XKF2, 23461082, 0, 0, 0, 0.06, 0, 0, 0, 0, 0, 0, 0, 0, 0, 0, 0
XKF3, 23461082, 0, 0, 0, 0, 0.11, 0.1, -0.43, 0, 0, 0, 0, 0, 0, 0
XKF5, 23461082, 0, 0, 0, 0, 0, 1.13, 0.36, 0, 0, 0.5, 1.875133E-05, 0.009900257, 0.01879013
XKFS, 23461082, 0, 0, 0, 0, 0, 0, 0, 0, 0
XKQ, 23461082, 0, 0.9993575, 0.02012993, -0.02443278, 0.01680876
XKF4, 23461082, 1, 0, 0, 0, 0, 0, 0.01170442, 0, 0, 0, 50, 65703, 0, 0
XKF1, 23461082, 1, 2.09, 0.26, 2.14, -0.02665599, 0.07497389, -0.06018554, 0.0009794234, 0, 0, -0.3981242, 0.04, -0.01, 0, 0
XKF2, 23461082, 1, 0, 0, -0.05, 0, 0, 0, 0, 0, 0, 0, 0, 0, 0, 0
XKF3, 23461082, 1, 0, 0, 0, -0.04, 0.1, -0.05, 0, 0, 0, 0, 0, 0, 0
XKFS, 23461082, 1, 0, 0, 0, 0, 0, 0, 0, 0
XKQ, 23461082, 1, 0.9989499, 0.03820461, -0.01629102, 0.01933904
AHR2, 23461735, -0.07, -1.07, 0.68, 0.29, 0, 0, 0.9999357, -0.0006121733, -0.009391923, 0.006319685
PIDS, 23461740, 0, 0, 0, 0, 0, 0, 0, 0, 0, 0, 0
PIDA, 23461744, 0, 0, 0, 0, 0, 0, 0, 0, 0, 0, 0
IMU, 23461748, 0, 0.0009180214, -0.008483496, -0.0006010506, -0.4455333, -0.3578095, -9.762129, 0, 0, 44.32367, 1, 1, 1976, 1976
IMU, 23461748, 1, 0.002018142, -7.285439E-05, 7.634243E-05, -0.3535494, -0.7129581, -9.852072, 0, 0, 42.5, 1, 1, 2004, 2019
ATT, 23481662, 0, 0.01578563, 0, -0.6217587, 0, 1.8701, 3
XKF4, 23481188, 0, 0, 0, 0.04, 0, 0, 0.01121576, 0, 0, 0, 50, 65703, 0, 0
XKF1, 23481188, 0, 0.01, -0.62, 1.87, 0.09101696, 0.07998427, -0.2312167, 0.04583014, 0, 0, -0.7827576, 0.01, -0.41, -0.02, 0
XKF2, 23481188, 0, 0, 0, 0.06, 0, 0, 0, 0, 0, 0, 0, 0, 0, 0, 0
XKF3, 23481188, 0, 0, 0, 0, 0.11, 0.1, -0.43, 0, 0, 0, 0, 0, 0, 0
XKF5, 23481188, 0, 0, 0, 0, 0, 1.13, 0.36, 0, 0, 0.5, 1.892536E-05, 0.01060405, 0.0228845
XKFS, 23481188, 0, 0, 0, 0, 0, 0, 0, 0, 0
XKQ, 23481188, 0, 0.9993573, 0.02013045, -0.02444385, 0.01679964
XKF4, 23481188, 1, 0, 0, 0, 0, 0, 0.0117313, 0, 0, 0, 50, 65703, 0, 0
XKF1, 23481188, 1, 2.09, 0.26, 2.14, -0.02679754, 0.07535571, -0.05989058, -0.0007361239, 0, 0, -0.3982861, 0.04, -0.01, 0, 0
XKF2, 23481188, 1, 0, 0, -0.05, 0, 0, 0, 0, 0, 0, 0, 0, 0, 0, 0
XKF3, 23481188, 1, 0, 0, 0, -0.04, 0.1, -0.05, 0, 0, 0, 0, 0, 0, 0
XKFS, 23481188, 1, 0, 0, 0, 0, 0, 0, 0, 0
XKQ, 23481188, 1, 0.9989493, 0.03822041, -0.01628545, 0.01934236
AHR2, 23481746, -0.07, -1.08, 0.67, 0.29, 0, 0, 0.9999353, -0.000611133, -0.009448931, 0.006303736
PIDS, 23481764, 0, 0, 0, 0, 0, 0, 0, 0, 0, 0, 0
PIDA, 23481768, 0, 0, 0, 0, 0, 0, 0, 0, 0, 0, 0
IMU, 23481772, 0, 0.0008315364, -0.008432627, -0.0006247569, -0.4433928, -0.357713, -9.763387, 0, 0, 44.80676, 1, 1, 1976, 1976
IMU, 23481772, 1, 0.001954013, -0.0003288793, 9.779401E-05, -0.3409581, -0.7188966, -9.841513, 0, 0, 42.5, 1, 1, 2004, 2019
ISBD, 23482933, 0, 16, [0 0 1 2 0 1 1 0 0 0 1 1 0 1 1 0 0 0 -1 2 3 1 4 1 0 3 2 0 2 2 1 1], [-6 -8 -14 -9 -4 -5 -5 -8 -9 -8 -7 -7 -6 -7 -8 -7 -8 -12 -12 -9 -9 -10 -10 -8 -7 -8 -8 -7 -9 -9 -7 -7], [0 0 0 -1 -2 -1 0 -1 0 0 -1 0 0 -1 -1 0 0 -1 0 0 -2 -2 -1 -1 0 0 0 0 0 0 0 -1]
ATT, 23501643, 0, 0.01647271, 0, -0.6235446, 0, 1.868929, 3
XKF4, 23501139, 0, 0, 0, 0.04, 0, 0, 0.0112428, 0, 0, 0, 50, 65703, 0, 0
XKF1, 23501139, 0, 0.01, -0.62, 1.86, 0.09199214, 0.08082896, -0.2306917, 0.04460899, 0, 0, -0.7825297, 0.01, -0.41, -0.02, 0
XKF2, 23501139, 0, 0, 0, 0.06, 0, 0, 0, 0, 0, 0, 0, 0, 0, 0, 0
XKF3, 23501139, 0, 0, 0, 0, 0.11, 0.1, -0.43, 0, 0, 0, 0, 0, 0, 0
XKF5, 23501139, 0, 0, 0, 0, 0, 1.14, 0.36, 0, 0, 0.5, 1.914056E-05, 0.011378, 0.02717597
XKFS, 23501139, 0, 0, 0, 0, 0, 0, 0, 0, 0
XKQ, 23501139, 0, 0.999357, 0.02013644, -0.02445953, 0.01678988
