TimeUS,GyrX,GyrY,GyrZ,AccX,AccY,AccZ
23906234,0.003900765,-0.001054333,-3.616797e-06,-0.3213449,-0.7015502,-9.810127
23926311,0.003738777,-0.001403518,0.000142497,-0.3210211,-0.7014762,-9.817644
23945889,0.003853605,-0.001434011,0.0002074616,-0.3156914,-0.6999531,-9.814856
23965924,0.003949516,-0.001025599,0.0003747512,-0.3182031,-0.696323,-9.821029
23985877,0.004297227,-0.0008462526,0.0003633141,-0.314434,-0.6878521,-9.821909
24005988,0.004403173,-0.001190082,0.0002954944,-0.3168693,-0.6841675,-9.836193
24026496,0.004352097,-0.001510361,0.0002349336,-0.325769,-0.694661,-9.837101
24045897,0.004393752,-0.001942942,0.0001455975,-0.3368222,-0.6994848,-9.840144
24065980,0.004234553,-0.00215247,-4.712964e-05,-0.3270995,-0.7037584,-9.828578
24085925,0.003856722,-0.002145837,-0.0001304533,-0.3144256,-0.702524,-9.830652
24105928,0.003953163,-0.002048192,-0.0001945839,-0.3193769,-0.7002408,-9.825677
24126343,0.00407482,-0.001991888,3.22899e-06,-0.328094,-0.6932493,-9.822408
24145935,0.004071304,-0.002118758,0.0002505823,-0.3225099,-0.6960754,-9.811887
24165987,0.004048983,-0.00231525,0.0003015836,-0.323579,-0.6915445,-9.8181
24186093,0.004319775,-0.002540936,0.0004127259,-0.3195172,-0.6922069,-9.818677
24205930,0.004578156,-0.002483728,0.0003222786,-0.3227825,-0.6942911,-9.825605
24226348,0.004491468,-0.002535196,0.0002615195,-0.3302214,-0.697129,-9.837193
24245882,0.004125914,-0.002090956,0.0002921207,-0.328311,-0.7012135,-9.828391
24265987,0.004112735,-0.002173593,0.0002155536,-0.3285744,-0.7043126,-9.825609
24285887,0.003814352,-0.002182551,3.735943e-05,-0.3239939,-0.7093832,-9.817686
24305914,0.003685689,-0.002026107,-0.0002688988,-0.3192807,-0.7068745,-9.808351
24326331,0.003635503,-0.002082758,-0.0003920079,-0.3180493,-0.7075868,-9.819762
24346182,0.003612696,-0.002123706,-0.0004513735,-0.3197058,-0.7065455,-9.84076
24365925,0.003760752,-0.001862077,-0.0004913001,-0.3171253,-0.707912,-9.834196
24385903,0.003949371,-0.001735015,-0.0004329452,-0.3197802,-0.7005617,-9.814984
24405972,0.004041592,-0.001627978,-0.0004353261,-0.318002,-0.6980765,-9.81481
24426328,0.004337709,-0.00174497,-0.0004477941,-0.3101656,-0.7018014,-9.819106
24445904,0.00454903,-0.00152326,-0.0005299299,-0.3212293,-0.6956499,-9.828734
24465935,0.0046448,-0.001322224,-0.0003694211,-0.3151339,-0.6982338,-9.840416
24485908,0.004733271,-0.001203445,-0.0001150544,-0.31878,-0.6997869,-9.837329
24506130,0.004947726,-0.001591311,-2.214837e-05,-0.3236355,-0.6955243,-9.837879
24526304,0.004942492,-0.002139237,-7.335353e-05,-0.3179925,-0.6949083,-9.834997
24545931,0.004501263,-0.002639714,-8.657105e-05,-0.3150214,-0.6917155,-9.831232
24565920,0.004092275,-0.002899359,0.0001361331,-0.3181073,-0.70147,-9.824467
24585910,0.00396233,-0.002941713,0.000271943,-0.3227131,-0.7064081,-9.816977
24605958,0.003709652,-0.002921142,0.000279085,-0.3160733,-0.6986842,-9.816652
24626373,0.003763785,-0.003227295,0.0001854813,-0.316851,-0.6974134,-9.827838
24645881,0.004147872,-0.003566841,6.628711e-05,-0.3199397,-0.6931014,-9.832949
24666164,0.004313661,-0.003120948,-3.818551e-06,-0.3196991,-0.7020998,-9.82146
24685885,0.004130205,-0.002770208,8.130562e-06,-0.319759,-0.7026519,-9.827527
24705897,0.003871885,-0.002683107,0.0001294625,-0.3197243,-0.6955284,-9.817411
24726306,0.003614992,-0.002467875,0.0001014504,-0.3278614,-0.6976007,-9.828651
24745913,0.003302473,-0.002179508,0.0002265251,-0.325169,-0.7029864,-9.836851
24765922,0.003530577,-0.001931815,0.0003069809,-0.3246332,-0.7038145,-9.83858
24785923,0.003786887,-0.001493521,0.0002667283,-0.3130459,-0.701278,-9.83692
24805962,0.00407248,-0.001008107,0.0002889813,-0.308125,-0.7107729,-9.83318
24826494,0.004508279,-0.001057956,0.000446313,-0.3174319,-0.7121753,-9.822787
24845888,0.004885335,-0.001698295,0.0004716196,-0.3162052,-0.7027171,-9.821304
24865998,0.004783053,-0.001978274,0.0004130353,-0.3161543,-0.6980301,-9.831107
24885907,0.004380303,-0.00190604,0.0002491559,-0.3074713,-0.6988138,-9.829851
24905942,0.003799289,-0.001658752,6.453635e-05,-0.3045116,-0.7011913,-9.830661
24926306,0.003486913,-0.001597146,-0.0001686262,-0.3132109,-0.697315,-9.824258
24945962,0.003191559,-0.001398158,-0.0003095129,-0.3180536,-0.7002188,-9.822895
24965964,0.003009338,-0.001609863,-0.0002806306,-0.3167172,-0.7018309,-9.819956
24986211,0.002783423,-0.001427525,-0.0001268237,-0.3152242,-0.7021914,-9.814022
25005943,0.002851233,-0.001211269,-3.1819e-05,-0.3202654,-0.7075797,-9.817325
25026364,0.002912017,-0.0007838008,-8.069178e-05,-0.3159975,-0.7074972,-9.828393
25045886,0.003070493,-0.0006366287,-0.0002163987,-0.3168471,-0.7107045,-9.824122
25065920,0.003621239,-0.001101289,-0.0002444376,-0.3161959,-0.705022,-9.81449
25085887,0.004129499,-0.001359784,-0.0001253366,-0.3221599,-0.702137,-9.823312
25105910,0.004275097,-0.001028297,-3.894252e-05,-0.3194919,-0.7019076,-9.825877
25126367,0.004427835,-0.0006516257,0.0001242402,-0.3223811,-0.7045155,-9.822497
25146082,0.004652124,-0.0007126492,0.0001999826,-0.3243866,-0.7056138,-9.816545
25165911,0.004818482,-0.001365894,0.0002456043,-0.3218577,-0.7067109,-9.832688
25185929,0.004569554,-0.00154267,0.0004064215,-0.3207354,-0.7112008,-9.841753
25205927,0.00446473,-0.001550321,0.0004855348,-0.3185576,-0.7096993,-9.840484
25226359,0.004564377,-0.001469821,0.0004174146,-0.3204315,-0.7060766,-9.837086
25245895,0.004461274,-0.001584109,0.0004295646,-0.3176022,-0.712394,-9.836067
25265985,0.004203713,-0.002044732,0.0003652587,-0.3102839,-0.7161626,-9.847596
25285899,0.003675437,-0.002353376,0.000169851,-0.3128268,-0.7130283,-9.850177
25306233,0.003264921,-0.002540072,0.0001766237,-0.3146392,-0.7140532,-9.847396
25326383,0.003171187,-0.002514797,0.000164141,-0.3210125,-0.7103124,-9.84328
25345882,0.003146122,-0.002397951,0.000226914,-0.32058,-0.70432,-9.838225
25365917,0.002957806,-0.002450707,0.0003934014,-0.3152883,-0.7089621,-9.833006
25385955,0.002625309,-0.002119921,0.0005586366,-0.3114578,-0.7118229,-9.825861
25405895,0.00243126,-0.001513264,0.0005971531,-0.3156412,-0.7152963,-9.819673
25426373,0.002811949,-0.001250419,0.0004732696,-0.3197128,-0.7154489,-9.818098
25445898,0.003131708,-0.001160225,0.0003993579,-0.3248326,-0.7070473,-9.827119
25466205,0.003204257,-0.001083488,0.0004124851,-0.3252481,-0.7088316,-9.815906
25485908,0.003317043,-0.001284684,0.0005193881,-0.3179388,-0.7057082,-9.821462
25505922,0.003455511,-0.001729268,0.0004233076,-0.3125688,-0.7087768,-9.832644
25526309,0.003565024,-0.001879754,0.0004360437,-0.306766,-0.7102744,-9.834483
25545934,0.003735178,-0.001985599,0.0003276926,-0.2998649,-0.7084733,-9.851114
25565975,0.00348549,-0.002127325,0.0003222782,-0.3122487,-0.7039458,-9.848629
25585882,0.003430474,-0.002194033,0.0002174438,-0.3185252,-0.7092988,-9.839907
25605943,0.003334323,-0.002099059,0.0001670134,-0.3134761,-0.7114847,-9.842625
25626498,0.003283695,-0.001828234,0.0001289081,-0.3135998,-0.7059675,-9.842692
25645938,0.003587648,-0.001407482,0.0001104174,-0.3143841,-0.7133808,-9.835329
25665975,0.003664236,-0.001026237,5.819695e-05,-0.3154751,-0.7081929,-9.837983
25685930,0.003755351,-0.001343862,4.628297e-05,-0.3159027,-0.7107025,-9.831776
25705935,0.00411611,-0.002206889,-7.365007e-05,-0.3201362,-0.7104013,-9.830665
25726302,0.004440105,-0.002736931,-0.0002796537,-0.3304578,-0.7075382,-9.837368
25745935,0.004457388,-0.002776834,-0.0002807346,-0.3269562,-0.7083989,-9.834864
25765974,0.00407866,-0.002239169,-0.0001713593,-0.3157642,-0.7123148,-9.832354
25786188,0.004076965,-0.00202282,-0.0003206251,-0.3034942,-0.7106938,-9.846841
25805916,0.003848289,-0.002411347,-0.0003758921,-0.2971093,-0.7078395,-9.839419
25826341,0.003680926,-0.002256723,-0.0003936636,-0.3100302,-0.7068248,-9.836247
25845901,0.003361678,-0.002213955,-0.0001753388,-0.3149381,-0.7040726,-9.832998
25865964,0.003370162,-0.001797677,6.70924e-05,-0.319746,-0.7070195,-9.835582
25885969,0.003471415,-0.001452185,0.0002160181,-0.3185739,-0.712503,-9.835857
25905952,0.003708246,-0.001164102,0.0002033299,-0.3076311,-0.7168561,-9.843471
25926299,0.003629044,-0.001033448,0.0001268148,-0.3129585,-0.7111338,-9.855168
25946174,0.003450321,-0.0007926793,0.0001681553,-0.3220702,-0.7074926,-9.850289
25965984,0.00337664,-0.001188542,9.517773e-05,-0.304913,-0.7130723,-9.853615
25985893,0.003263721,-0.001496478,0.0001108454,-0.3041552,-0.7103609,-9.855664
26005905,0.00329225,-0.001819536,0.0001909198,-0.3112127,-0.7124451,-9.831691
26026342,0.003549931,-0.002112386,0.000181486,-0.3161764,-0.7150159,-9.828429
26045921,0.003569279,-0.002093375,0.0004199979,-0.3133653,-0.7154988,-9.827722
26066041,0.003294458,-0.001813708,0.000512302,-0.3082436,-0.7153332,-9.826409
26085941,0.003248113,-0.001822037,0.0004647679,-0.305171,-0.7171328,-9.826612
26106122,0.003301939,-0.001806386,0.0002461394,-0.3124648,-0.7181776,-9.83535
26126301,0.003319579,-0.00115086,0.0002488577,-0.3240334,-0.7163893,-9.843666
26145903,0.003301657,-0.001135655,0.000177988,-0.3223043,-0.7101306,-9.84372
26165944,0.003302203,-0.001314285,0.0003456248,-0.3024263,-0.7093053,-9.838591
26185921,0.003555937,-0.001912763,0.0002127634,-0.3055848,-0.7100857,-9.833038
26205957,0.003877128,-0.002311359,0.0001985049,-0.3096483,-0.7107608,-9.828178
26226339,0.004394904,-0.002140981,0.0001553898,-0.3121733,-0.7149734,-9.821589
26245898,0.004616729,-0.002442289,2.272003e-05,-0.3208695,-0.7153674,-9.835206
26266199,0.004669793,-0.002799435,-3.751729e-05,-0.3176169,-0.7145611,-9.845265
26285933,0.004525001,-0.002986012,-4.351069e-05,-0.3155985,-0.7139702,-9.841263
26305979,0.004614557,-0.003138294,-7.611029e-05,-0.3121452,-0.7164574,-9.832984
26326352,0.004363124,-0.003170996,-0.0001473263,-0.3147251,-0.7222373,-9.829703
26345949,0.004351341,-0.003201999,-3.615842e-05,-0.3142727,-0.7266442,-9.83633
26365924,0.004187915,-0.003371608,0.0003471053,-0.3133222,-0.7219519,-9.85067
26385941,0.003813948,-0.00355471,0.0004189051,-0.3268075,-0.7139893,-9.853859
26405984,0.003738819,-0.003434886,0.0002955519,-0.3085427,-0.7173564,-9.849275
26426528,0.003358376,-0.002797007,0.0002448733,-0.3074444,-0.7159555,-9.856269
26445927,0.003114523,-0.002528379,0.0002001411,-0.3137709,-0.7108361,-9.858963
26465933,0.00281117,-0.002213012,4.756409e-05,-0.3184015,-0.7092922,-9.847409
26485893,0.002559197,-0.001760536,8.790711e-05,-0.3217961,-0.7123724,-9.83624
26505916,0.002776724,-0.001172694,0.000344039,-0.3141249,-0.7192054,-9.844152
26526296,0.002832995,-0.00056861,0.0005641833,-0.3137878,-0.7182859,-9.84444
26545906,0.003011555,-0.0003816802,0.0007240165,-0.3112306,-0.7195603,-9.84731
26566017,0.003131126,-0.000498365,0.0008118992,-0.3148374,-0.7211861,-9.844951
26586146,0.003437933,-0.0004699087,0.0007189914,-0.3160322,-0.7173327,-9.842967
26605914,0.003841483,-0.0007335036,0.000604995,-0.3161032,-0.7165751,-9.845493
26626328,0.004124825,-0.0009852051,0.0003897144,-0.3056312,-0.7190741,-9.843666
26645919,0.004249091,-0.001162945,0.0004320176,-0.308122,-0.7224891,-9.846068
26665926,0.004193813,-0.001328215,0.0005603547,-0.3166561,-0.7176474,-9.838585
26685977,0.004030528,-0.001419995,0.0006950136,-0.3260727,-0.716081,-9.831634
26705930,0.003875122,-0.001694818,0.0007428013,-0.3178473,-0.7114715,-9.829491
26726353,0.003680983,-0.001854828,0.0007916574,-0.3080699,-0.7101044,-9.839474
26746155,0.003477493,-0.002551539,0.0006003277,-0.30306,-0.7136496,-9.839088
26765949,0.003252832,-0.002571993,0.0002110678,-0.3034215,-0.7185692,-9.849113
26785886,0.002863543,-0.001946774,0.0001792862,-0.306219,-0.7140598,-9.858243
26805951,0.002970403,-0.001549449,0.0002487949,-0.3122371,-0.7102259,-9.848549
26826336,0.003404326,-0.001643819,0.0002546267,-0.3147098,-0.7164237,-9.849239
26845923,0.003932049,-0.001946589,0.0003175969,-0.3140942,-0.7208515,-9.851615
26865980,0.004406128,-0.001759731,0.0002629957,-0.3132081,-0.7177662,-9.847795
26885893,0.004726812,-0.001719354,9.007222e-05,-0.3109743,-0.7223428,-9.838427
26906196,0.004638887,-0.002187798,8.034437e-05,-0.3180006,-0.7204694,-9.834729
26926319,0.004584533,-0.002623633,9.420067e-05,-0.3153091,-0.7221089,-9.842544
26945938,0.004646704,-0.00310805,9.380893e-05,-0.3077395,-0.7190097,-9.834081
26965912,0.004674781,-0.003902792,0.0001213673,-0.3146016,-0.7185923,-9.832016
26985896,0.004523891,-0.003684389,0.0004007937,-0.3196599,-0.7169942,-9.83179
27005937,0.00407178,-0.002909769,0.0004630958,-0.3187609,-0.7145693,-9.837986
27026318,0.003713512,-0.002673847,0.0005502015,-0.3224541,-0.7163418,-9.847065
27045864,0.003875714,-0.002702066,0.0004375023,-0.3177668,-0.7212194,-9.845987
27066198,0.00416196,-0.002819439,0.000246688,-0.3128061,-0.721047,-9.843456
27085976,0.004432453,-0.002888595,0.0001196852,-0.3086805,-0.7261216,-9.845532
27105899,0.004557446,-0.003057321,0.0003518401,-0.3130765,-0.7186382,-9.857603
27126346,0.004713499,-0.003229391,0.0005366965,-0.3178453,-0.7175949,-9.857305
27145947,0.004628323,-0.002951132,0.0005421884,-0.3174579,-0.716173,-9.843508
27165974,0.004239606,-0.002323551,0.0004717232,-0.3002995,-0.719993,-9.832282
27185954,0.004143095,-0.001817456,0.0005375036,-0.2979525,-0.7213141,-9.844679
27205913,0.004048028,-0.001692242,0.0006614639,-0.2987069,-0.7204267,-9.854092
27226463,0.004045151,-0.002042841,0.0006530109,-0.3013461,-0.7210846,-9.851017
27245940,0.004296707,-0.002124237,0.0004578003,-0.3066128,-0.7254045,-9.84417
27265981,0.004386086,-0.001715498,0.000460715,-0.3025781,-0.7258794,-9.844991
27285878,0.004638964,-0.001386397,0.0002786119,-0.3119949,-0.7309387,-9.847808
27305902,0.00481089,-0.0009376349,0.000110122,-0.323373,-0.7200071,-9.859743
27326352,0.004839307,-0.0008502019,3.466865e-05,-0.3258829,-0.7175481,-9.860762
27345878,0.004833436,-0.001141836,3.125328e-05,-0.3129679,-0.7170984,-9.854821
27365977,0.004610077,-0.00136849,-5.142472e-05,-0.3089224,-0.7165223,-9.846242
27386230,0.004310124,-0.001693237,4.432171e-05,-0.3152494,-0.7199998,-9.839196
27405945,0.004110098,-0.002012526,-4.658495e-06,-0.3264472,-0.7180539,-9.851293
27426299,0.003814032,-0.001579872,1.861356e-05,-0.325888,-0.7190971,-9.849798
27445946,0.003570624,-0.001077715,0.0001233544,-0.3099246,-0.7171565,-9.851659
27465973,0.003735491,-0.0006262379,0.0001135845,-0.3095369,-0.7180529,-9.857285
27485902,0.003895433,-0.0006833441,5.018146e-05,-0.311823,-0.7253092,-9.856626
27505886,0.00416826,-0.0006668147,4.002855e-05,-0.3117108,-0.7222338,-9.84982
27526329,0.004179503,-0.0006396142,-4.635114e-06,-0.308823,-0.7174001,-9.850296
27546185,0.004110598,-0.0005410056,6.938635e-05,-0.3087533,-0.7161275,-9.850476
27565942,0.00407883,-0.0006788499,0.0002003455,-0.3112789,-0.7174855,-9.847173
27585896,0.004155895,-0.001365204,2.87723e-06,-0.3137883,-0.7205516,-9.849768
27605976,0.004380686,-0.002210658,5.487193e-05,-0.3173023,-0.725243,-9.860867
27626314,0.004361774,-0.002797628,0.0001458762,-0.3101664,-0.7202671,-9.864897
27645945,0.004165954,-0.002653956,0.0003654082,-0.3153157,-0.7199132,-9.85525
27665944,0.004039656,-0.002557168,0.0005939039,-0.3110341,-0.7251714,-9.848537
27685930,0.003994754,-0.002648112,0.0008223331,-0.307196,-0.725988,-9.841511
27706172,0.004081978,-0.003007949,0.001024153,-0.3117755,-0.7262599,-9.834066
27726320,0.004313401,-0.003296613,0.001028785,-0.3075459,-0.7258521,-9.836983
27745886,0.004595273,-0.003155863,0.0008807358,-0.3073671,-0.7253236,-9.841433
27765926,0.004819409,-0.002977751,0.000828759,-0.3180851,-0.7256544,-9.841206
27785933,0.004762618,-0.00202521,0.000600638,-0.320036,-0.7289168,-9.844653
27805965,0.004615199,-0.001786787,0.0004912782,-0.3181351,-0.7283924,-9.844761
27826324,0.004445634,-0.001675965,0.0003443186,-0.3204998,-0.7282657,-9.843072
27845913,0.004235735,-0.001589465,0.0002315145,-0.3179464,-0.7265293,-9.83965
27866139,0.004027174,-0.001903529,0.00026525,-0.3121505,-0.7186751,-9.851466
27885866,0.004348076,-0.002404064,0.0002369512,-0.3100618,-0.7244679,-9.848028
27905972,0.004372619,-0.001962242,0.0001211686,-0.3145959,-0.7259043,-9.85067
27926335,0.0045531,-0.001845527,-6.344135e-05,-0.3207119,-0.7254422,-9.849299
27945882,0.004392399,-0.001353841,-2.817748e-05,-0.3251495,-0.7204919,-9.854538
27965939,0.004082336,-0.001206075,0.0001141679,-0.324102,-0.7202643,-9.848625
27985885,0.004191375,-0.001494791,0.0002575163,-0.322394,-0.7286448,-9.843869
28005919,0.00455121,-0.002328262,0.0002030923,-0.3199222,-0.7280743,-9.843751
28026514,0.004435741,-0.002701837,0.0002478696,-0.3071709,-0.7249547,-9.850396
28045909,0.004402163,-0.002686158,0.0002334924,-0.3049085,-0.7225998,-9.832757
28065917,0.004533018,-0.002984372,9.278358e-05,-0.3085004,-0.7229172,-9.835731
28085956,0.00457215,-0.002808489,3.874633e-06,-0.3079148,-0.7241371,-9.846074
28105979,0.004341118,-0.00239499,-2.435654e-05,-0.3148631,-0.7236945,-9.847901
28126364,0.00421687,-0.001593198,-4.767323e-05,-0.3114538,-0.7263578,-9.851258
28145870,0.003751675,-0.0009449084,-8.959487e-05,-0.3051408,-0.7226699,-9.855297
28165989,0.003459492,-0.0005756273,-0.0001904274,-0.3017549,-0.7222368,-9.852886
28186089,0.003491717,-7.544246e-05,-3.828894e-05,-0.3145848,-0.717555,-9.851706
28205951,0.003497035,0.0001544269,-9.02992e-05,-0.3152244,-0.7205617,-9.85077
28226356,0.003335342,-0.0002459978,-1.289035e-05,-0.3086746,-0.7206236,-9.839733
28245897,0.00325856,-0.0008296369,0.0001256258,-0.312941,-0.725074,-9.840485
28266029,0.003171983,-0.0009046177,0.0001832051,-0.3133659,-0.7260557,-9.841091
28285956,0.003275848,-0.0007258787,7.410094e-05,-0.3123986,-0.7283285,-9.848083
28305914,0.003706803,-0.0007067947,-3.661939e-05,-0.3164976,-0.7266576,-9.851505
28326356,0.004006311,-0.001078501,6.652448e-05,-0.329495,-0.7229472,-9.856665
28346032,0.003726155,-0.001436604,0.0002393834,-0.3238893,-0.7175741,-9.86053
28365919,0.003662987,-0.001744428,0.0002782471,-0.3071348,-0.721285,-9.860335
28385939,0.004065063,-0.001583334,0.0003529786,-0.3133727,-0.7206311,-9.859506
28405951,0.004514514,-0.001709874,0.0002939249,-0.3190659,-0.7234844,-9.848706
28426317,0.004659342,-0.001848909,8.950548e-05,-0.3168674,-0.7238944,-9.841523
28445908,0.004418849,-0.002244116,-0.0001167224,-0.3135501,-0.7165834,-9.846788
28465966,0.004264033,-0.002495056,-0.000125761,-0.3101713,-0.7197085,-9.840625
28485931,0.004241323,-0.002134301,-0.0002177533,-0.3139676,-0.7147664,-9.840289
28506120,0.004432437,-0.001600358,-0.0001869922,-0.3179225,-0.7118965,-9.843385
28526306,0.004658397,-0.001078047,-0.0001379317,-0.322086,-0.7156556,-9.844075
28545905,0.004657096,-0.0005848426,-4.878492e-05,-0.3163007,-0.7226111,-9.842603
28565989,0.004155985,-0.0006970612,4.794637e-05,-0.3186056,-0.7234904,-9.841451
28585957,0.004000862,-0.0008682443,4.986264e-05,-0.3283064,-0.7242594,-9.848802
28605940,0.004009011,-0.0006125055,-6.60076e-05,-0.3303451,-0.7228376,-9.847259
28626315,0.003888873,-0.0007127459,2.084419e-05,-0.326579,-0.7203302,-9.85042
28645859,0.003653037,-0.001039851,-8.867174e-06,-0.3240722,-0.7244567,-9.846693
28666221,0.003694088,-0.001520791,-4.88306e-05,-0.3208625,-0.7176605,-9.845997
28685913,0.003489786,-0.001435952,-0.0002050657,-0.3189169,-0.7121375,-9.847171
28705957,0.003536903,-0.001415901,-0.0001745417,-0.308251,-0.7191028,-9.841425
28726330,0.00391605,-0.001748681,-0.0002665744,-0.3135201,-0.7244067,-9.837965
28745927,0.004214192,-0.001740216,-0.0004222381,-0.3156945,-0.7283078,-9.847795
28765976,0.004102367,-0.001398192,-0.0005718113,-0.313343,-0.7293831,-9.848807
28785946,0.003706246,-0.001033325,-0.0005467702,-0.3203042,-0.7238281,-9.848255
28805891,0.003238957,-0.001069497,-0.000426391,-0.3197746,-0.7204764,-9.840088
28826517,0.002771787,-0.001197635,-0.0001384228,-0.3152741,-0.7197844,-9.840682
28845878,0.002646105,-0.001024664,-5.783204e-06,-0.3161105,-0.7258948,-9.842207
28865982,0.002739546,-0.00100574,0.0001136199,-0.3193128,-0.7253318,-9.839919
28885933,0.003015184,-0.0009863388,0.000203256,-0.32354,-0.7229427,-9.840796
28905961,0.002894407,-0.0004563308,0.0003507774,-0.3172278,-0.7188799,-9.842124
28926329,0.002666665,-0.000272672,0.000482473,-0.3246544,-0.7144306,-9.847065
28945888,0.002972518,-0.0006180144,0.0004823234,-0.3380623,-0.7166135,-9.843534
28965967,0.003714974,-0.001198741,0.0003819951,-0.3245673,-0.7184871,-9.832016
28986118,0.004238517,-0.001360764,0.0004318738,-0.3169844,-0.7152562,-9.839957
29005952,0.00432655,-0.001317246,0.0005982169,-0.3231058,-0.7154445,-9.85345
29026315,0.004358385,-0.00129418,0.0005268196,-0.3155488,-0.7239591,-9.851742
29045906,0.004258458,-0.0008530192,0.000431264,-0.3140658,-0.7236818,-9.848546
29065913,0.004200919,-0.00110855,0.0003086924,-0.3178594,-0.7168519,-9.852771
29085939,0.004310953,-0.001350585,7.368356e-05,-0.3351946,-0.722478,-9.858867
29105898,0.004627058,-0.001526263,9.613911e-05,-0.3316779,-0.7236118,-9.855157
29126326,0.004837047,-0.001313763,0.0001520188,-0.3299406,-0.7201991,-9.86286
29146131,0.00496429,-0.0008763638,-6.732189e-05,-0.3263398,-0.7211437,-9.860194
29165996,0.004720022,-0.0004616238,-0.0001870981,-0.3201101,-0.725278,-9.855916
29185934,0.00438403,-0.0001688193,-4.42264e-05,-0.3120751,-0.7260257,-9.849748
29205901,0.004495785,-0.0007104325,1.913112e-05,-0.3091797,-0.722975,-9.843008
29226297,0.004042996,-0.0010484,-2.613684e-05,-0.3096747,-0.7255644,-9.839217
29245873,0.003723211,-0.001141478,6.423391e-05,-0.3165795,-0.7213356,-9.837794
29265912,0.003650962,-0.001439467,0.0001898114,-0.3102448,-0.7184844,-9.839593
29285934,0.003493213,-0.001658672,0.0002535783,-0.314569,-0.7154529,-9.843314
29306135,0.003331746,-0.001881846,0.0004694729,-0.3200951,-0.7155728,-9.842237
29326313,0.00347083,-0.001447822,0.0003774097,-0.3211331,-0.7188377,-9.836856
29345919,0.003560746,-0.001266788,0.0002295839,-0.3233518,-0.7215213,-9.831676
29365982,0.003480915,-0.001338016,0.0002254718,-0.3153867,-0.7215105,-9.828253
29385939,0.003642091,-0.001578015,7.351967e-05,-0.3186088,-0.715413,-9.831344
29405929,0.003857807,-0.001942715,-0.0001494893,-0.3254172,-0.7184941,-9.836181
29426320,0.00417037,-0.001955954,-0.0002985104,-0.3294657,-0.7204337,-9.840914
29445910,0.004183414,-0.001869094,-0.0003946985,-0.3374461,-0.7141741,-9.847939
29466194,0.00414517,-0.002153141,-0.0004258341,-0.3301818,-0.7071969,-9.846922
29485934,0.004371899,-0.001903158,-0.0005494686,-0.3171419,-0.7163443,-9.841647
29505936,0.004678445,-0.001721162,-0.0004364403,-0.3193027,-0.7179921,-9.843715
29526311,0.004823432,-0.001599691,-0.0003501745,-0.3237332,-0.718417,-9.843802
29545898,0.004794611,-0.001294677,-0.0002477423,-0.3233485,-0.7158365,-9.844244
29565934,0.00483175,-0.00104434,-5.849317e-05,-0.3227819,-0.715304,-9.857181
29585976,0.004676498,-0.0009105037,-3.784365e-05,-0.3145669,-0.7198253,-9.8504
29605983,0.004562306,-0.0006101988,-0.0001507445,-0.3165895,-0.7223701,-9.842054
29626523,0.004411682,-0.0002515135,-8.584154e-05,-0.3124469,-0.7157767,-9.83733
29645895,0.003990951,-0.0002361606,-0.0001335111,-0.3264096,-0.7145965,-9.838916
29665930,0.003442604,0.000217759,-0.0001141283,-0.318095,-0.7156738,-9.845929
29685936,0.002903265,0.000491575,-9.839581e-05,-0.3129587,-0.7204067,-9.84446
29705916,0.002586706,0.0006993124,2.22734e-05,-0.3099771,-0.7185938,-9.842534
29726300,0.002632819,5.629475e-05,0.000147403,-0.3254204,-0.717125,-9.856337
29745902,0.002999339,-0.000381362,0.0002457277,-0.3289011,-0.7174907,-9.866451
29765973,0.003351327,-9.759794e-05,0.0002497164,-0.3259158,-0.7204337,-9.853645
29786111,0.003746994,-3.5275e-05,0.000122217,-0.3177566,-0.7155687,-9.83453
29805926,0.003952183,-0.0001752553,-2.600086e-05,-0.3148001,-0.7074013,-9.84002
29826351,0.003890331,-0.0004028724,-1.458987e-05,-0.3155098,-0.7057799,-9.8453
29845909,0.003962471,-0.001227748,6.339631e-05,-0.3164465,-0.7078561,-9.844648
29865966,0.004040038,-0.001707272,0.0002861142,-0.3107803,-0.7104944,-9.841702
29885990,0.003904815,-0.00228287,0.0002337303,-0.3126654,-0.7162793,-9.837963
29905961,0.004128901,-0.002620925,9.253813e-05,-0.3166495,-0.719623,-9.839704
29926292,0.004464937,-0.003106126,-5.052671e-05,-0.3157135,-0.714326,-9.840911
29946113,0.004295103,-0.002901897,-8.039349e-05,-0.3079904,-0.7167969,-9.838502
29965967,0.004365942,-0.002196768,-0.0001585311,-0.3125733,-0.717041,-9.835947
29985911,0.004604489,-0.00181771,-0.0001517242,-0.3193846,-0.7093582,-9.841475
30005945,0.004566662,-0.001658802,-0.0001912385,-0.3236689,-0.7061492,-9.837859
30026324,0.004281783,-0.001559924,-0.0003425248,-0.3275636,-0.7023397,-9.838284
30045962,0.004087952,-0.001814335,-0.0003493114,-0.3238937,-0.7058553,-9.835329
30065971,0.00419824,-0.00214349,-0.0003294043,-0.3175874,-0.7126879,-9.830883
30085890,0.004551841,-0.002226401,-9.231699e-05,-0.3213956,-0.71288,-9.835184
30106117,0.004776518,-0.002254198,0.000333695,-0.3268047,-0.7131189,-9.834441
30126322,0.004998571,-0.002056021,0.0004708262,-0.3221872,-0.7092668,-9.849689
30145920,0.005163722,-0.002264601,0.0005026998,-0.3153387,-0.7094801,-9.84959
30165971,0.005100663,-0.002625047,0.0004605578,-0.3096933,-0.7155579,-9.840094
30185947,0.005079803,-0.00247609,0.0003308296,-0.3198755,-0.7095591,-9.83492
30205958,0.005261743,-0.002185817,0.0001339141,-0.3105385,-0.7033927,-9.846132
30226360,0.005297642,-0.002079366,8.036093e-05,-0.3108435,-0.7140024,-9.843312
30245887,0.004874133,-0.001918373,8.059003e-05,-0.3170071,-0.7188846,-9.844946
30266223,0.004377623,-0.001455736,0.0001248277,-0.3240415,-0.7147262,-9.847527
30285936,0.004137928,-0.001283658,0.0001695602,-0.3221724,-0.7119865,-9.843324
30305972,0.004065293,-0.000886954,0.000109406,-0.3201497,-0.7070305,-9.839136
30326382,0.003617076,-0.0004186275,0.0001877423,-0.3144218,-0.7078921,-9.832355
30345875,0.003308517,-0.0002299177,0.0003116513,-0.3146736,-0.701493,-9.82904
30366001,0.003438548,-0.0002087304,0.0003865959,-0.321559,-0.70702,-9.835393
30385911,0.003824987,-0.0006448435,0.0003518142,-0.3173047,-0.7056751,-9.835925
30405975,0.003977674,-0.0004131666,0.000366759,-0.3309284,-0.7073572,-9.843973
30426478,0.003955171,-0.000676818,0.0003802731,-0.3272466,-0.7090437,-9.848211
30445944,0.003810086,-0.001340539,0.0002535662,-0.3084246,-0.7111691,-9.841395
30465920,0.003967562,-0.002033943,0.0001328944,-0.3021795,-0.7144222,-9.830503
30485940,0.004279062,-0.003015056,-2.378602e-05,-0.3148251,-0.7095451,-9.82069
30505955,0.004491543,-0.003454288,2.26671e-05,-0.3096046,-0.7121029,-9.824655
30526301,0.004451439,-0.003694409,7.68898e-05,-0.2991333,-0.7143511,-9.830826
30545904,0.004218887,-0.00397701,7.234994e-05,-0.3041038,-0.7148392,-9.842578
30565956,0.004255417,-0.003983811,3.392649e-05,-0.3205565,-0.717589,-9.853894
30586209,0.004531546,-0.003673516,-9.131008e-05,-0.3308691,-0.71736,-9.85017
30605936,0.00460339,-0.00254409,-0.0002051244,-0.3192159,-0.7122664,-9.828103
30626308,0.004744132,-0.001579394,-0.0003955064,-0.3134898,-0.7133419,-9.834771
30645884,0.004641077,-0.0008512204,-0.0003569698,-0.3099457,-0.7120246,-9.842052
30665938,0.004363829,-0.000186675,-7.813701e-05,-0.3162281,-0.7105222,-9.840552
30685950,0.004270098,-0.0005144087,0.0002202539,-0.3233243,-0.7088631,-9.837573
30705910,0.004060485,-0.001402396,0.0004189224,-0.3171766,-0.710247,-9.828651
30726339,0.003921054,-0.002029997,0.0005157391,-0.3192643,-0.7107167,-9.826803
30746189,0.004112778,-0.002154009,0.0005974058,-0.3280172,-0.7067246,-9.828067
30765914,0.004079294,-0.002097423,0.0006411555,-0.3243039,-0.7081918,-9.832357
30785954,0.004097878,-0.002211416,0.000682708,-0.3206507,-0.7100098,-9.833351
30805918,0.004197574,-0.002034533,0.0006664863,-0.3205285,-0.7132347,-9.834222
30826300,0.004214117,-0.001711309,0.0005048685,-0.309192,-0.7069143,-9.83098
30845892,0.004390657,-0.001422096,0.0001233693,-0.3204022,-0.7088393,-9.835429
30865958,0.004469377,-0.001096928,-0.0001237043,-0.3275735,-0.7054497,-9.842687
30885965,0.004170621,-0.001038925,-0.0002121597,-0.3267241,-0.7069024,-9.835361
30906154,0.003886601,-0.001006754,-0.0002456631,-0.3245458,-0.7072052,-9.833394
30926284,0.003978211,-0.001055243,-0.000476669,-0.3243478,-0.704208,-9.8431
30945931,0.004106921,-0.001020009,-0.0005438773,-0.3160636,-0.710614,-9.839276
30965978,0.004297172,-0.001295546,-0.0003681926,-0.3190499,-0.7032374,-9.829896
30985947,0.004689767,-0.001820803,-1.797515e-05,-0.3169757,-0.6985655,-9.81673
31005970,0.005003668,-0.001962043,-9.047811e-07,-0.3199446,-0.696674,-9.836008
31026291,0.005067522,-0.001835529,0.0001783488,-0.3280463,-0.6964924,-9.843196
31045938,0.004724717,-0.001496776,0.0002646169,-0.3199305,-0.7027773,-9.843741
31066237,0.004401032,-0.00168741,0.0004447729,-0.3186739,-0.7010247,-9.842845
31085935,0.004258935,-0.0019724,0.0006464446,-0.3193156,-0.7032691,-9.843532
31105944,0.00454538,-0.00260881,0.0006801084,-0.3174451,-0.7067333,-9.83787
31126331,0.004691914,-0.003296167,0.0006398063,-0.3173735,-0.708807,-9.842842
31145914,0.004416335,-0.003547617,0.0006121256,-0.3157008,-0.7104372,-9.843823
31165944,0.004386739,-0.003298881,0.0006605599,-0.3112182,-0.7106298,-9.838715
31185920,0.004238327,-0.002807954,0.0006803983,-0.3218445,-0.7086689,-9.848228
31205968,0.003880907,-0.002357627,0.000643461,-0.3215444,-0.704554,-9.85002
31226474,0.003660778,-0.002470723,0.0007518161,-0.3188618,-0.7082846,-9.842115
31245873,0.003624223,-0.002668892,0.0005970732,-0.3162825,-0.7074926,-9.840835
31265972,0.003597524,-0.002757984,0.0002000542,-0.3146113,-0.7052015,-9.84394
31285916,0.00368345,-0.002670597,-0.00013258,-0.3107328,-0.7032792,-9.855122
31305898,0.003861387,-0.002509103,-0.0003063858,-0.3102646,-0.7087196,-9.846749
31326302,0.003929318,-0.002366203,-0.0002824629,-0.321173,-0.7097827,-9.840504
31345922,0.004052588,-0.002270014,-0.0002315982,-0.317804,-0.7080985,-9.845528
31365912,0.00400602,-0.002250012,-5.137702e-05,-0.3141798,-0.7005568,-9.838203
31386117,0.003810398,-0.00171695,0.0001750171,-0.3173924,-0.7048076,-9.835265
31405908,0.003373434,-0.001471619,0.0002620163,-0.3134087,-0.7075351,-9.835644
31426330,0.00322739,-0.001865746,0.0002480033,-0.3205569,-0.7078735,-9.841124
31445931,0.003282133,-0.00257108,0.0001469543,-0.3293245,-0.7066186,-9.848174
31465916,0.003396697,-0.002981849,6.447685e-05,-0.3251706,-0.700103,-9.846034
31485918,0.003299683,-0.002782019,0.0001720028,-0.3267368,-0.7031617,-9.839855
31505906,0.003156062,-0.002443774,0.0001417644,-0.3249297,-0.7099865,-9.841387
31526302,0.0032433,-0.001954035,0.0003036827,-0.3215782,-0.7162558,-9.842188
31546103,0.003619063,-0.002373783,0.0003844408,-0.3200031,-0.7104086,-9.83778
31565975,0.003974251,-0.002873248,0.000408898,-0.3175101,-0.7077908,-9.831033
31585906,0.00436282,-0.002750964,0.0004120895,-0.3204172,-0.7062154,-9.839421
31605979,0.004520908,-0.002709101,0.0005059589,-0.3292502,-0.7086269,-9.844551
31626312,0.004568347,-0.002605814,0.0006881341,-0.3280418,-0.7164083,-9.852365
31645930,0.00480915,-0.002564838,0.0006141176,-0.3240843,-0.7131677,-9.849136
31665925,0.005029457,-0.00219794,0.000582992,-0.3185705,-0.711132,-9.844266
31685899,0.005040849,-0.001925497,0.0003805766,-0.3167265,-0.7113297,-9.852077
31706220,0.005217914,-0.001793443,5.413644e-05,-0.3321256,-0.7068869,-9.858314
31726300,0.00526842,-0.001516014,4.946393e-07,-0.3193198,-0.7135737,-9.856592
31745880,0.005172327,-0.001732487,-4.993719e-05,-0.315242,-0.7166426,-9.841579
31765924,0.005036728,-0.00217921,-0.0002031412,-0.31681,-0.7136147,-9.842778
31785956,0.004809781,-0.002159121,-0.0001025975,-0.32562,-0.715503,-9.838948
31805922,0.00472484,-0.001811914,-9.491089e-05,-0.3254559,-0.7194945,-9.831288
31826316,0.004333611,-0.001205371,-5.616304e-06,-0.3234968,-0.7099228,-9.847525
31845876,0.004006315,-0.0008318799,7.994061e-05,-0.3216641,-0.7035874,-9.846762
31866204,0.003525831,-0.0005292094,2.700608e-05,-0.3179257,-0.7001741,-9.848771
31885900,0.003124913,-0.0004808624,-4.299774e-05,-0.3144862,-0.7079574,-9.843693
31905952,0.002802253,-0.000715794,-0.0002138643,-0.3150765,-0.7167035,-9.83928
31926348,0.002772827,-0.001326831,-0.0002796699,-0.3255222,-0.7118481,-9.843265
31945930,0.003030237,-0.001804034,-0.0003697359,-0.3200828,-0.7044821,-9.841492
31965992,0.003758471,-0.002167521,-0.0004285125,-0.3286026,-0.7023043,-9.844565
31985912,0.003985167,-0.00203951,-0.0003856705,-0.3201928,-0.7012615,-9.838364
32005932,0.003684747,-0.001773228,-7.29378e-05,-0.3154648,-0.7037233,-9.836138
32026490,0.00320864,-0.001161749,0.0002058141,-0.3177572,-0.7070009,-9.853147
32045877,0.003026276,-0.0005621459,0.0003141927,-0.3272409,-0.710543,-9.842079
32065960,0.002880064,-0.0003488288,0.0002845619,-0.3294543,-0.7113904,-9.835554
32085887,0.003032612,-0.0004732923,0.0003217075,-0.3353028,-0.7109343,-9.825325
32105959,0.003416502,-0.0006790306,0.00041749,-0.3217004,-0.7085715,-9.833649
32126357,0.003661131,-0.0009057822,0.0004753089,-0.3133649,-0.7072582,-9.843654
32145877,0.003666693,-0.001327907,0.000570625,-0.3174346,-0.6982142,-9.838019
32165921,0.003870811,-0.001547296,0.0005186995,-0.3186849,-0.702022,-9.830894
32186219,0.004366094,-0.001976586,0.0005213885,-0.3304866,-0.7061528,-9.832413
32205983,0.004864736,-0.002472985,0.0004384951,-0.3310992,-0.7086143,-9.837707
32226344,0.004639789,-0.00278051,0.0005885957,-0.3314544,-0.7104173,-9.840723
32245858,0.004187363,-0.002919489,0.0004953215,-0.3256401,-0.7081528,-9.836065
32265914,0.003805819,-0.002917687,0.00047163,-0.3179208,-0.7093747,-9.831952
32285917,0.003714838,-0.002398467,0.0004932988,-0.3122257,-0.7062948,-9.831314
32305928,0.003504358,-0.0015884,0.0004585909,-0.3137224,-0.7070124,-9.835193
32326291,0.003290057,-0.0009533468,0.0004186636,-0.3188124,-0.704913,-9.837091
32346199,0.003222201,-0.0009087191,0.0002579204,-0.3207966,-0.7021556,-9.843636
32365987,0.003232182,-0.0009831461,7.198939e-05,-0.3244459,-0.7040418,-9.847863
32385968,0.003464854,-0.001054736,7.809947e-05,-0.3285382,-0.7127913,-9.841918
32405934,0.003646601,-0.0009301261,2.210511e-05,-0.3242727,-0.7138525,-9.841761
32426331,0.003666885,-0.0005046785,1.316941e-05,-0.3288598,-0.7046725,-9.846429
32445961,0.003853888,-0.0001403979,-0.000267257,-0.3216453,-0.7024694,-9.847967
32465950,0.00398592,0.0003553889,-0.0003884401,-0.3140363,-0.7092384,-9.847179
32485938,0.004161433,0.0004777344,-0.0005451429,-0.3162495,-0.7123134,-9.835992
32506165,0.004448134,0.0001792367,-0.0005929504,-0.3136137,-0.7160372,-9.834357
32526301,0.004360023,-0.0002968925,-0.0004482395,-0.3118104,-0.7094687,-9.8382
32545922,0.004510032,-0.0009107293,-0.0002297428,-0.3275639,-0.7141532,-9.849655
32565926,0.004414153,-0.001581951,-0.0001485866,-0.3277723,-0.7139806,-9.838971
32585933,0.004105807,-0.001935233,-0.0001692995,-0.3234372,-0.7096775,-9.824435
32605908,0.003867667,-0.001964571,-0.0003039523,-0.3266,-0.7096137,-9.832506
32626311,0.003728914,-0.001372597,-0.0002134411,-0.3188054,-0.7034997,-9.824666
32645933,0.003661033,-0.0007024339,-0.0002157492,-0.3122414,-0.7098739,-9.813618
32666140,0.003608478,-0.0007437191,-0.0002460455,-0.3124367,-0.7134069,-9.811637
32685894,0.003281696,-0.0006813576,-0.0002381827,-0.3104535,-0.7052441,-9.818984
32705925,0.003578147,-0.0009853041,-0.0002835468,-0.3128392,-0.7023709,-9.822274
32726389,0.003890724,-0.001235219,-9.29017e-05,-0.3224417,-0.7026144,-9.832043
32745917,0.003990119,-0.001615816,0.0001254681,-0.3183976,-0.7098732,-9.841708
32766029,0.003948892,-0.002313728,0.0004015852,-0.3157286,-0.7053443,-9.84602
32785951,0.00362137,-0.002992152,0.0005934727,-0.3281919,-0.7057865,-9.837347
32805920,0.003658718,-0.00302933,0.0007331948,-0.3312312,-0.7030003,-9.83749
32826565,0.003595292,-0.002810958,0.0006843026,-0.3248234,-0.7070636,-9.835715
32845874,0.003412574,-0.002728569,0.0004855453,-0.3228432,-0.7088869,-9.838305
32865976,0.003508372,-0.002487855,0.0005393667,-0.3196355,-0.7088845,-9.835134
32885905,0.003572402,-0.00259183,0.0005153128,-0.3123944,-0.7062463,-9.830858
32905950,0.003473287,-0.002749913,0.0004961891,-0.317518,-0.7120225,-9.832519
32926380,0.003030258,-0.002599807,0.0004458803,-0.3215407,-0.712767,-9.837839
32945888,0.002700053,-0.002432479,0.0003555569,-0.3189726,-0.7110935,-9.83241
32966014,0.002649526,-0.00232284,0.0004913447,-0.318428,-0.7068975,-9.843628
32986181,0.002956155,-0.002548724,0.0004500312,-0.316379,-0.7059855,-9.845974
33005907,0.003291048,-0.002482844,0.00027369,-0.313489,-0.7092848,-9.834441
33026294,0.00320965,-0.002040052,0.0002648195,-0.3217188,-0.714744,-9.83897
33045881,0.002705208,-0.0008947377,0.0003841867,-0.3183853,-0.7133108,-9.849015
33065970,0.002075799,-5.50919e-05,0.0004163074,-0.320382,-0.7112505,-9.840981
33085896,0.002276513,0.0001782725,0.0002855897,-0.3225029,-0.7065961,-9.833385
33105980,0.002695931,0.0003739435,1.16592e-05,-0.3261015,-0.7073314,-9.828918
33126313,0.003192506,-6.105097e-05,-9.530488e-05,-0.3226295,-0.7045611,-9.828817
33146104,0.003863092,-0.0006511783,-9.956554e-05,-0.3268014,-0.7054328,-9.824063
33165985,0.00438534,-0.001469835,-0.0001169533,-0.3228725,-0.7041806,-9.826478
33185902,0.004525385,-0.001682647,5.687747e-05,-0.3123406,-0.7040282,-9.825365
33205909,0.004528697,-0.002147249,0.0002534204,-0.3063671,-0.7086436,-9.827641
33226329,0.004379685,-0.002569546,0.0003579993,-0.31363,-0.7112773,-9.848363
33245922,0.00401692,-0.002576531,0.0003200218,-0.3129376,-0.7083898,-9.842541
33265920,0.003481961,-0.001958229,0.0003586163,-0.3174224,-0.7086857,-9.842538
33285886,0.003277801,-0.0009986514,0.0002711443,-0.3307685,-0.7075243,-9.838431
33306145,0.003671699,-0.0004311357,0.0004576189,-0.3390753,-0.7048314,-9.835073
33326311,0.004074061,-0.0003378336,0.0004240863,-0.3354713,-0.7087308,-9.841309
33345882,0.004281621,-0.0007529799,0.0003929206,-0.3259348,-0.7074355,-9.854377
33365956,0.004433236,-0.00125235,0.0003617516,-0.312329,-0.705742,-9.835335
33385895,0.004430424,-0.001556298,0.000342269,-0.3133866,-0.706377,-9.824998
33405947,0.004494553,-0.00175645,0.0003164965,-0.3139108,-0.7093952,-9.826947
33426369,0.004440579,-0.001665635,0.0002971841,-0.3144952,-0.7025331,-9.831275
33445905,0.004336837,-0.001769948,0.0003239269,-0.3150925,-0.7068291,-9.829435
33466209,0.004212509,-0.001912132,0.0003033086,-0.3083296,-0.7030379,-9.831339
33485947,0.003609179,-0.001668222,0.0002061305,-0.3061381,-0.7050838,-9.834282
33505946,0.003237579,-0.001818628,0.0002268293,-0.3132308,-0.7061186,-9.833882
33526307,0.003438702,-0.002002258,0.0001098104,-0.3136581,-0.704332,-9.835951
33545952,0.003588631,-0.002092414,0.0001775388,-0.3203712,-0.7029848,-9.842855
33565951,0.003497713,-0.001743993,0.0001537703,-0.3156808,-0.7071747,-9.850057
33585905,0.003235355,-0.001110034,-9.032865e-05,-0.3144092,-0.7114804,-9.841773
33605905,0.003026348,-0.000895124,-0.0003822665,-0.3207129,-0.7071944,-9.839712
33626504,0.003113508,-0.001047972,-0.0006832429,-0.3198459,-0.7041482,-9.834047
33645885,0.00318197,-0.001158271,-0.0008328092,-0.3165171,-0.7002936,-9.844344
33665978,0.003222987,-0.001084677,-0.0007026487,-0.32322,-0.7039841,-9.844969
33685962,0.003236667,-0.0009403995,-0.0005897824,-0.3186867,-0.7043136,-9.841255
33705917,0.003388637,-0.001210109,-0.0003884392,-0.3191579,-0.7032639,-9.83737
33726311,0.003491732,-0.001453543,-0.0003045266,-0.3158321,-0.7064276,-9.829141
33745907,0.003701056,-0.001492622,-0.0001382927,-0.3168099,-0.7051319,-9.833226
33765968,0.00394626,-0.001195508,3.411327e-05,-0.3135687,-0.7034879,-9.839743
33786108,0.004319904,-0.001223014,0.0001486993,-0.3153716,-0.7078534,-9.840223
33805926,0.00457747,-0.001644572,0.0002295937,-0.3196452,-0.7099234,-9.84978
33826318,0.004769288,-0.001834788,0.0001690755,-0.3280171,-0.7081,-9.83871
33845899,0.004596103,-0.001640499,0.0002534953,-0.3348826,-0.7076654,-9.836423
33866006,0.004509679,-0.001278738,0.0003714836,-0.3238765,-0.7072417,-9.8329
33885984,0.004498246,-0.001209975,0.0004364697,-0.328225,-0.7038409,-9.844427
33905975,0.003964923,-0.001146854,0.0005020319,-0.329139,-0.7050745,-9.849068
33926297,0.003645492,-0.0007695489,0.0004572361,-0.3198073,-0.7089502,-9.8321
33946108,0.0035005,-0.0003581227,0.0004786265,-0.3174888,-0.7050329,-9.823843
33965976,0.003507037,-0.0004961831,0.0005315716,-0.311284,-0.6965715,-9.82945
33985918,0.003766056,-0.0008825874,0.0003203396,-0.3112602,-0.7074082,-9.838416
34005916,0.004066581,-0.001278163,0.0001350205,-0.3065803,-0.7121259,-9.828716
34026313,0.004123343,-0.001280572,9.224006e-05,-0.309826,-0.7070659,-9.820897
34045887,0.004192302,-0.001561266,9.347796e-05,-0.3115936,-0.7057499,-9.834322
34065993,0.004233828,-0.001778639,4.783438e-05,-0.3099411,-0.7081198,-9.844068
34085920,0.004458815,-0.001953765,7.814699e-05,-0.3152456,-0.7177904,-9.838578
34106173,0.004324775,-0.002008139,-5.198771e-05,-0.3153526,-0.7182123,-9.847406
34126333,0.004001127,-0.001724613,-3.219696e-05,-0.3202374,-0.716956,-9.845578
34145944,0.00359334,-0.001210098,8.81758e-05,-0.3198744,-0.715149,-9.840674
34165928,0.003604232,-0.001157664,0.0001575961,-0.3217905,-0.7105215,-9.839156
34185888,0.003950834,-0.001511583,0.0001024705,-0.3312693,-0.7137291,-9.84754
34205978,0.004021508,-0.001651245,-1.486289e-05,-0.3316803,-0.7146378,-9.846893
34226337,0.004215354,-0.001622424,-0.0004213616,-0.3298552,-0.707442,-9.840034
34245874,0.004080321,-0.001647459,-0.0004012585,-0.3169917,-0.7082123,-9.836515
34266137,0.003852878,-0.001998505,-0.0001250386,-0.3128993,-0.7110494,-9.844085
34285941,0.003422679,-0.002260273,4.0826e-05,-0.325867,-0.7153694,-9.854559
34305910,0.003395756,-0.002768782,0.0001758573,-0.3223262,-0.7144316,-9.843546
34326311,0.003547531,-0.002865151,0.0003845575,-0.3113119,-0.7073264,-9.841861
34345917,0.004226537,-0.00270619,0.0004411982,-0.3089607,-0.7062127,-9.838177
34365939,0.004856233,-0.002607139,0.0002703681,-0.3138191,-0.7043153,-9.835737
34385878,0.004686264,-0.002370189,0.0001446111,-0.3152521,-0.7086483,-9.839141
34405989,0.00465859,-0.002370323,5.805321e-05,-0.3133359,-0.7107232,-9.841945
34426484,0.004534045,-0.002490028,-0.0001493018,-0.3226764,-0.7131322,-9.842772
34445877,0.004356689,-0.002532189,-0.0002321737,-0.3168886,-0.7128865,-9.838405
34465975,0.004325503,-0.00249693,-0.0002456004,-0.3158292,-0.7056604,-9.844146
34485931,0.004475938,-0.002613592,-7.511309e-05,-0.3198336,-0.7079331,-9.844168
34505915,0.004400394,-0.002364784,0.0001933619,-0.31943,-0.7055744,-9.845576
34526294,0.004505533,-0.002294596,0.0004372782,-0.3231327,-0.7081491,-9.838223
34545904,0.004801011,-0.002778561,0.00058342,-0.3265693,-0.7075493,-9.833793
34565915,0.004940504,-0.002922674,0.000686995,-0.3260932,-0.7005731,-9.83301
34586116,0.004925494,-0.002929913,0.000808853,-0.3219432,-0.7033951,-9.838686
34605959,0.004816497,-0.002296392,0.0007842412,-0.3206114,-0.7116911,-9.843092
34626366,0.004509733,-0.002056475,0.0005543774,-0.3186004,-0.7101378,-9.850624
34645887,0.004051854,-0.002042406,0.0003798229,-0.3118932,-0.7062353,-9.838415
34665974,0.003620868,-0.001806584,0.0003321116,-0.3131521,-0.709705,-9.82946
34685945,0.003359464,-0.001681965,0.0002061495,-0.3232905,-0.7044885,-9.839832
34705945,0.003395452,-0.001831512,0.0001511442,-0.3228293,-0.7010916,-9.840745
34726331,0.003671647,-0.001767533,1.702678e-05,-0.3111732,-0.7041424,-9.839293
34746176,0.003951763,-0.001588822,-4.933399e-05,-0.3141661,-0.7084504,-9.833609
34765961,0.004163486,-0.001637781,-0.0001059659,-0.326142,-0.7102662,-9.82982
34785907,0.004220579,-0.001674029,7.99944e-06,-0.3245068,-0.7036704,-9.841025
34805943,0.004221152,-0.001422184,0.0001626472,-0.3160034,-0.7103848,-9.83873
34826318,0.004333949,-0.001049258,0.0002462401,-0.319278,-0.7123473,-9.830468
34845910,0.004379177,-0.001243052,0.0003201748,-0.3228523,-0.7162917,-9.832363
34865978,0.004619903,-0.001824371,7.182044e-05,-0.3171518,-0.7169203,-9.833583
34885947,0.004874182,-0.002522326,-7.407992e-05,-0.3112806,-0.7138898,-9.829659
34906147,0.004746975,-0.002859356,-0.0002294899,-0.3098281,-0.7079164,-9.825185
34926316,0.004645672,-0.002732956,-0.0003712115,-0.3106421,-0.7106788,-9.828959
34945909,0.004480093,-0.002683195,-0.0003682236,-0.3120517,-0.7111546,-9.839955
34965936,0.004467835,-0.003104497,-0.0002231876,-0.314175,-0.7109356,-9.849793
34985882,0.004723494,-0.003391889,-2.6181e-05,-0.3178516,-0.7057632,-9.85154
35005902,0.004986891,-0.003453652,0.0001093247,-0.3198508,-0.7091974,-9.844294
35026300,0.005075883,-0.00317684,0.0002093045,-0.3156237,-0.712635,-9.847397
35045923,0.005069797,-0.002737955,0.0002971348,-0.3144157,-0.7138647,-9.850119
35066209,0.004786022,-0.002317881,0.000216018,-0.3203301,-0.7071685,-9.83018
35085907,0.004421841,-0.001880364,0.0001513306,-0.3217784,-0.7163633,-9.836689
35105976,0.004052207,-0.001397462,0.0001789578,-0.3298145,-0.7166401,-9.842161
35126323,0.004049304,-0.001213005,0.0001299672,-0.3311915,-0.7112716,-9.850013
35145879,0.004008033,-0.001202883,0.0002496276,-0.326249,-0.7070351,-9.847088
35165939,0.004146905,-0.0008675975,0.0003411606,-0.3227721,-0.7107674,-9.84158
35185932,0.004270215,-0.0008902755,0.0003491211,-0.3128381,-0.7120954,-9.848105
35205916,0.004533829,-0.001542306,0.0002592297,-0.3110803,-0.7114296,-9.847268
35226531,0.004700594,-0.002021266,0.0002309822,-0.3015214,-0.7068977,-9.842151
35245908,0.00460904,-0.002028115,0.0002583796,-0.2995829,-0.7054363,-9.835234
35265951,0.004139296,-0.001767409,0.0002881915,-0.3055384,-0.7075095,-9.835454
35285877,0.003911083,-0.001870812,0.0002343408,-0.3086947,-0.7129771,-9.84306
35305893,0.003751105,-0.001613676,2.472739e-05,-0.3106575,-0.7134933,-9.845303
35326310,0.003716814,-0.00163444,-0.0002237317,-0.3200528,-0.7140706,-9.852501
35345922,0.003647994,-0.0009662127,-0.0003007514,-0.3214342,-0.7174641,-9.845329
35365918,0.003541164,-0.0002764924,-0.0003269681,-0.3280893,-0.7143023,-9.838679
35386241,0.003297399,0.000317795,-0.0003711798,-0.3280947,-0.7090722,-9.831447
35405921,0.003066943,0.0004726097,-0.0001656079,-0.3254727,-0.7085823,-9.832868
35426308,0.003524015,-0.0001836618,-1.765589e-05,-0.313054,-0.7116473,-9.84145
35445961,0.003993944,-0.0007853021,-1.718364e-06,-0.3111814,-0.7138377,-9.847427
35466010,0.004160176,-0.0009857594,-0.0001878738,-0.3157865,-0.7152422,-9.843435
35485890,0.004311156,-0.0008829249,-0.0002870391,-0.320818,-0.7131851,-9.834657
35505973,0.004409537,-0.00126165,-0.0005458792,-0.3196627,-0.7118358,-9.832527
35526383,0.004406748,-0.001733695,-0.0009475249,-0.3205395,-0.7121828,-9.839043
35546125,0.004181317,-0.002177814,-0.0009987695,-0.3180449,-0.7058026,-9.834257
35565911,0.003778215,-0.002908799,-0.000964949,-0.3258362,-0.7052305,-9.837337
35585882,0.00401508,-0.003284022,-0.0006247202,-0.334518,-0.7017388,-9.842416
35605956,0.004331415,-0.00342383,-0.0001065353,-0.3269495,-0.705821,-9.836538
35626360,0.004572242,-0.003298449,0.0002710333,-0.3239191,-0.7147266,-9.836092
35645957,0.004496844,-0.002946098,0.0003562178,-0.3165664,-0.7146955,-9.846979
35665954,0.004105885,-0.00234591,0.0004475278,-0.3099665,-0.7204899,-9.854038
35685889,0.003716343,-0.002064922,0.0003862297,-0.3147972,-0.7118849,-9.845645
35706230,0.003145679,-0.00169484,0.000389376,-0.3271947,-0.7053728,-9.84973
35726379,0.002652591,-0.001791724,0.0004504683,-0.3228939,-0.7104711,-9.835671
35745861,0.002091432,-0.001893316,0.0005032598,-0.3163425,-0.7085733,-9.836273
35765963,0.001998853,-0.001933949,0.0003200195,-0.3212848,-0.7115967,-9.843864
35785927,0.00255657,-0.001762228,6.557245e-05,-0.3242865,-0.7153006,-9.830098
35805922,0.003154918,-0.001728034,-9.020956e-05,-0.3176843,-0.7166289,-9.834805
35826360,0.003385172,-0.0011301,-4.373387e-05,-0.3076745,-0.7124094,-9.833914
35845920,0.003600524,-0.00126228,0.0001675008,-0.3197799,-0.7089037,-9.845001
35866152,0.003870832,-0.001926726,0.0004186648,-0.3285494,-0.7034138,-9.845477
35885940,0.003977623,-0.002426733,0.00062671,-0.3255683,-0.7063439,-9.836188
35905909,0.00422193,-0.002563056,0.0005101907,-0.3161929,-0.7051896,-9.826957
35926329,0.004053973,-0.002686061,0.0004304172,-0.3154093,-0.7100836,-9.828555
35945909,0.003772789,-0.002819113,0.0003472193,-0.3219108,-0.711985,-9.844196
35965970,0.003530473,-0.002884632,0.0001970907,-0.3098277,-0.7131557,-9.851985
35985949,0.003464122,-0.002603675,6.016882e-05,-0.3180089,-0.7058676,-9.849202
36005906,0.003233373,-0.002279305,-1.5399e-07,-0.323285,-0.7047951,-9.845239
36026532,0.003036025,-0.00195384,8.55379e-05,-0.3217498,-0.7072611,-9.844431
36045912,0.003324235,-0.00181645,0.0002140546,-0.3143545,-0.7066396,-9.83342
36065932,0.003447962,-0.002011259,0.0002079216,-0.3154221,-0.7094857,-9.835168
36085912,0.003857577,-0.002123384,-2.037405e-05,-0.3164304,-0.7162389,-9.84601
36105902,0.004204853,-0.002044141,-0.0002486229,-0.314783,-0.7101553,-9.852119
36126352,0.004307174,-0.001358912,-0.0002934929,-0.3097681,-0.7056661,-9.848039
36145892,0.004037166,-0.0006185445,-0.0003491,-0.3194649,-0.7030554,-9.847039
36165905,0.003745102,-0.0007020533,-0.0003539023,-0.3290026,-0.7107275,-9.841551
36186214,0.003481075,-0.0008457404,-0.000337478,-0.317785,-0.7097799,-9.844279
36205921,0.003130473,-0.001061034,-0.000283817,-0.3239582,-0.7085618,-9.847794
36226304,0.003219014,-0.001583612,-8.864918e-05,-0.3249002,-0.708188,-9.837697
36245879,0.003092235,-0.00177901,0.0002114263,-0.3238168,-0.7019182,-9.840518
36266004,0.003234206,-0.001643099,0.0005553881,-0.3296294,-0.6976311,-9.836935
36285893,0.003126001,-0.001784944,0.0005448075,-0.3263991,-0.7053956,-9.835722
36305920,0.002991969,-0.001963357,0.0005063274,-0.3236529,-0.7136452,-9.849949
36326342,0.003174317,-0.002278936,0.0004274811,-0.3217125,-0.7079907,-9.84546
36346190,0.003401273,-0.002305113,0.000424693,-0.3311727,-0.7062894,-9.842019
36365974,0.003812447,-0.002345709,0.0002695403,-0.3260585,-0.7094625,-9.843718
36385910,0.004152197,-0.002655385,0.0002047739,-0.316975,-0.7111226,-9.845553
36405900,0.004161418,-0.00244977,0.0003849873,-0.3167499,-0.7096427,-9.836474
36426304,0.003997729,-0.002235104,0.0005326309,-0.3135168,-0.7034478,-9.836018
36445917,0.004042626,-0.002464201,0.0005888095,-0.3235112,-0.7000089,-9.836953
36465926,0.004190431,-0.002835838,0.0005078217,-0.3221871,-0.7103558,-9.83614
36485884,0.004021071,-0.002308805,0.0004638487,-0.3257663,-0.7088479,-9.835171
36506206,0.004000078,-0.00173748,0.0004397362,-0.3218736,-0.7069489,-9.829405
36526300,0.003971747,-0.001256547,0.0005170297,-0.3180081,-0.7029627,-9.835675
36545916,0.004123133,-0.001157785,0.0003133825,-0.3233275,-0.7040796,-9.8594
36565941,0.004195926,-0.0009458946,3.729538e-05,-0.3249296,-0.7064887,-9.862587
36585994,0.004206229,-0.0008334788,-0.0001754191,-0.3227628,-0.7037222,-9.84116
36605948,0.004200218,-0.001750347,-0.0003253399,-0.3222023,-0.6991758,-9.841438
36626320,0.004163826,-0.002535179,-0.0002227131,-0.3259687,-0.7029743,-9.840438
36645942,0.004037478,-0.002585309,-0.0001060583,-0.3149778,-0.7108827,-9.835494
36666191,0.004168225,-0.002337656,-0.0001311198,-0.3218736,-0.7081769,-9.825716
36685957,0.004128992,-0.002726288,-2.283107e-05,-0.3268661,-0.7131545,-9.83535
36705985,0.004124307,-0.003076046,7.728376e-05,-0.3206111,-0.7140582,-9.831492
36726336,0.004002177,-0.002858854,-3.043415e-05,-0.3194509,-0.7048952,-9.832741
36745879,0.00389632,-0.002590521,-8.054902e-05,-0.3241746,-0.7092419,-9.840478
36765965,0.003821995,-0.002419624,-9.36306e-05,-0.322032,-0.7069652,-9.84052
36785933,0.003913878,-0.002128974,-7.230248e-05,-0.3233543,-0.7084541,-9.842394
36805879,0.003750032,-0.001800504,-8.578182e-05,-0.3201013,-0.7133339,-9.836833
36826501,0.003452892,-0.001313224,4.158402e-05,-0.3131007,-0.7084541,-9.842187
36845904,0.003244685,-0.0009521398,0.0002481095,-0.3080325,-0.7034994,-9.85076
36865948,0.003142162,-0.0007238478,0.0004377423,-0.3093398,-0.7083259,-9.840637
36885906,0.003206947,-0.0007343555,0.0003338859,-0.3072028,-0.711562,-9.830864
36905926,0.003487895,-0.0007629756,0.0001663347,-0.3160413,-0.7127612,-9.837394
36926331,0.003554805,-0.0009222295,0.0002046876,-0.3164958,-0.7170689,-9.836666
36945911,0.003560313,-0.0009226772,0.0002481161,-0.3184994,-0.7153986,-9.843564
36965931,0.003905761,-0.001298483,0.0004091107,-0.3210665,-0.7117579,-9.851136
36986173,0.004306442,-0.001297706,0.0004558895,-0.317555,-0.7077869,-9.842838
37005952,0.004556226,-0.001317093,0.0004786531,-0.3222907,-0.7061408,-9.840603
37026350,0.00493391,-0.001708816,0.0004769877,-0.3194839,-0.7020029,-9.826135
37045928,0.005184158,-0.002137101,0.0004926629,-0.3130201,-0.707487,-9.827017
37065953,0.005065332,-0.002555476,0.0005248549,-0.3195073,-0.7062584,-9.836235
37085901,0.004782704,-0.002654636,0.0005521157,-0.3322244,-0.7112741,-9.835555
37105958,0.004640842,-0.00295913,0.0004765251,-0.3262968,-0.7111636,-9.837335
37126325,0.004557751,-0.002959029,0.0002270368,-0.3216514,-0.707168,-9.841403
37146160,0.003989328,-0.00225864,0.0001663525,-0.3189669,-0.6980745,-9.839326
37165980,0.003426248,-0.001468976,0.0002287604,-0.3190665,-0.6942937,-9.840405
37185920,0.00335666,-0.001161897,0.0003423261,-0.3192342,-0.6971307,-9.834991
37205888,0.003613217,-0.00140091,0.0003967673,-0.3155053,-0.6957011,-9.829712
37226338,0.003936558,-0.001488974,0.0003294117,-0.3126032,-0.6943769,-9.839062
37245944,0.004027816,-0.001988606,0.0002236299,-0.3159807,-0.6947019,-9.845267
37265927,0.00399921,-0.00226957,0.0002727227,-0.3161034,-0.7055005,-9.853489
37285979,0.004232251,-0.002337053,0.0004009399,-0.3165903,-0.7106907,-9.842842
37306144,0.004346763,-0.002504216,0.0004842957,-0.317145,-0.7104089,-9.836695
37326323,0.004524933,-0.003261136,0.000605467,-0.3183996,-0.7071239,-9.819846
37345945,0.004421123,-0.003147716,0.0006963669,-0.3147746,-0.7031631,-9.824417
37365910,0.004177615,-0.002650484,0.0007390875,-0.3147762,-0.7064638,-9.824985
37385902,0.003828477,-0.00259052,0.0006923385,-0.3206336,-0.7074497,-9.832589
37405917,0.003617204,-0.002784784,0.000640541,-0.3207114,-0.7056311,-9.836008
37426321,0.00373472,-0.003032894,0.0005935665,-0.3112862,-0.7123024,-9.817572
37445963,0.003700853,-0.003191574,0.0006572261,-0.3111189,-0.710654,-9.834242
37466254,0.003792047,-0.002970897,0.0007178123,-0.3106292,-0.7054203,-9.837198
37485887,0.003979063,-0.00268126,0.000726291,-0.3216745,-0.701143,-9.82957
37505983,0.004004485,-0.002386004,0.0006876073,-0.3239823,-0.7029948,-9.82429
37526307,0.003840263,-0.002216125,0.0005552646,-0.3215901,-0.7004156,-9.829947
37545909,0.003827483,-0.001977674,0.0003515945,-0.3278791,-0.7073905,-9.837573
37565927,0.003914822,-0.001386334,0.0003202658,-0.3229462,-0.7057667,-9.83708
37585964,0.004320826,-0.001180103,0.0002923978,-0.3149855,-0.7094142,-9.835071
37605941,0.004634953,-0.001420606,3.35919e-05,-0.310357,-0.7116911,-9.837461
37626474,0.00468804,-0.001416488,-4.104038e-05,-0.3150755,-0.7072463,-9.840529
37645891,0.004934454,-0.00148392,-2.863486e-05,-0.3174328,-0.6994694,-9.847907
37665969,0.004788099,-0.001338518,1.197502e-05,-0.3224138,-0.6997014,-9.83909
37685896,0.004801037,-0.001353278,0.0001130802,-0.3194766,-0.7055336,-9.840387
37705895,0.004883282,-0.001506338,0.0001141255,-0.3213161,-0.7101762,-9.847208
37726320,0.00450907,-0.002008316,0.0001064394,-0.3243672,-0.7118954,-9.831013
37745928,0.004010714,-0.0026764,0.00033454,-0.3230214,-0.7065446,-9.837547
37765952,0.003926896,-0.003141186,0.0003768158,-0.3202616,-0.7007814,-9.837476
37786101,0.00404003,-0.002902279,0.000429308,-0.314173,-0.6977809,-9.829288
37805973,0.004098032,-0.002273308,0.0003720701,-0.3191909,-0.7031562,-9.837831
37826305,0.004244231,-0.001624409,0.0002255722,-0.3221742,-0.7047982,-9.843518
37845918,0.00435931,-0.001081446,0.0002821593,-0.3229503,-0.7081076,-9.843409
37865946,0.004528593,-0.0008165946,0.0003840803,-0.3196865,-0.7088261,-9.832196
37885894,0.004322993,-0.0005103455,0.000212217,-0.3242832,-0.7037622,-9.840322
37905968,0.004029199,-0.0007446548,0.0002115234,-0.3200371,-0.7047133,-9.836544
37926374,0.003831294,-0.0008356239,0.0002443847,-0.3242156,-0.7021666,-9.830089
37946196,0.003779992,-0.001358115,0.0002399602,-0.3187073,-0.7028614,-9.827883
37966027,0.003968962,-0.002143004,0.0003390358,-0.3218575,-0.7074541,-9.836208
37985914,0.004105372,-0.002486491,0.0004480653,-0.3334642,-0.7028824,-9.838484
38005956,0.004049045,-0.002486492,0.0002449183,-0.3305005,-0.697856,-9.836457
38026328,0.004092658,-0.002717284,0.0001767786,-0.3213501,-0.7046826,-9.836061
38045886,0.004129487,-0.002575314,0.0002104253,-0.3117347,-0.7095793,-9.841903
38066009,0.00423273,-0.002756985,0.0003322858,-0.3098227,-0.7070562,-9.82461
38085957,0.004475807,-0.002978093,0.0003897123,-0.3154035,-0.6953928,-9.818376
38106128,0.005087792,-0.003096093,0.0004319529,-0.3228779,-0.7011426,-9.825022
38126307,0.00561194,-0.003253945,0.0003490323,-0.3187412,-0.7101297,-9.83482
38145944,0.00547908,-0.002983786,0.0001681225,-0.3164764,-0.7138201,-9.841105
38165937,0.005228917,-0.002773625,0.0001066647,-0.3217903,-0.7058442,-9.830208
38185886,0.005003437,-0.002651524,0.0001329919,-0.3193042,-0.6930152,-9.82397
38205925,0.004704454,-0.00215402,0.0002161349,-0.3171839,-0.6942399,-9.829353
38226315,0.004715526,-0.001960924,0.0003510245,-0.320513,-0.7033629,-9.837631
38245890,0.004903419,-0.002261297,0.0004362968,-0.327164,-0.7064643,-9.842653
38266225,0.004465186,-0.001948064,0.0003943003,-0.3193768,-0.7038382,-9.843127
38285940,0.00436384,-0.001679356,0.0003428085,-0.3228675,-0.706295,-9.842473
38305902,0.004294079,-0.001058115,0.0004287481,-0.3191485,-0.7055892,-9.834416
38326304,0.004143075,-0.0006555026,0.0006022312,-0.3143378,-0.711651,-9.828404
38345903,0.004256247,-0.001171205,0.0006692957,-0.3167272,-0.7091354,-9.82556
38365981,0.004652563,-0.00175132,0.0005607551,-0.3332009,-0.7084955,-9.833293
38385941,0.004539549,-0.002243087,0.0004171016,-0.3278241,-0.7055919,-9.839216
38405974,0.004388538,-0.002767458,0.0002948565,-0.3199514,-0.7034451,-9.83864
38426500,0.004659518,-0.003120587,1.890078e-05,-0.3155405,-0.7027985,-9.835298
38445919,0.00467584,-0.002960076,-0.000246824,-0.319546,-0.6997546,-9.834208
38465923,0.004168068,-0.00231007,-0.000423469,-0.3176012,-0.7055311,-9.825186
38485967,0.003986286,-0.00135451,-0.0003986836,-0.314773,-0.7047765,-9.84059
38505928,0.003850369,-0.0008344653,-0.0001338228,-0.3240511,-0.7011939,-9.849025
38526324,0.003771642,-0.0007621384,0.0001288829,-0.3218998,-0.697951,-9.838483
38545963,0.003385808,-0.0006483012,0.0003099469,-0.3221297,-0.6957986,-9.834983
38565986,0.003384169,-0.0005209925,0.0002420277,-0.3203464,-0.7005759,-9.833049
38586111,0.003495289,-0.0008739188,0.0001553973,-0.3176368,-0.7003326,-9.834072
38605956,0.00366055,-0.001410346,9.16013e-05,-0.320281,-0.7049022,-9.83328
38626316,0.00351218,-0.001432684,0.0002605523,-0.3190248,-0.70467,-9.823618
38645946,0.0035082,-0.001334355,0.0004282472,-0.3181482,-0.7029015,-9.820083
38665955,0.003818506,-0.00146098,0.0003037808,-0.3166156,-0.7030786,-9.831961
38685882,0.004179801,-0.001496185,0.0003446107,-0.3110951,-0.7044504,-9.836715
38705977,0.00416973,-0.001375676,0.000517085,-0.3104488,-0.7078882,-9.837
38726313,0.004487001,-0.001304252,0.0005702833,-0.3164596,-0.7057366,-9.83917
38746194,0.00499786,-0.001118783,0.0005434559,-0.3189147,-0.7054792,-9.846895
38765928,0.005276893,-0.001044044,0.0006218135,-0.3269098,-0.7112922,-9.849175
38785895,0.005126814,-0.001281427,0.0005661628,-0.3216129,-0.7129217,-9.85759
38805977,0.005049148,-0.001315511,0.0003251141,-0.3177006,-0.7155182,-9.850704
38826317,0.005055198,-0.00137991,0.0002336246,-0.3019969,-0.7091603,-9.848769
38845895,0.004897669,-0.001261614,0.0001220811,-0.3036448,-0.7000273,-9.842541
38865998,0.004682865,-0.00116806,7.564673e-05,-0.3155398,-0.7072688,-9.826249
38885947,0.004296684,-0.001537854,2.879066e-05,-0.3229768,-0.7052183,-9.812855
38906139,0.003909768,-0.001281224,8.741161e-05,-0.323683,-0.7068973,-9.818211
38926334,0.003758098,-0.001281732,2.329866e-05,-0.3171053,-0.7036022,-9.83268
