TimeUS,AccX,AccY,AccZ,GyrX,GyrY,GyrZ,VN,VE,VD,V_horiz_m_s,V_3D_m_s,KE_horiz_J,KE_3D_J
5648308,-0.4829052,-0.7576322,-9.73178,4.738191e-05,-0.001313249,0.0001337461,-0.0001189954,-3.142068e-05,0.003079969,0.0001230738166826007,0.003082426999186489,9.050430700811382e-08,5.6770603326750084e-05
5668120,-0.4862749,-0.7581423,-9.736176,-0.0002443882,-0.001263074,0.0002245526,-0.0001955379,-6.632694e-05,0.005483136,0.00020648083036004482,0.005487022391771531,2.5474014150438726e-07,0.00017989180299861801
5688045,-0.492163,-0.7589802,-9.74429,0.0001522327,-0.001471929,3.846947e-05,-0.0006733374,-0.0001594169,0.008162416,0.0006919515895236964,0.008191692862851999,2.8608120884101105e-06,0.00040094539595681973
5708193,-0.4857601,-0.7586688,-9.741373,0.00037956,-0.001311083,1.617326e-05,-0.0002888844,-0.0001483185,0.01157276,0.0003247346208915982,0.011577315171990682,6.300791296835197e-07,0.0008008545038848436
5728082,-0.4706004,-0.7627866,-9.734339,0.0009243159,-0.001087552,-4.114931e-05,-0.0001535947,-0.0003665008,0.01590103,0.00039738415704294254,0.015905994757611633,9.435371554056619e-07,0.0015116789986442832
5748140,-0.4667469,-0.7639126,-9.727866,0.0008349339,-0.0005440604,-6.992056e-05,5.587074e-05,-0.0004155305,0.0207892,0.00041926976520898526,0.020793427417720688,1.0503281377099259e-06,0.00258339057706171
5768129,-0.4722064,-0.7630858,-9.72276,0.0008760357,-0.0001835269,-5.856775e-05,0.0001538643,-0.0005261276,0.02605896,0.0005481646415961632,0.026064724835606765,1.7953947339200938e-06,0.004059235037516479
5788259,-0.4712026,-0.7611829,-9.726405,0.0004942404,0.0001619878,8.766128e-05,0.0004477001,-0.0006418998,0.03133123,0.000782605093760608,0.03134100260115621,3.659512628360799e-06,0.005868994203172938
5808541,-0.4749665,-0.7654943,-9.739116,8.598703e-05,0.0004952058,0.0001455394,0.0003596315,-0.0009122799,0.0357306,0.0009806066651498245,0.03574405357247183,5.745496854624153e-06,0.007633883260605625
5828139,-0.486304,-0.7594061,-9.737597,-0.0002794447,0.0006525745,0.0001324642,0.0001103865,-0.00079735,0.04082493,0.0008049547825078437,0.04083286497059425,3.871514406246443e-06,0.009962254098698026
5848250,-0.4898948,-0.7512882,-9.727735,-0.0009216818,0.0005941361,0.0004166317,-3.69453e-05,-0.0005905119,0.04530387,0.000591666510150524,0.04530773340431117,2.091663823921358e-06,0.0122654244697609
5868181,-0.4882908,-0.7527265,-9.731506,-0.0005627745,-5.259269e-05,0.0004843604,-0.0002995557,-0.0006425355,0.04974503,0.0007089326386637449,0.049750081358597424,3.002948279822371e-06,0.0147885468062427
5888168,-0.4826503,-0.7591907,-9.728947,-0.0005003452,-0.000267341,0.0003871892,-4.450261e-05,-0.0007069024,0.05412959,0.0007083018321468412,0.05413422397202645,2.9976066253998674e-06,0.017509822375194797
5908563,-0.4745149,-0.754959,-9.734366,0.000114165,-0.0004101078,0.000111772,-3.713421e-05,-0.000546272,0.05831534,0.0005475326908380212,0.05831791038234426,1.7912574840295365e-06,0.02032084756139474
5928179,-0.4790599,-0.7547511,-9.743374,0.0004428938,4.405142e-05,-3.431856e-05,-6.847071e-05,-0.0006059884,0.06201892,0.0006098443892194665,0.062021918288178275,2.2221633198982227e-06,0.02298414213016914
5948394,-0.4896776,-0.7558222,-9.737562,0.0007186744,0.0004142935,-0.0001139649,-0.0004573232,-0.000527537,0.06599283,0.0006981688876104693,0.06599652302359972,2.912452778872759e-06,0.026024357780947055
5968174,-0.4831493,-0.7520971,-9.722149,0.001068841,0.0003180138,2.394575e-06,-0.0002076492,-0.0004640766,0.06999208,0.0005084144774966582,0.06999392650800015,1.544449553545995e-06,0.029272419744343775
5988105,-0.4833619,-0.7535428,-9.724819,0.001526237,-0.0001724493,0.0001535194,-0.0004736962,-0.0004177492,0.07371239,0.0006315872734587675,0.07371509575382844,2.383442341870603e-06,0.03246764416842667
6008551,-0.4815316,-0.7567539,-9.731214,0.001563463,-0.0002954811,0.0002135042,-0.0003884616,-0.0003459914,0.07700077,0.0005202042517593642,0.07700252718616739,1.616909469702407e-06,0.03542810042851227
6028180,-0.4811179,-0.7537895,-9.736298,0.001056649,-0.0006714446,0.0002110682,-0.0003713187,-0.000294181,0.08014642,0.0004737299206622799,0.08014782005054243,1.3409097254408728e-06,0.03838144652665343
6048215,-0.4821284,-0.7603945,-9.737712,0.0007913818,-0.0007981127,0.0001212578,-0.0004265495,-0.0005450677,0.08366963,0.0006921295207788352,0.08367249265804404,2.862283559362902e-06,0.041831489014972335
6068159,-0.4717845,-0.76713,-9.722418,0.0003386209,-0.0003692365,2.171675e-05,-9.131616e-05,-0.0007646747,0.08688105,0.000770107809269089,0.08688446302498737,3.5435695764359827e-06,0.04510473674296387
6088161,-0.4684975,-0.7690883,-9.725396,0.0003125496,9.090211e-05,2.5966e-05,9.577856e-06,-0.0009135985,0.08988652,0.0009136487041132422,0.08989116325682367,4.987654878303645e-06,0.04828051685919793
6108737,-0.4741386,-0.7593029,-9.718991,0.0001091232,0.0007630385,2.306922e-05,8.721669e-06,-0.000859396,0.092867,0.000859440255239505,0.09287097677182214,4.41335937514872e-06,0.051534484501150155
6128178,-0.4819627,-0.7577665,-9.723503,-1.03297e-05,0.001132409,3.202069e-05,-0.0001499941,-0.000905842,0.09532981,0.0009181764313021817,0.09533423164108,5.03721155501789e-06,0.054304478942505716
6148181,-0.4750928,-0.7566775,-9.729336,1.354475e-05,0.001356352,-9.510505e-05,0.0001851299,-0.0009214812,0.0980539,0.000939893973715892,0.09805840456529888,5.278319073919013e-06,0.05745231796770367
6168236,-0.471589,-0.7566155,-9.735209,-0.0002121239,0.001154902,-2.156942e-06,0.0001786698,-0.000824599,0.1001517,0.0008437336121270979,0.10015525397750351,4.253521289192414e-06,0.059935672523306935
6188170,-0.4755951,-0.758029,-9.736108,-0.0001477231,0.0009223172,0.0001386793,0.0002670738,-0.0009287814,0.1025389,0.0009664177686861929,0.10254345408905258,5.580430739203589e-06,0.06282808085966896
6208565,-0.4744561,-0.7578315,-9.741532,-0.0001890193,0.0006371716,0.0001885884,0.0002536419,-0.0009048954,0.1045772,0.0009397711946940968,0.10458142248859678,5.276940142801201e-06,0.06535021173018679
6228199,-0.4837058,-0.7589171,-9.742177,0.0002018516,0.000241482,4.738111e-05,1.172497e-05,-0.0009581756,0.1066262,0.00095824733516815,0.10663050578701837,5.486471783257243e-06,0.06793613696726226
6248179,-0.4814642,-0.7581182,-9.739504,0.0003161053,-3.179877e-05,8.869712e-05,0.0002239251,-0.0008476247,0.1086035,0.0008767041019979888,0.10860703854876286,4.592445242699097e-06,0.07047804571343645
6268361,-0.4741985,-0.7552705,-9.740012,0.0003658201,-8.811508e-05,0.0002173577,0.0004291866,-0.0007653352,0.1105171,0.000877461740464278,0.1105205832934118,4.6003861582221336e-06,0.07298342600580796
6288171,-0.4682487,-0.7523123,-9.735011,0.0001263041,0.0001763371,0.0002058686,0.0006917032,-0.0006542499,0.1125987,0.0009521009655179696,0.11260272526870094,5.416315085027993e-06,0.07575925808418278
6308558,-0.4664496,-0.7517776,-9.7291,-0.0001347464,0.0003052668,0.0002274008,0.000736239,-0.0006771834,0.1142362,0.0010003125623306746,0.1142405795488729,5.978735703580444e-06,0.07797918734358258
6328145,-0.4672507,-0.7626245,-9.732626,-0.000284125,0.0003691595,0.0001747681,0.001079622,-0.0009355617,0.1158094,0.001428586489293137,0.11581821095025338,1.2194134660410568e-05,0.08014780147661141
6348207,-0.4767129,-0.7658658,-9.740767,3.088552e-05,0.0003635057,1.993981e-05,0.0009046854,-0.0009653136,0.1164226,0.0013229837562563345,0.11643011670860473,1.0457958965425767e-05,0.08099693315875642
6368166,-0.480262,-0.7607546,-9.755413,0.0001528468,0.0004386225,-7.726946e-05,0.0009073117,-0.0009089297,0.1179583,0.001284277119822268,0.11796529110976033,9.854972129981405e-06,0.08314696419199771
6388170,-0.4759538,-0.76189,-9.744417,0.0001367228,0.0005219578,2.656909e-05,0.0009582355,-0.001107358,0.119159,0.001464396467362664,0.11916799796091912,1.2813130656404892e-05,0.08485104513463139
6408574,-0.4819541,-0.766423,-9.741467,0.0001582199,0.0005195182,-5.741757e-05,0.000961351,-0.001325477,0.120148,0.0016374019123996406,0.1201591569087547,1.601948301081175e-05,0.08626838235941083
6428377,-0.4776684,-0.7604558,-9.745101,0.000146109,0.0005547029,-3.293e-05,0.001014614,-0.001173474,0.1209441,0.0015512842414180583,0.12095404833079243,1.4378734716090202e-05,0.08741354380045582
6448220,-0.4726749,-0.7580576,-9.744878,0.0001956254,-0.0001605006,-6.744642e-06,0.00111095,-0.001209677,0.1217778,0.001642415400204528,0.1217888751125768,1.6117731872303275e-05,0.0886243673545913
6468195,-0.4730056,-0.757935,-9.742755,-1.929239e-05,-0.0002348656,1.899237e-05,0.001316576,-0.001235559,0.1225686,0.0018055410286828156,0.12258189786573814,1.9478370977385573e-05,0.08978227206408838
6488155,-0.4737544,-0.7587897,-9.738675,-8.65464e-05,2.65961e-06,0.0002180898,0.001357289,-0.001135324,0.1234794,0.0017695180175677783,0.12349207836284276,1.8708884236619575e-05,0.0911205031747876
6508536,-0.4687396,-0.7564805,-9.75088,0.0002335566,-0.0001342941,0.0002272,0.001728007,-0.001018288,0.1235855,0.002005721476923703,0.12360177478051435,2.4036938891883177e-05,0.09128245740513562
6528172,-0.4664877,-0.7584587,-9.73597,0.0004482426,5.271507e-05,5.928754e-05,0.001592258,-0.001103666,0.1245262,0.0019373601054321315,0.12454126966840398,2.2426350964267e-05,0.09267540390744326
6548232,-0.4748969,-0.7571303,-9.735503,0.0006337828,0.0005931121,-0.0003549984,0.001694479,-0.00102394,0.1251397,0.001979826306785775,0.1251553603658071,2.3420280425119977e-05,0.09359158876406284
6568158,-0.468981,-0.7566921,-9.743461,0.0005181983,0.00117666,-0.0004320769,0.001951445,-0.0009782348,0.1253909,0.002182906528451468,0.12540989946460349,2.8471358448937333e-05,0.09397266623023867
6588338,-0.4718177,-0.7577506,-9.737129,0.0003814921,0.001610933,-0.000145877,0.002130989,-0.0009640948,0.1262642,0.002338929862460189,0.12628586141980228,3.2686792586510534e-05,0.09529000979738549
6608544,-0.4784822,-0.7581564,-9.729485,-0.000224797,0.002026244,0.000111102,0.001816993,-0.001015235,0.1270862,0.0020813855162544973,0.1271032430589687,2.5884689861962153e-05,0.09652752551674096
6628190,-0.4799788,-0.7629012,-9.740059,-0.0003834342,0.001599501,0.0001915514,0.001766547,-0.001131414,0.1273452,0.0020978050296929407,0.1273624777906845,2.6294696007064875e-05,0.09692167447517103
6648264,-0.4835736,-0.7621196,-9.747234,-9.957646e-05,0.0008822944,0.0003471447,0.001639418,-0.001043929,0.127659,0.0019435738050727581,0.12767379433593945,2.257043783619587e-05,0.09739607161681119
6668153,-0.4850025,-0.7572191,-9.743836,0.0001377911,0.0001140147,0.0005154078,0.001495957,-0.0009372233,0.1284852,0.0017652973856865845,0.12849732640759462,1.8619742287973542e-05,0.09865658829105198
6688182,-0.4776624,-0.7544214,-9.732396,0.0002813531,-0.0003922167,0.0005265429,0.001839706,-0.0009025689,0.1293248,0.0020491824676400123,0.1293410338748909,2.5089913994457176e-05,0.09995639068685841
6708530,-0.4591649,-0.7585241,-9.727434,0.0009729189,-0.0007151202,0.0004330969,0.002135806,-0.0009356909,0.1301038,0.002331777161303972,0.1301246938869405,3.248717876162339e-05,0.10117130485604058
6728194,-0.4585453,-0.7611834,-9.732491,0.001540752,-0.0004202407,3.931202e-05,0.002477113,-0.0008871045,0.1305794,0.0026311676511939046,0.13060590625070786,4.136518317191826e-05,0.10192096891672292
6748390,-0.4671644,-0.7522638,-9.743633,0.001372943,9.268383e-05,-0.0003167412,0.00244538,-0.0005811981,0.1307665,0.002513498473411832,0.13079065408822546,3.774810559066557e-05,0.10220951630103443
6768184,-0.4656331,-0.7513199,-9.744051,0.0009885638,0.0006585371,-0.0003420524,0.002791936,-0.0005345577,0.1316189,0.0028426499191292077,0.13164959360276327,4.828193491228362e-05,0.10355640258724204
6788177,-0.4643433,-0.7588893,-9.7283,0.0005264626,0.001346642,-0.0002074066,0.002823715,-0.0005311072,0.132565,0.00287322836877211,0.13259613367764203,4.932626152322311e-05,0.1050508646308982
6808563,-0.4783214,-0.7589074,-9.724544,0.0003979161,0.001578957,-3.359459e-05,0.002601187,-0.0005127923,0.1329173,0.0026512506014913584,0.13294373911185856,4.1999050267652036e-05,0.10560237567002541
6828165,-0.4738253,-0.7570261,-9.737636,0.0002450813,0.001896608,0.000275994,0.002888885,-0.0004503457,0.1333871,0.002923776289789198,0.13341913998449673,5.1077095061582594e-05,0.10635898481236132
6848225,-0.467711,-0.7611603,-9.730597,0.0002147796,0.001891666,0.0003042238,0.002940927,-0.0005748001,0.1341239,0.0029965725044271848,0.1341573702708289,5.3652194476376837e-05,0.10753924498795613
6868172,-0.4795545,-0.7633595,-9.729224,0.0001833778,0.001618472,0.0002252201,0.00257923,-0.0004646631,0.134872,0.0026207516458836024,0.13489746003238684,4.1038326656674626e-05,0.10872901522105669
6888183,-0.488205,-0.7584119,-9.729455,-0.000109181,0.001558696,0.0004265696,0.00228638,-0.0004743517,0.1354563,0.002335068101724849,0.13547642508100696,3.257894466216502e-05,0.10966432397255992
6908780,-0.4791497,-0.7597169,-9.727784,-0.000186008,0.001302303,0.000672192,0.002237172,-0.000525491,0.1353868,0.0022980599097205887,0.13540630226687628,3.1554449108273374e-05,0.10955082849419226
6928172,-0.4717945,-0.7599549,-9.73663,-0.0003499861,0.001234886,0.0005652039,0.002391316,-0.00041571,0.1350216,0.0024271808782939932,0.13504341403258419,3.5199961920337105e-05,0.10896442394961632
6948222,-0.4738654,-0.756488,-9.743891,6.947867e-06,0.0006586436,0.00030701,0.002167426,-0.0002637148,0.1349016,0.0021834103968826016,0.13491926831821027,2.8484503743259864e-05,0.10876417355703927
6968198,-0.4773595,-0.7611248,-9.740436,0.0002519848,0.0003549854,0.000266615,0.002319118,-0.0004037044,0.134782,0.002353993530259452,0.13480255490731807,3.310918110450757e-05,0.1085760796370045
6988186,-0.4679841,-0.7599759,-9.737857,0.0001954197,1.136044e-05,0.000257217,0.002290158,-0.0003031725,0.134685,0.0023101379243933144,0.134704810464325,3.1887004947578495e-05,0.1084186811243226
7008563,-0.4706469,-0.7606621,-9.733828,0.0002603974,-0.000320763,3.684115e-05,0.002347699,-0.0003723344,0.1345549,0.002377040912568473,0.13457589471190606,3.376068291264554e-05,0.1082112618391224
7028146,-0.4730296,-0.7552392,-9.740653,0.0005924168,-0.0001663348,6.914129e-05,0.002237637,-0.0001036456,0.1341115,0.002240036105550167,0.13413020612078463,2.9981126481155945e-05,0.10749570035917493
7048258,-0.4679522,-0.7548892,-9.744411,0.0007466845,-0.0001726487,0.0002246987,0.002445887,-6.61987e-06,0.1341008,0.0024458959584266493,0.1341231037803683,3.574488206070071e-05,0.10748431663188467
7068358,-0.4728203,-0.7589287,-9.74511,0.0007559464,0.0002561173,0.0003900236,0.002293412,2.832216e-06,0.1336813,0.002293413748801439,0.13370097126166733,3.142698607356903e-05,0.10680879955497131
7088176,-0.4730971,-0.7587661,-9.746458,0.0006978376,0.0004141158,0.0004693383,0.002428446,0.0001652294,0.133665,0.002434060543524002,0.13368716047448065,3.539978810900365e-05,0.106786734832484
7108569,-0.4791853,-0.753758,-9.741992,0.0004816923,0.0004013693,0.0004576257,0.002163589,0.000307968,0.1329488,0.0021853973666006374,0.1329667604444432,2.8536370858421374e-05,0.1056389523139624
7128192,-0.4732318,-0.7518069,-9.733258,0.0005576564,0.000615167,0.000288813,0.002161164,0.000520093,0.13225,0.002222864495092987,0.13226867968859274,2.952323121718138e-05,0.10453264666871717
7148183,-0.4665718,-0.7522342,-9.736552,0.00070262,0.001032135,8.579766e-05,0.002438857,0.0007693694,0.1318464,0.002557333130451596,0.13187119907584108,3.907621762212952e-05,0.10390532854555815
7168130,-0.4672783,-0.7571484,-9.728888,0.000606706,0.001369428,1.335233e-05,0.002259445,0.0007031023,0.1314612,0.002366314550580774,0.13148249522271885,3.3456681199934486e-05,0.10329368813620389
7188175,-0.4693482,-0.7603251,-9.723983,0.0004363398,0.001642998,3.562405e-06,0.002309388,0.0007419507,0.1312033,0.0024256470839292533,0.13122572040063554,3.5155488560252575e-05,0.102890633425628
7208546,-0.4685234,-0.7621241,-9.734505,0.000295832,0.001231186,-4.895359e-05,0.002387496,0.000661354,0.1300542,0.002477403128950151,0.13007779389236018,3.6671719423408686e-05,0.10109838897182243
7228342,-0.4684998,-0.7572398,-9.748248,0.0001239995,0.0007908043,-0.0003460575,0.002309789,0.0009088551,0.1284625,0.0024821649456305294,0.12848647807869637,3.681282833346913e-05,0.09863993091817724
7248263,-0.4756237,-0.7572739,-9.746013,-0.0002290289,0.0005084509,-0.0005173641,0.002097738,0.0009524429,0.1275212,0.002303834237614419,0.12754200916417463,3.171322186156635e-05,0.09719511050726558
7268186,-0.4734313,-0.7593969,-9.743324,-0.0004805662,-0.0001739496,-0.0006134963,0.00224418,0.001108038,0.1263409,0.002502816829463155,0.12636568800466305,3.7427950189017894e-05,0.09541051545172875
7288183,-0.4769021,-0.7500753,-9.745833,-0.0005571107,-0.0001128538,-0.0004804085,0.001884693,0.00138034,0.1255302,0.0023361092054630067,0.12555193554167077,3.2608002163597775e-05,0.09418564889660261
7308535,-0.4750998,-0.7551224,-9.735567,-0.0003749329,0.0001158464,-0.0003338107,0.001661808,0.001386383,0.1251315,0.002164177361390004,0.1251502135671432,2.7984890318029175e-05,0.09358389133651178
7328169,-0.4811763,-0.7541652,-9.731049,-0.0004412955,0.0003648482,-0.0002404995,0.001483048,0.001600295,0.1247795,0.002181828466522747,0.12479857369260007,2.844324335754078e-05,0.09305873687435129
7348207,-0.4772236,-0.7526316,-9.728743,-0.000133988,-0.0001124332,-0.0003283437,0.001402463,0.001681559,0.1243788,0.002189644522942023,0.1243980724632695,2.864739524267875e-05,0.09246241058464667
7368176,-0.4728175,-0.7579582,-9.729009,0.0004883739,-0.0005436038,-0.0004852653,0.001345863,0.001602242,0.1242591,0.002092492925037741,0.1242767172862694,2.6161696681964677e-05,0.09228209719522172
7388398,-0.4732118,-0.7616825,-9.736825,0.0008580222,-0.0005267703,-0.00053057,0.001266828,0.001718332,0.1238497,0.0021348344300689925,0.12386809802420398,2.72311703117528e-05,0.09167625160609949
7408542,-0.4756832,-0.7573612,-9.744667,0.001000836,-0.0003091781,-0.0003756872,0.001190964,0.001891434,0.1230542,0.0022351549891790503,0.123074497989899,2.98506090082707e-05,0.09050530903140727
7428185,-0.473644,-0.7582026,-9.741593,0.0006343623,-0.0004384827,-8.661314e-06,0.001094583,0.001911788,0.1220562,0.0022029628459946846,0.12207607875313178,2.8996945672477173e-05,0.08904284979735147
7448256,-0.4813415,-0.7559695,-9.763877,0.0004075567,-0.0008212562,0.0001204206,0.0007710904,0.002219654,0.1207165,0.002349775368984908,0.12073936730219638,3.2990629601011755e-05,0.08710351902879475
7468164,-0.4871836,-0.7549789,-9.761644,-0.0001760981,-0.0008497706,0.0002454989,0.0006038177,0.002162909,0.1200221,0.0022456115329936945,0.12004310583939053,3.0130557663757886e-05,0.08610182487591352
7488183,-0.4833165,-0.7579669,-9.752966,-0.0002126793,-0.0005632255,0.000109836,0.0004011538,0.002318584,0.1193833,0.002353031265476606,0.11940648673764047,3.3082117914454865e-05,0.0851910067232822
7508540,-0.4717712,-0.7533612,-9.740007,-0.0002585441,-0.0002930365,-0.0001342276,0.0004444575,0.002570602,0.1188282,0.0026087424387451993,0.118856832585896,4.066308424246874e-05,0.08440850624780144
7528166,-0.473996,-0.7510449,-9.74754,-0.0003207619,-0.0001496145,-0.0001431766,0.0004373499,0.002685707,0.11763,0.0027210837960046376,0.11766146861664135,4.424067472365207e-05,0.08271922165222365
7548404,-0.4746305,-0.7605558,-9.750667,-0.0005900728,0.000450561,-7.823042e-05,0.0002226785,0.002593111,0.116947,0.002602654485843876,0.11697595744157294,4.047351697678241e-05,0.08175816335075177
7568182,-0.4712198,-0.7566745,-9.75175,-0.0007153029,0.0005953394,5.479502e-05,0.0004387905,0.002840008,0.1161488,0.0028737053681535014,0.11618434457353947,4.934264069415165e-05,0.08065534149579813
7588170,-0.4646365,-0.7569426,-9.749538,-0.0003061839,0.0002197821,0.0001350849,0.0007638339,0.002810993,0.1156291,0.002912923595434355,0.11566578530699058,5.06986151402083e-05,0.07993697899682994
7608538,-0.4626277,-0.7546806,-9.748165,-0.00012376,0.0001138871,0.0001230515,0.0008250602,0.003134104,0.1144913,0.003240884480576258,0.1145371603799677,6.275740999322925e-05,0.07838459761974098
7628165,-0.4655623,-0.7535202,-9.73918,-4.562647e-06,0.0002060746,3.935536e-05,0.0007664511,0.003166728,0.1135676,0.003258161063341592,0.11361432736796305,6.342829075018439e-05,0.07712658691506619
7648252,-0.4678721,-0.7559682,-9.747559,-0.0001990013,0.0004661024,1.910717e-05,0.0008252413,0.003286552,0.112565,0.0033885759917596197,0.11261599208039651,6.860762233027991e-05,0.07577711099170527
7668179,-0.4614594,-0.7580795,-9.736713,-0.0003039827,0.0007437634,8.058615e-05,0.001302574,0.003267212,0.1121625,0.003517296302335076,0.11221763577766383,7.391895533855949e-05,0.0752419667326823
7688154,-0.4584522,-0.7578087,-9.73436,-0.0003202558,0.0009062423,6.979702e-07,0.001267847,0.003293439,0.1115117,0.003529047529026777,0.11156752848993354,7.441370436122674e-05,0.07437269764477898
7708823,-0.4689449,-0.7638144,-9.736851,-0.0001924085,0.0007811842,2.690018e-05,0.001317393,0.003201845,0.1106657,0.003462273201304888,0.1107198468758446,7.162433092983214e-05,0.07324683484095759
7728189,-0.4714841,-0.7600267,-9.742123,-5.550621e-05,0.000592449,-5.119488e-06,0.001251843,0.003306594,0.1100516,0.0035356293325920067,0.11010837995964469,7.469153179547286e-05,0.07244003564059147
7748226,-0.4704365,-0.7609605,-9.747944,0.0002217972,0.0003814494,1.807851e-05,0.001487186,0.003231121,0.1094023,0.0035569460377178905,0.10946010739262609,7.559489406354108e-05,0.07158955278467127
7768156,-0.4623626,-0.7575431,-9.741119,0.0004616324,0.0003821932,-0.0001111079,0.001606772,0.00335749,0.1089199,0.0037221573529451976,0.10898348072698946,8.27803707765019e-05,0.07096745945143625
7788174,-0.4656757,-0.7580128,-9.741277,0.0006049058,0.0004103329,-0.0001481006,0.00164982,0.003284324,0.1084749,0.0036754170061880052,0.10853714857217954,8.071442376202158e-05,0.07038736790557176
7808580,-0.4711259,-0.7579584,-9.742271,0.0003412456,0.0007147288,-0.0001994622,0.001538887,0.003473831,0.1070918,0.0037994308804517028,0.10715917740564888,8.625315821659675e-05,0.06861145858097559
7828164,-0.4749043,-0.7539818,-9.753904,8.729767e-05,0.0009200306,-0.0001665279,0.001393374,0.00365108,0.1057543,0.003907924803559557,0.10582647988457461,9.12494607148991e-05,0.06691548197244264
7848233,-0.4730178,-0.7530664,-9.757066,5.575353e-05,0.0006507008,-0.000185753,0.001487517,0.003861058,0.1043423,0.004137689657846877,0.10442430773050236,0.0001022948423353017,0.06515400536884305
7868364,-0.467921,-0.7508113,-9.750832,-0.0002077026,0.0003309127,-0.0001595775,0.001675148,0.004013771,0.103494,0.004349307814163652,0.10358534893730072,0.00011302595881251137,0.06411129897391252
7888220,-0.4630538,-0.7518429,-9.747135,-0.0002148542,0.0001801116,-0.0002307242,0.001833693,0.004197935,0.102619,0.004580948404258009,0.102721196689303,0.00012538590248778212,0.06304607438946278
7908540,-0.4584754,-0.7533605,-9.746602,-0.000147321,8.032125e-05,-0.0002802858,0.002254958,0.004426043,0.1014991,0.004967362702643426,0.10162057859031119,0.0001474312860121877,0.06170228340835194
7928177,-0.460112,-0.7505153,-9.750058,-0.0004207977,0.0002714335,-0.0002029422,0.002036505,0.004576302,0.1003661,0.005008981194836831,0.10049101413469878,0.00014991210834611827,0.060338202432875875
7948236,-0.4667278,-0.7522275,-9.746237,-0.0003257865,0.000670486,-0.0002282815,0.002265498,0.004696566,0.09995792,0.005214423590423011,0.10009383589465817,0.00016246152494765102,0.05986218650503789
7968131,-0.4642236,-0.7544084,-9.739247,-0.0003364691,0.00120552,-0.0001829047,0.002299859,0.004850907,0.09905415,0.005368486764678665,0.09919952259141689,0.0001722033846016167,0.05879725806213104
7988183,-0.4585221,-0.7550728,-9.747067,-6.120238e-05,0.001324277,5.862749e-05,0.002508025,0.004896736,0.09835485,0.005501655464887001,0.09850860232171005,0.00018085257180456795,0.05798106976997649
8008548,-0.4690968,-0.7597746,-9.743336,-1.656113e-05,0.001132353,0.0002739356,0.002485196,0.004807162,0.0973331,0.005411562219235773,0.09748342095588697,0.0001749779087746435,0.0567805287335444
8028355,-0.4706514,-0.7640037,-9.745378,0.0002201081,0.0008688978,0.0002097002,0.002470453,0.00464695,0.09633081,0.005262820757702945,0.096474464173603,0.00016549126190806127,0.055611250369563256
8048265,-0.4680978,-0.7612175,-9.741189,0.000414619,0.0004696218,-0.0001363499,0.002559582,0.004838753,0.09561693,0.005474028736655755,0.09577349473228297,0.00017904081889315467,0.054806059702076936
8068153,-0.460761,-0.7583614,-9.743254,0.0009690554,-0.0001103263,-0.0003264613,0.00286433,0.004820165,0.09467431,0.005606993577321541,0.09484019902421244,0.0001878443024323469,0.05374311352193954
8088184,-0.4602781,-0.7552572,-9.750725,0.001147685,-0.0006076339,-0.0003636186,0.002947292,0.005068508,0.09378819,0.00586313085981611,0.0939712769252149,0.00020539841328898477,0.05276284029955866
8108535,-0.4638722,-0.7547379,-9.755475,0.001428246,-0.0008395371,-0.0002045492,0.00313642,0.005120609,0.09198894,0.006004811982675311,0.09218472134399974,0.00021544515751000394,0.050775686524393515
8128180,-0.4574343,-0.7563712,-9.762381,0.00159026,-0.0005025255,-0.0002050775,0.003635111,0.005318927,0.09018514,0.006442438700806551,0.09041495724288791,0.00024799247307155875,0.04884481534706866
8148175,-0.454448,-0.7581965,-9.765247,0.001252538,-0.0002053862,-0.0001572435,0.003759148,0.005386478,0.08845417,0.006568511165430718,0.08869771997813297,0.0002577934001090683,0.04700703103768275
8168177,-0.4605125,-0.7560647,-9.761199,0.0009387753,-8.549447e-06,-0.0001616149,0.003744182,0.005552862,0.0872869,0.006697251319770522,0.08754345256414192,0.00026799772206000376,0.04579154011892975
8188343,-0.4685054,-0.7579913,-9.755665,0.0005299145,0.0008528189,-0.0002101857,0.003995387,0.005674636,0.08582829,0.006940072839118117,0.08610841988642205,0.00028778355079828335,0.04430259335263478
8208545,-0.4645972,-0.7558081,-9.751785,0.0003509303,0.001355652,-0.0003293012,0.004001713,0.005796015,0.08396318,0.007043258962624759,0.08425807434618354,0.0002964047934671991,0.04241905297784878
8228155,-0.4654268,-0.7558272,-9.744755,0.0002337551,0.001565888,-0.000527237,0.004148097,0.005876563,0.08246279,0.007193100959556872,0.08277591700487816,0.00030915069095090853,0.04093981830509089
8248204,-0.4689128,-0.7554639,-9.755602,0.0001624358,0.001568075,-0.0005928578,0.004101361,0.006136702,0.08028215,0.007381075361295602,0.08062074101688489,0.00032551963409752186,0.03883573069561696
8268147,-0.4645961,-0.74713,-9.753424,0.0005189335,0.001533954,-0.0003669031,0.004225479,0.006460913,0.07919811,0.00771997859925855,0.0795734798607244,0.00035609846569873473,0.037833333715442036
8288168,-0.460617,-0.7520169,-9.740637,0.000661471,0.001634739,-0.0001562075,0.004415866,0.006506883,0.07817395,0.007863803081565878,0.0785684787781216,0.00036949040846122886,0.03688370999861116
8308537,-0.4559256,-0.7557321,-9.74668,0.0003272277,0.001976848,-4.171881e-06,0.004775489,0.006606608,0.07669094,0.008151844236415769,0.07712297221022012,0.00039705407261734035,0.035539018234166844
8328156,-0.4579109,-0.7583693,-9.754642,-0.0001928024,0.001911425,5.810983e-05,0.004787498,0.006706127,0.07547867,0.008239676962122544,0.07592708279269679,0.00040565635172979466,0.03444540836091897
8348413,-0.4675193,-0.7603815,-9.760338,-0.0004484073,0.001635659,2.240593e-05,0.00481806,0.006795845,0.07406541,0.008330498870273316,0.07453242361479817,0.00041464833828005923,0.03319161596512695
8368178,-0.4518527,-0.7564954,-9.748036,-0.0005811264,0.0009802369,-0.0001773139,0.005294267,0.006920152,0.0737486,0.008713080211405894,0.0742615228010468,0.00045360865645309803,0.0329507732681641
8388197,-0.4498281,-0.7506821,-9.745775,-0.0002489247,0.000525552,-0.0002353809,0.005615914,0.00731314,0.07271445,0.009220656522992058,0.07329673761851543,0.000507997527622101,0.032100160179467034
8408568,-0.4573974,-0.7493717,-9.745174,-0.0001191295,2.648413e-06,-0.0002579848,0.005729377,0.007420691,0.07175585,0.009375095504879404,0.07236569922931796,0.0005251571839605197,0.031289846689064954
8428177,-0.4603897,-0.754705,-9.746699,4.993529e-05,-0.0002697243,-0.0001575655,0.005779466,0.007501323,0.07056453,0.009469533990407605,0.07119708539059998,0.0005357906421230228,0.030287424184495395
8448192,-0.4572175,-0.7575985,-9.753926,-0.0001241599,5.388597e-05,-0.0002514266,0.006138914,0.007610498,0.06925849,0.009777829253336345,0.06994529563871683,0.0005712455208217149,0.029231757682375313
8468200,-0.460761,-0.7590451,-9.758425,-0.0001232499,4.916994e-05,-0.0002595428,0.005934524,0.007641495,0.06820189,0.00967527885601242,0.06888475027546882,0.000559325850126066,0.028352025202569367
8488164,-0.464431,-0.7596893,-9.761978,0.0001166584,-8.533625e-06,-0.0003410478,0.006106176,0.007697143,0.06711314,0.00982503922157184,0.06782849663942896,0.0005767750893399142,0.027489212114281025
8508851,-0.461017,-0.7622837,-9.752435,0.0003418533,2.123979e-05,-0.0002187621,0.006334863,0.007671849,0.06627841,0.009949259083347362,0.06702100706819966,0.0005914518439377307,0.026838596945903122
8528207,-0.4690624,-0.7571121,-9.754227,0.0006887456,-0.0003014148,-0.000387382,0.006137419,0.007870843,0.06515018,0.009980885807993698,0.06591027261015243,0.0005952180370354548,0.025956380112379045
8548249,-0.4693969,-0.7540592,-9.763409,0.001389917,-0.0008443768,-0.0004989853,0.006100507,0.008182749,0.06405459,0.010206545294763062,0.064862655410661,0.0006224370619529487,0.025137805299859844
8568179,-0.4719888,-0.7529026,-9.764037,0.001685009,-0.001044346,-0.0004784513,0.006058084,0.008308985,0.06323865,0.010282976878379188,0.06406923183013653,0.0006317941905506539,0.024526577142140085
8588155,-0.4689929,-0.7512448,-9.75696,0.001127801,-0.0004194474,-0.0002789347,0.006024896,0.008702543,0.06260334,0.01058459382676846,0.06349182471494472,0.0006694009182040484,0.024086490538658755
8608539,-0.4737756,-0.751248,-9.748977,0.0008268449,0.0006359522,-0.000412047,0.005947628,0.008805096,0.06151798,0.010625629129402174,0.06242888640426001,0.00067460136651371,0.0232867609996141
8628161,-0.4684347,-0.7563255,-9.751296,0.0006599094,0.001677544,-0.0003954658,0.005887008,0.008806307,0.06062935,0.010592823333290941,0.06154775371687266,0.0006704422393676202,0.022634052775867053
8648180,-0.4609419,-0.7612256,-9.758081,9.894419e-05,0.002305642,-0.0002471943,0.006166067,0.00886949,0.05962825,0.010802232876058034,0.06059881544362966,0.0006972122047738193,0.021941493188197252
8668390,-0.4521869,-0.7561578,-9.750263,-6.070946e-05,0.002029788,-0.0001067441,0.006509358,0.009074717,0.05915974,0.011167910735775648,0.060204626625117885,0.0007452153254584615,0.021656967475742375
8688182,-0.4466485,-0.7568015,-9.742828,0.0001156285,0.00123331,-3.696078e-06,0.006792952,0.0091063,0.05870742,0.011360849288864983,0.05979657230661892,0.0007711866569717163,0.021364389606233707
8708584,-0.4579553,-0.758056,-9.755343,0.0006735444,0.0003267546,-3.178113e-06,0.006830616,0.009305107,0.05659206,0.011543064204140294,0.057757281673088676,0.0007961229290449073,0.019932023927930417
8728114,-0.4640614,-0.7589725,-9.759431,0.001056496,-0.0003106308,3.576863e-05,0.006672726,0.009397692,0.0548659,0.011525705496755502,0.056063436123804794,0.0007937302760076915,0.018780075498297442
8748225,-0.4662069,-0.7570749,-9.758032,0.001213428,-0.0007829737,0.0001120383,0.00685935,0.009557234,0.05322618,0.011763987595762587,0.05451071125518044,0.0008268886398157047,0.017754220408235294
8768172,-0.4642729,-0.754257,-9.749864,0.001335421,-0.0009670712,-6.935415e-05,0.00700088,0.009758797,0.05192956,0.012010263929723151,0.05330033434656117,0.0008618724769781137,0.01697453070769487
8788177,-0.4564307,-0.7566826,-9.754174,0.001282471,-0.0006119557,-0.0003290188,0.007038621,0.009908778,0.05051373,0.01215426127063776,0.05195539419105416,0.0008826632505336769,0.01612869383864825
8808567,-0.4644815,-0.7540999,-9.758174,0.001070723,-0.0002939303,-0.0004131981,0.006984048,0.01016224,0.04960155,0.012330776467193945,0.0511112689207224,0.0009084870884963262,0.015608861818851263
8828380,-0.46599,-0.7508143,-9.760386,0.0007984716,0.000139834,-0.0004696032,0.007132275,0.01047821,0.04848006,0.012675260607960887,0.050109664228403336,0.0009599568330913568,0.015003096233272865
8848209,-0.4631893,-0.7585521,-9.76615,0.0008679249,0.0004318887,-0.0006172164,0.007194267,0.01037795,0.04747102,0.012627720454214569,0.04912185932668051,0.0009527694601219892,0.01441741845566838
8868206,-0.4588295,-0.7597497,-9.756611,0.0009346723,0.0005000473,-0.0007058339,0.007238226,0.01060022,0.0470143,0.012835753958201131,0.04873500778870848,0.0009844205635609691,0.014191228380388717
8888162,-0.4628845,-0.7605532,-9.750773,0.0005959736,0.0007110921,-0.0006856332,0.007357064,0.01062646,0.04645315,0.012924706682617445,0.048217664685820234,0.0009981120559193837,0.013891535546831318
8908538,-0.4563124,-0.7590381,-9.745594,0.0003926563,0.0009561385,-0.0004329458,0.007694911,0.01068197,0.0457054,0.013164958730615945,0.0475636387121383,0.0010355639268134554,0.013517240872044454
8928155,-0.4600348,-0.760989,-9.752727,0.00068488,0.0006414959,-0.00022147,0.007555328,0.01081644,0.04482887,0.01319387568007157,0.04673013953475941,0.0010401181738805743,0.013047642997105051
8948224,-0.4630389,-0.7595429,-9.75734,0.0007322342,0.0005057442,-0.0001482873,0.007607317,0.01094026,0.04387435,0.013325185207196522,0.04585323487747172,0.0010609243508163818,0.01256255191365332
8968173,-0.4656308,-0.7550251,-9.760468,0.0005748694,0.0002486603,3.725633e-05,0.007609756,0.0111776,0.04326453,0.013522097771408694,0.04532843130156212,0.0010925115906337275,0.012276633438456107
8988392,-0.4639219,-0.7534763,-9.75679,0.000315394,0.0006192108,0.0001789041,0.007833958,0.01140351,0.04264274,0.013835134197609506,0.04483095150644768,0.0011436803561385375,0.012008639922516445
9008545,-0.4586934,-0.7539448,-9.771756,0.0003503535,0.0003687195,0.0002810368,0.007904998,0.01159771,0.04167227,0.014035521743921885,0.04397242269396814,0.0011770503269790216,0.0115531043965226
9028207,-0.4538396,-0.7567478,-9.778337,0.0002752102,0.0004853865,0.0003099609,0.008202248,0.01177745,0.04110277,0.014352184529053548,0.043536454867488965,0.001230761574517124,0.011325151842012698
9048185,-0.4503155,-0.7598314,-9.772038,0.000196359,0.0007984012,0.0003425559,0.008534035,0.01185204,0.04077459,0.014604814464512207,0.04331128946603789,0.0012744711181183793,0.011208310076385276
9068171,-0.4476229,-0.7614058,-9.76432,0.0001154869,0.0009012098,0.0004036264,0.008906284,0.0119681,0.04044304,0.014918354879096289,0.043106806849269826,0.0013297799409844697,0.011102725860523029
9088161,-0.4416413,-0.755845,-9.754066,0.0001406472,0.0008995983,0.000183132,0.009285032,0.01218979,0.04057033,0.015323276395246678,0.0433676662479551,0.0014029467269236159,0.011237507992869293
9108559,-0.4517663,-0.7515924,-9.753767,0.0007115866,0.000458764,0.000192537,0.009491997,0.01241007,0.04001322,0.015623950987279403,0.042955391037928045,0.0014585443706061315,0.011024864574847321
9128149,-0.4457308,-0.750347,-9.757739,0.000853702,7.745342e-05,0.000117568,0.009958543,0.01275537,0.03956166,0.016182460953753263,0.04274338527158733,0.0015646854540555001,0.010916306982240208
9148422,-0.4557953,-0.7511525,-9.749843,0.001067178,-4.071599e-05,2.194497e-06,0.009770337,0.01295171,0.03951952,0.01622363328658747,0.04272000395655493,0.001572657505180572,0.010904367459837212
9168176,-0.4617823,-0.7552916,-9.746683,0.00099672,-0.0002548243,-0.0001134499,0.01008932,0.01308414,0.03931488,0.016522381716992256,0.04264561978698868,0.0016311098581719497,0.010866427099922991
9188178,-0.456351,-0.755703,-9.748456,0.0008338625,-0.0004550604,-0.0002194421,0.01022589,0.01326274,0.03900159,0.0167472116664148,0.042445177831266064,0.0016758028641332074,0.010764518898738605
9208525,-0.45014,-0.7598138,-9.755737,0.0008893116,-0.0004011667,-0.0002893044,0.01054067,0.01326473,0.03872936,0.016942809271835647,0.04227318431383422,0.0017151762464802547,0.010677457119387612
9228180,-0.4484186,-0.7573004,-9.760814,0.0008308958,-7.488213e-05,-0.0001643075,0.01089708,0.01362072,0.03832811,0.017443347323400974,0.042110739509261766,0.0018180154359226795,0.010595553432550975
9248200,-0.4495796,-0.7540296,-9.761235,0.0008080322,0.0001833168,-0.0001296975,0.01110893,0.01381165,0.03850107,0.017724841366494652,0.04238516712969644,0.001877165758767715,0.01073410179585849
9268164,-0.4606498,-0.7558283,-9.76744,0.001039129,0.0005173249,-0.0002254953,0.01102689,0.01394934,0.03783831,0.017781349484999723,0.041808062537790486,0.0018891539273085069,0.010443786706653706
9288155,-0.467484,-0.7549695,-9.773837,0.001332389,0.0005833555,-0.0002225377,0.01077362,0.01426914,0.03758568,0.017879576176296798,0.041621660049863465,0.0019100834843578998,0.010350866447205741
9308824,-0.4753295,-0.7535558,-9.772897,0.001274744,0.0003971373,-0.0001027925,0.01068707,0.01453634,0.03725814,0.01804213528883153,0.04139671052197384,0.0019449739085384873,0.010239283661189596
9328192,-0.4714573,-0.7530289,-9.759408,0.001319245,-0.0003258,-3.777717e-06,0.01053603,0.01467374,0.03782877,0.01806451144505436,0.041920668094168057,0.0019498012781472872,0.010500120920431863
9348211,-0.4639231,-0.7603223,-9.745808,0.001381709,-0.001450546,-1.17971e-05,0.01077698,0.01466071,0.03826322,0.01819559605026722,0.04236925442337757,0.0019782013008563873,0.010726043479347577
9368150,-0.4634281,-0.7614383,-9.750531,0.001569308,-0.001803948,0.0001288883,0.01054665,0.01488275,0.03849541,0.018240835336820516,0.042598411529693216,0.001988050240865375,0.01084238237249727
9388182,-0.4664638,-0.7512689,-9.761193,0.001420468,-0.001476906,0.0003477111,0.01061887,0.01522895,0.03856355,0.01856559501280258,0.04279986806967868,0.002059470876121915,0.010945176523021854
9408562,-0.4671057,-0.7547356,-9.75734,0.00111339,-0.0008026947,0.0005121648,0.01058553,0.01540221,0.03880292,0.018689074837053867,0.043069108637066075,0.002086957071633375,0.011083315009778612
9428174,-0.4623165,-0.7535751,-9.764227,0.0007081825,-0.0006400888,0.0005166856,0.01069337,0.01570536,0.03856193,0.019000170912033924,0.04298870712188726,0.002157013805751838,0.011041972916568115
9448196,-0.4634677,-0.7577258,-9.780279,0.0005385496,-0.0003192488,0.0004577531,0.01058846,0.01573823,0.03788543,0.01896858900141231,0.04236877594395901,0.0021498490280093875,0.010725801220561663
9468377,-0.4608969,-0.7614624,-9.767118,0.0006034396,9.670389e-05,0.0003634547,0.01077118,0.0158448,0.03850131,0.019159227688829213,0.043004963403640975,0.0021932791336535897,0.011050325592157283
9488175,-0.4590562,-0.7610072,-9.760747,0.0007966583,3.244328e-05,4.467851e-05,0.01084287,0.01608999,0.03844536,0.019402463968192285,0.04306392125163012,0.0022493222580210743,0.011080645348560434
9508545,-0.4602783,-0.7572829,-9.763694,0.001154428,-0.0001156889,-0.0001416122,0.01088574,0.01613647,0.03793811,0.01946496851804544,0.04264018280660391,0.0022638378714657874,0.010863656508939081
9528196,-0.4638134,-0.7603354,-9.764165,0.00121737,-0.0001806238,-6.266699e-05,0.010871,0.01629338,0.03732675,0.01958705880994898,0.04215375592265652,0.0022923259151257894,0.010617211351861725
9548192,-0.4619482,-0.76222,-9.771957,0.001297307,-0.0002269441,-0.0001343251,0.01104331,0.01642297,0.03679061,0.019790619984654347,0.041775801889958976,0.002340220120277575,0.01042767530070587
9568189,-0.4576004,-0.7616677,-9.768444,0.001425007,-8.603916e-05,-0.000227992,0.01109024,0.01661804,0.03636545,0.01997880568750795,0.04149215143134542,0.0023849372432777198,0.010286551816650157
9588192,-0.4564869,-0.7561591,-9.760529,0.00173028,0.0001350418,-0.0002693477,0.01121456,0.01689854,0.03615762,0.020281198439076522,0.041457212812604755,0.0024576788854980694,0.010269235452782858
9608573,-0.4625374,-0.7526945,-9.766126,0.001838233,-2.356443e-05,-0.000233705,0.01111746,0.01722397,0.03534084,0.02050031851978159,0.04085630956557506,0.0025110717799896876,0.009973697237125647
9628405,-0.4573579,-0.7499245,-9.76385,0.001649225,-0.0003430718,-0.0001784248,0.01135785,0.01756247,0.03525279,0.020915092854763995,0.04099024654606874,0.0026137106270123145,0.010039196863647314
9648221,-0.4562755,-0.7525738,-9.759593,0.00159205,-7.403464e-05,-0.0001228002,0.01155256,0.01770276,0.03479205,0.021138811560047554,0.04071039298967402,0.0026699248911729203,0.009902583181807855
9668191,-0.4522191,-0.759013,-9.761454,0.001504555,0.000152215,2.311799e-05,0.01176739,0.01793642,0.03463202,0.021451960978626176,0.040737739739814975,0.002749615113225288,0.00991589154867568
9688211,-0.4493215,-0.756344,-9.749974,0.001236712,-3.043441e-05,3.902956e-05,0.01202321,0.01818856,0.03469808,0.021803240437551937,0.0409797272961168,0.002840403229126757,0.010034044844352998
9708580,-0.4533521,-0.75418,-9.751656,0.0008580919,-0.0005843713,-6.442383e-05,0.01216691,0.01839761,0.03413598,0.022056875405646194,0.04064198424315181,0.0029068718721446942,0.009869331027243085
9728166,-0.4529027,-0.7567115,-9.748801,0.000375898,-0.001267615,-0.0001048496,0.01238217,0.01842467,0.03393762,0.02219879723133215,0.04055303502553416,0.0029443999261438546,0.009826178182448646
9748225,-0.4559295,-0.7594984,-9.762786,0.0007227453,-0.001856861,-7.291079e-05,0.01242507,0.01873911,0.03303312,0.022484141257717628,0.03995902432531856,0.003020581233379575,0.009540423659562617
9768191,-0.4603244,-0.7603637,-9.762423,0.001094035,-0.001494457,0.0001205832,0.01247778,0.01873862,0.03258803,0.02251290459342819,0.03960821344763861,0.00302831446756598,0.009373643170769356
9788362,-0.4608717,-0.767373,-9.767444,0.001335712,-0.0007077682,0.0002245722,0.01268611,0.01870005,0.03200873,0.022597107269174965,0.03918147589292037,0.003051009810184235,0.009172748617556313
9808569,-0.453698,-0.7612301,-9.764652,0.001237993,-0.0002099273,0.0002450614,0.01271077,0.01898809,0.03116672,0.022849753518167322,0.038645512952985885,0.0031196146341499744,0.008923517136611414
9828164,-0.4578862,-0.7599069,-9.772047,0.0009770438,-7.786858e-05,0.0002109766,0.01294397,0.01914963,0.02999345,0.02311395008426297,0.037866366757325694,0.0031921717637743556,0.008567323845116794
9848230,-0.4540002,-0.7560405,-9.770462,0.0007747515,0.0002306689,-5.726208e-05,0.0130247,0.01947508,0.02906487,0.02342907490910386,0.037332133869004865,0.00327980626780099,0.008327287109799467
9868158,-0.4570349,-0.7575685,-9.765441,0.0009168372,-2.22209e-05,-0.0001805415,0.01330188,0.01958741,0.02825672,0.02367713331555364,0.0368652799691105,0.0033496246862039373,0.008120316981525377
9888180,-0.4586656,-0.7597983,-9.764014,0.001052458,-0.0003289738,-0.0004139393,0.01313191,0.01972701,0.02752422,0.023698143045145965,0.03632058191159112,0.0033555718531344952,0.007882128405619686
9908545,-0.4623025,-0.7590359,-9.763954,0.001124029,-0.0006574086,-0.0006561728,0.01334069,0.01990456,0.02607111,0.02396175115615927,0.035410002754896815,0.003430638972856458,0.007491863063233255
9928200,-0.4582995,-0.7562916,-9.768027,0.00105523,-0.0003211298,-0.0006234516,0.01341126,0.02019139,0.02445131,0.024239515773210075,0.034429938798025764,0.0035106358963952074,0.007082888596673903
9948450,-0.453392,-0.7574126,-9.772336,0.001121584,-0.0001379258,-0.0004537452,0.01374917,0.0202794,0.0229663,0.02450089263779791,0.03358190994775163,0.0035867550967921768,0.006738274437539925
9968180,-0.446365,-0.7634753,-9.769267,0.001041222,-0.0001870483,-0.0002049376,0.01405116,0.02038171,0.0217138,0.024755791239015165,0.03292929258744712,0.003661773969221457,0.006478921404100455
9988202,-0.4372263,-0.7598999,-9.749212,0.000737597,-0.0001715869,-6.700961e-05,0.01481852,0.02061292,0.02114778,0.025386630456143644,0.033041029112986176,0.0038507740103528795,0.00652296488895007
10008560,-0.441289,-0.7558695,-9.757814,0.0003047934,-0.0001318018,0.000145647,0.01480814,0.02084824,0.01980745,0.025572057433010744,0.03234602289091659,0.00390723247510927,0.006251434551236708
10028160,-0.4530035,-0.7552566,-9.76998,1.52268e-05,0.0001117616,6.633497e-05,0.014938,0.02112445,0.01869678,0.025872499527538888,0.031921087296188706,0.003999582735019937,0.006088260989671127
10048227,-0.4675005,-0.7525375,-9.773777,2.49908e-05,0.0006070438,-5.978013e-05,0.01469492,0.02135577,0.01766197,0.025923147688876443,0.03136805334062348,0.004015257276943318,0.005879129753021695
10068200,-0.4716471,-0.7602032,-9.784923,0.0002246741,0.0004533701,-0.0002026474,0.01459209,0.02144892,0.01636595,0.025941959442850496,0.03067294539389721,0.004021086926913637,0.0056214567353435755
10088170,-0.4663854,-0.7614887,-9.776069,0.0003823171,0.0002150447,-0.0003995943,0.01458544,0.02169788,0.01570122,0.026144465121474565,0.03049690748217596,0.004084110012515799,0.00555711666170899
10108831,-0.4639964,-0.7576944,-9.769377,0.0005437776,0.0002345289,-0.0003710759,0.01453411,0.02181843,0.01472627,0.026216106521697688,0.0300690417085397,0.004106523340913075,0.005402279933887652
10128195,-0.4581889,-0.7597401,-9.770261,0.0007002824,8.144812e-05,-0.0002783191,0.01468816,0.02189163,0.01387091,0.02636257779964812,0.02978905256080831,0.004152538411748937,0.005302141223511836
10148218,-0.4509977,-0.7568335,-9.774097,0.0009358603,-8.135312e-05,-0.0002998067,0.01500561,0.02231593,0.01288099,0.02689180290045649,0.029817594916711508,0.0043209351528410754,0.005312306575537172
10168190,-0.4514812,-0.7530589,-9.761377,0.0007909203,-1.809635e-05,-0.0003543202,0.01507324,0.02251759,0.01265581,0.027096944910924924,0.02990675425822401,0.004387110430446558,0.0053441233528142545
10188157,-0.4535305,-0.7544289,-9.757644,0.000785661,-0.0003791961,-0.0003439223,0.01537055,0.02272436,0.01188705,0.027434473654730465,0.029899035141867036,0.004497085809654798,0.005341365006927235
10208542,-0.4575978,-0.7550924,-9.770985,0.0007962454,-0.0009600606,-0.0002800681,0.01533384,0.02298265,0.0107423,0.02762840658033141,0.029643310534724358,0.004560889879754396,0.0052503870102621475
10228168,-0.4613398,-0.7539954,-9.767922,0.0009397026,-0.0004506479,-0.0002637299,0.0153161,0.02329946,0.01001979,0.0278827501423658,0.029628431398670097,0.00464525033912206,0.005245117584195558
10248203,-0.4637986,-0.7504017,-9.772207,0.0009562796,-0.0002415783,-0.0001630817,0.0152203,0.02365075,0.008900626,0.028124997913822145,0.029499773742257346,0.004726317658223687,0.005199663988795147
10268357,-0.4581715,-0.7528902,-9.777335,0.0009145493,-0.0003798768,-9.439773e-05,0.01524313,0.02387381,0.007895237,0.02832510928686772,0.02940487346341026,0.004793813101275175,0.005166263335810033
10288162,-0.4665362,-0.7521809,-9.779281,0.001111265,-0.0004305894,-0.000100052,0.01515783,0.02429952,0.006908626,0.02863959641020278,0.029461086126400297,0.0049008532331723175,0.005186034684589377
10308576,-0.452767,-0.7520401,-9.773636,0.001117142,-0.0001725165,-8.064788e-05,0.01569791,0.02460547,0.005841289,0.029186529980266582,0.02976531856826869,0.005089824855426775,0.005293695782086362
10328190,-0.4489004,-0.7537404,-9.776968,0.001314364,-0.0001504189,-5.903573e-05,0.01581255,0.02477389,0.004664944,0.029390174603676652,0.02975809244151473,0.005161099620326734,0.0052911257929024735
10348210,-0.4448669,-0.7590225,-9.775486,0.001660121,-0.0001487791,-0.0001326671,0.01611921,0.02484382,0.003617451,0.02961493412480433,0.029835051113646528,0.005240339831218587,0.005318528392849558
10368127,-0.4589689,-0.7627674,-9.779384,0.001777366,-0.0001932997,-0.000122164,0.01590505,0.02502123,0.002607269,0.02964848337125189,0.029762903384141826,0.005252219583137014,0.005292836746676221
10388166,-0.4614224,-0.7566957,-9.77353,0.00179025,-0.0005126294,-0.0001325379,0.01611665,0.02534401,0.001670339,0.03003440111110258,0.03008081253020804,0.005389839869363034,0.005406510312803188
10408539,-0.4577107,-0.7496755,-9.771582,0.001632764,-0.0003792762,-2.347314e-05,0.01604239,0.02580108,0.0005196871,0.03038180386478887,0.03038624821790947,0.005515247686319037,0.005516861382543428
10428374,-0.4571089,-0.7530912,-9.771162,0.001219855,-0.00011804,0.0001772783,0.01628411,0.02592472,-0.0007539453,0.0306147569902245,0.0306240392353114,0.005600148489783736,0.005603544880038205
10448233,-0.4617153,-0.7512417,-9.767598,0.0008058354,0.0007382724,0.0001783318,0.01601477,0.02625039,-0.001632379,0.03074989159826421,0.030793189092795194,0.005649696103997374,0.0056656174546652295
10468203,-0.466505,-0.75697,-9.775158,0.0008107627,0.00123142,0.0002213546,0.01599962,0.026451,-0.002907682,0.03091347992614872,0.031049925213396633,0.005709968365837789,0.005760484688151205
10488173,-0.4573331,-0.7582325,-9.774304,0.0004644853,0.001742222,0.0001739118,0.01622985,0.02663982,-0.003929202,0.031194359115950757,0.031440843961504976,0.005814201042913028,0.005906446847344931
10508572,-0.4488626,-0.7588056,-9.780044,0.000204167,0.001795709,8.49281e-05,0.01630337,0.0267592,-0.0054951,0.0313345601213245,0.03181274559051608,0.005866581581531477,0.006047003422491227
10528180,-0.459404,-0.7574471,-9.785004,0.0002753454,0.001487022,-3.638623e-05,0.01613305,0.02708039,-0.007162487,0.031521783338742115,0.03232528491567815,0.005936896378506235,0.00624342116815662
10548207,-0.4597308,-0.7569466,-9.783953,0.0004961494,0.001106026,-0.0001782638,0.01619769,0.02716928,-0.008541168,0.031631233568334007,0.03276410364802804,0.005978196248900637,0.006414081764955876
10568177,-0.4480067,-0.7608796,-9.776994,0.0005842497,0.0005769832,-0.0002669275,0.01655756,0.02733762,-0.009868451,0.03196088641477267,0.03344973221951711,0.00610345210599755,0.006685335398705471
10588408,-0.4476258,-0.7603154,-9.782279,0.0010122,0.0001408154,-0.0004754783,0.01682958,0.02755827,-0.01128896,0.03229075732108648,0.03420721599678787,0.0062300907250065676,0.006991548416849126
10608538,-0.4482988,-0.7536004,-9.789902,0.00136724,-0.0001701123,-0.0004175395,0.01676676,0.02795027,-0.01310882,0.03259358577957479,0.035130940718445046,0.006347492457973736,0.007374243399683327
10628171,-0.4508993,-0.7524977,-9.781335,0.001226256,-3.413903e-05,-0.0002337566,0.0170473,0.02813859,-0.0142673,0.032899706449725355,0.03586009667817559,0.0064672843397566475,0.007683530539264398
10648219,-0.4438341,-0.7538059,-9.775172,0.000891423,7.110716e-05,9.478359e-06,0.0174461,0.02826818,-0.01514096,0.0332183143118732,0.0365062333779315,0.006593152024191338,0.007962912825777898
10668148,-0.4367899,-0.7611411,-9.761694,0.0003546219,7.023896e-05,6.798207e-05,0.01781916,0.02843303,-0.01602752,0.033555322351104006,0.037186570901830945,0.006727608957066838,0.008262475306235476
10688151,-0.4518487,-0.7566564,-9.765186,-3.297938e-06,0.0003171028,0.0001323828,0.01769193,0.02876732,-0.01728608,0.03377222360324087,0.037939051765610854,0.006814864445466116,0.008600245602020358
10708547,-0.449487,-0.7532226,-9.773416,-0.0001595055,0.0001990677,0.0003180243,0.01795991,0.0289298,-0.01835373,0.034051309743504725,0.03868269768463673,0.006927962879107396,0.008940697823461975
10728189,-0.4500808,-0.748244,-9.779464,-2.276849e-05,-0.0001862485,0.0004741251,0.0180674,0.02935094,-0.01973397,0.034466050276229794,0.03971571721125655,0.007097754014320509,0.009424595706786887
10748402,-0.4544059,-0.7509066,-9.788047,0.0002209633,-0.0002523084,0.0006813594,0.01811065,0.02961988,-0.02111548,0.03471790510150202,0.04063491639301476,0.007201864284455478,0.009865898670847114
10768170,-0.4530471,-0.7532513,-9.772009,0.0001305445,-4.002963e-05,0.0007537199,0.0182062,0.02976676,-0.02196022,0.034893061191841566,0.04122835167437573,0.007274716173042159,0.01015616746617135
10788186,-0.4527785,-0.7600919,-9.767495,0.000172359,9.597182e-05,0.0007640645,0.01821054,0.02984576,-0.02288328,0.034962739553261554,0.041785615475036376,0.007303799113488469,0.010432575022249906
10808539,-0.4596963,-0.758912,-9.774265,0.0003779187,0.000359758,0.0004100815,0.01806343,0.03003396,-0.0241909,0.0350474857393009,0.04258551278846481,0.007339249383462838,0.010835817249252588
10828183,-0.4590058,-0.7524401,-9.783751,0.0008972522,0.0001565451,0.0002037517,0.01815547,0.03041368,-0.02542818,0.03542051696493573,0.043602813672694335,0.007496312806828216,0.011359702027049808
10848202,-0.4524888,-0.7518351,-9.771767,0.001229628,-0.0002483735,0.000161461,0.01823527,0.03055333,-0.02600429,0.0355813300209787,0.044071012519182044,0.007564535500219255,0.011604968513183754
10868178,-0.4544385,-0.7542647,-9.769297,0.001184366,-5.646438e-05,0.0001339251,0.01822898,0.0308555,-0.02701942,0.03583793509802706,0.044882141762919464,0.0076740366127401385,0.012036079729130126
10888178,-0.4516264,-0.7569738,-9.784835,0.0008034243,-0.0002914759,7.662505e-05,0.01844249,0.03106756,-0.0282914,0.03612919486722199,0.04588814700675655,0.0077992793624783565,0.012581689163389358
10908765,-0.4509372,-0.7558279,-9.788061,0.0006962986,-0.0005006225,0.0001780223,0.01851232,0.03116002,-0.02989669,0.036244349051718396,0.04698366642929115,0.007849075708142231,0.01318960284405493
10928200,-0.4445552,-0.7530339,-9.792467,0.0009713353,-0.0005043555,0.000449962,0.0187498,0.03153903,-0.03147223,0.036691489658787366,0.04834011454841414,0.008043935844950879,0.013962180880458955
10948277,-0.4462184,-0.7534474,-9.780888,0.001308445,-0.0005183464,0.0006447536,0.01906832,0.0315978,-0.03259728,0.036905579421848946,0.04924027270294916,0.008138080209962841,0.01448701162376828
10968132,-0.4448768,-0.7600884,-9.776485,0.001637617,-0.0007961006,0.0006158275,0.01917396,0.03177149,-0.03381247,0.03710887116178152,0.05020310195996458,0.008227983205437658,0.015059099892255531
10988181,-0.4536691,-0.7576566,-9.777094,0.001783516,-0.001115602,0.0004340724,0.01915152,0.03198615,-0.03509144,0.03728128900846777,0.05119866864876957,0.008304619698044077,0.015662289436653834
11008543,-0.4545567,-0.758606,-9.7728,0.001958813,-0.001071469,0.0004699209,0.01928427,0.03202695,-0.03622455,0.03738460372580402,0.05205599502879472,0.008350711359519015,0.016191214045166453
11028149,-0.4404736,-0.7591932,-9.764061,0.00204641,-0.0006682248,0.0004409753,0.01964113,0.03214334,-0.03725354,0.03766919555860597,0.052979189655600625,0.008478335556844185,0.016770597355970498
11048229,-0.4444202,-0.7573971,-9.761222,0.001492028,-4.242792e-05,0.0003349237,0.01985495,0.03228055,-0.03819263,0.037897928014668555,0.05380455309843118,0.008581611363134872,0.017297206356378353
11068374,-0.4493058,-0.7566654,-9.765041,0.00102037,0.0002961944,0.0001830606,0.01975022,0.03252921,-0.03927252,0.03805549491561633,0.054685935307196676,0.00865311864230319,0.017868545334526826
11088239,-0.4528357,-0.7523097,-9.776371,0.000751055,0.0009279072,9.712426e-06,0.01998772,0.03284254,-0.04061489,0.03844660432925124,0.05592593918891394,0.00883189477208875,0.018688071278118546
11108553,-0.445076,-0.7537161,-9.780455,0.0007018865,0.001573837,-5.894738e-06,0.0201919,0.03300085,-0.04212117,0.03868809799321362,0.057192323685101305,0.008943194334836686,0.019543997283795862
11128173,-0.4458013,-0.7541581,-9.788552,0.0007503685,0.001933202,2.633646e-05,0.02019083,0.0332657,-0.04384458,0.03891370468843721,0.058622722624894354,0.009047801565158928,0.02053382605753292
11148212,-0.4513137,-0.7549736,-9.7875,0.0007169904,0.001687402,-1.294549e-05,0.02026784,0.03342537,-0.04524843,0.039090161139377515,0.05979515963159058,0.009130043169967437,0.02136338016432021
11168187,-0.4479633,-0.7578866,-9.783273,0.0004399543,0.001114156,5.096088e-05,0.0204366,0.03355407,-0.04648071,0.03928778732793309,0.06086038642030627,0.009222593142921275,0.022131320145493273
11188189,-0.4453604,-0.7605635,-9.785214,0.0003683688,0.0005726278,0.0002209375,0.02074204,0.03369487,-0.04817753,0.039567366448608886,0.06234300990952715,0.009354319513879038,0.023222739035361917
11208566,-0.4444219,-0.7573804,-9.793233,0.0003288253,0.0004080405,0.000288164,0.02082218,0.0338788,-0.05026279,0.03976601902871848,0.06409121880551578,0.00944848420961959,0.024543413859659587
11228436,-0.4509535,-0.7564638,-9.788083,0.0002126042,0.0006677102,0.0003812773,0.02066158,0.03404624,-0.05204551,0.039825209933332426,0.06553458977817822,0.009476632893748147,0.025661325182929753
11248214,-0.4552655,-0.7564863,-9.773436,0.0003940283,0.001153819,0.0001827106,0.02061739,0.03413522,-0.05363207,0.039878440476785196,0.06683329220789141,0.009501982838791487,0.02668846646038876
11268175,-0.4547117,-0.7572773,-9.766755,0.0006308279,0.001617864,-1.092014e-05,0.02052965,0.03434551,-0.05501895,0.04001350504870325,0.06803062138026596,0.009566456503038537,0.027653288536175966
11288163,-0.4513406,-0.7509141,-9.768403,0.0008330817,0.001972375,7.029646e-05,0.02052202,0.03472653,-0.05646485,0.0403371440575718,0.06939282726798066,0.009721834014559767,0.0287718027455567
11308529,-0.4554179,-0.7508729,-9.780826,0.001151283,0.00211638,6.123123e-06,0.02039488,0.03486878,-0.0577986,0.040395333256488926,0.07051567989364352,0.009749903119694231,0.029710455137405233
11328163,-0.4477518,-0.7566234,-9.780759,0.001126873,0.001930425,-0.0001320485,0.0206494,0.03483465,-0.0588798,0.040495068353844026,0.07146104819426105,0.009798107101870436,0.03051242141890944
11348225,-0.4435571,-0.7620134,-9.79026,0.00127288,0.001277161,-0.0002250855,0.02071308,0.03496588,-0.06044515,0.04064042872880157,0.07283721992074725,0.009868575572383279,0.03169893211955522
11368149,-0.4528554,-0.7576241,-9.788547,0.001320288,0.0006792464,-4.799883e-05,0.02065616,0.03520538,-0.06148321,0.040817835891801026,0.07379892166416865,0.00995492196816775,0.03254152801179475
11388400,-0.4451905,-0.7512407,-9.781417,0.0014434,0.0003705242,0.0001130066,0.02093394,0.03558696,-0.06230659,0.04128754734741699,0.07474471702664544,0.01018535285664207,0.03338096702227497
11408544,-0.4457827,-0.7510152,-9.773113,0.00106411,0.0001062236,0.0001421263,0.0207448,0.03576994,-0.06334804,0.041350155194915535,0.07564925317863487,0.010216266124495511,0.03419378680124906
11428147,-0.4486636,-0.7511125,-9.768231,0.0008142691,0.000147575,0.0001717563,0.02078132,0.03589445,-0.06420138,0.04147619560356157,0.07643357897972133,0.010278641940425777,0.03490649967400456
11448193,-0.4492385,-0.7568035,-9.778083,0.0008508083,0.0003690003,0.0001219211,0.02080937,0.03599344,-0.06547134,0.0415759257603544,0.07755677897015902,0.010328131676912239,0.035939947436250945
11468175,-0.4460855,-0.7572904,-9.787217,0.0009924046,0.0001895836,0.000193497,0.02100416,0.03619793,-0.06665294,0.0418505062524995,0.07870247317736655,0.010465002619703236,0.03700962372329875
11488198,-0.4467061,-0.7530077,-9.787202,0.001125346,-6.061167e-05,0.0001812317,0.02104574,0.03655034,-0.06768564,0.04217642144923156,0.07975083942174402,0.01062863189442262,0.038002173421124975
11508569,-0.4331522,-0.7512727,-9.78089,0.001222752,-9.976573e-05,3.811819e-05,0.0214836,0.03674288,-0.06853876,0.04256271020100106,0.08067927814496112,0.010824216190435039,0.038892146883902204
11528148,-0.4348233,-0.7598289,-9.784718,0.00125586,-5.024797e-05,5.977307e-05,0.02160018,0.03655298,-0.06945018,0.04245807488467653,0.08140034167585047,0.01077106153440398,0.039590443359047565
11548438,-0.4419999,-0.7644528,-9.781192,0.001225224,0.0002468751,-6.360033e-07,0.02170805,0.0367035,-0.07027804,0.04264254151727474,0.08220334088888419,0.010864858423638686,0.04037540078843224
11568216,-0.4509291,-0.7612549,-9.778585,0.000888355,0.0007052903,-0.0001448474,0.02141757,0.03669448,-0.07104602,0.04248761192601086,0.08278124259163848,0.010786053073872417,0.04094508639696881
11588187,-0.4537694,-0.7585081,-9.782348,0.0009685472,0.0004756921,-0.0002326259,0.02148355,0.03698887,-0.07209593,0.04277521974787973,0.08383043926310002,0.010932573561264413,0.0419895667185897
11608564,-0.4496869,-0.757813,-9.790956,0.001168509,0.0003670338,-0.0003466842,0.02146341,0.03704636,-0.07258248,0.04281484273097006,0.0842693726156075,0.010952836779514256,0.04243042978714289
11628188,-0.4498366,-0.7518145,-9.791911,0.001147015,0.0001170727,-0.0001925482,0.02138647,0.03731235,-0.07312077,0.04300688969901683,0.0848306522842793,0.011051315555460814,0.04299753141268339
11648203,-0.4568645,-0.7551361,-9.794539,0.0006166742,7.867862e-05,-7.894731e-06,0.02108243,0.03739511,-0.07373554,0.0429285814652313,0.08532170278251952,0.011011107062036576,0.04349676297010888
11668177,-0.4507549,-0.760058,-9.782639,0.0002124425,0.0003695904,9.795919e-05,0.02115243,0.03748566,-0.07397243,0.043041840115642126,0.08558341194790846,0.011069285003229484,0.04376400939385626
