FMT, 128, 89, FMT, BBnNZ, Type,Length,Name,Format,Columns
FMT, 118, 44, FMTU, QBNN, TimeUS,FmtType,UnitIds,MultIds
FMT, 72, 36, ATT, QffffffB, TimeUS,DesRoll,Roll,DesPitch,Pitch,DesYaw,Yaw,AEKF
ATT, 12798347, 0, 0.4786978, 0, -1.043368, 0, 359.9201, 3
FMT, 47, 44, XKF4, QBcccccfffHBIHb, TimeUS,C,SV,SP,SH,SM,SVT,errRP,OFN,OFE,FS,TS,SS,GPS,PI
XKF4, 12797832, 0, 0, 0, 0.03, 0, 0, 0.03284512, 0, 0, 0, 50, 65703, 0, 0
FMT, 44, 56, XKF1, QBccCfffffffccce, TimeUS,C,Roll,Pitch,Yaw,VN,VE,VD,dPD,PN,PE,PD,GX,GY,GZ,OH
XKF1, 12797832, 0, 0.47, -1.04, 359.92, 0.04766393, -0.01187196, 0.1051148, -0.2760766, 0, 0, 0.00557914, 0.05, -0.15, -0.01, 0
FMT, 45, 46, XKF2, QBccccchhhhhhfff, TimeUS,C,AX,AY,AZ,VWN,VWE,MN,ME,MD,MX,MY,MZ,IDX,IDY,IS
XKF2, 12797832, 0, 0, 0, 0.15, 0, 0, 0, 0, 0, 0, 0, 0, 0, 0, 0
FMT, 46, 42, XKF3, QBcccccchhhccff, TimeUS,C,IVN,IVE,IVD,IPN,IPE,IPD,IMX,IMY,IMZ,IYAW,IVT,RErr,ErSc
XKF3, 12797832, 0, 0, 0, 0, 0.01, 0, 0.34, 0, 0, 0, 0, 0, 0, 0
FMT, 48, 41, XKF5, QBBhhhcccCCfff, TimeUS,C,NI,FIX,FIY,AFI,HAGL,offset,RI,rng,Herr,eAng,eVel,ePos
XKF5, 12797832, 0, 0, 0, 0, 0, 0.31, 0.31, 0, 0, 0.5, 0.0002780675, 0.002969397, 0.002581234
FMT, 51, 20, XKFS, QBBBBBBBBB, TimeUS,C,MI,BI,GI,AI,SS,GPS_GTA,GPS_CHK_WAIT,MAG_FUSION
XKFS, 12797832, 0, 0, 0, 0, 0, 0, 0, 0, 0
FMT, 52, 28, XKQ, QBffff, TimeUS,C,Q1,Q2,Q3,Q4
XKQ, 12797832, 0, 0.9993129, 0.02374418, -0.02846038, -2.04381E-05
XKF4, 12797832, 1, 0, 0, 0, 0, 0, 0.03193314, 0, 0, 0, 50, 65703, 0, 0
XKF1, 12797832, 1, 2.12, -0.16, 0.01, -0.0008188157, -0.0004253652, -0.1110207, -0.1778273, 0, 0, -0.272776, 0.05, 0, 0, 0
XKF2, 12797832, 1, 0, 0, 0.01, 0, 0, 0, 0, 0, 0, 0, 0, 0, 0, 0
XKF3, 12797832, 1, 0, 0, 0, 0, 0, 0.07, 0, 0, 0, 0, 0, 0, 0
XKFS, 12797832, 1, 0, 0, 0, 0, 0, 0, 0, 0
XKQ, 12797832, 1, 0.9990576, 0.03810331, -0.02076497, 0.000912158
FMT, 70, 45, AHR2, QccCfLLffff, TimeUS,Roll,Pitch,Yaw,Alt,Lat,Lng,Q1,Q2,Q3,Q4
AHR2, 12798602, 0.6, -1.03, 359.79, 0.34, 0, 0, 0.9999443, 0.005276545, -0.009037783, -0.00133238
FMT, 109, 52, PIDS, QffffffffffB, TimeUS,Tar,Act,Err,P,I,D,FF,DFF,Dmod,SRate,Flags
PIDS, 12798620, 0, 0, 0, 0, 0, 0, 0, 0, 0, 0, 0
FMT, 108, 52, PIDA, QffffffffffB, TimeUS,Tar,Act,Err,P,I,D,FF,DFF,Dmod,SRate,Flags
PIDA, 12798636, 0, 0, 0, 0, 0, 0, 0, 0, 0, 0, 0
FMT, 163, 54, IMU, QBffffffIIfBBHH, TimeUS,I,GyrX,GyrY,GyrZ,AccX,AccY,AccZ,EG,EA,T,GH,AH,GHz,AHz
IMU, 12798651, 0, 0.0006548744, -0.007242172, -0.0006186843, -0.498596, -0.4718773, -9.599292, 0, 0, 43.35749, 1, 1, 1982, 1982
IMU, 12798651, 1, 0.001422175, 0.0007891829, 0.0002360837, -0.4169619, -0.7462734, -9.810602, 0, 0, 40.5, 1, 1, 2006, 2016
FMT, 119, 76, UNIT, QbZ, TimeUS,Id,Label
FMT, 120, 20, MULT, Qbd, TimeUS,Id,Mult
FMT, 32, 35, PARM, QNff, TimeUS,Name,Value,Default
FMT, 94, 51, GPS, QBBIHBcLLeffffB, TimeUS,I,Status,GMS,GWk,NSats,HDop,Lat,Lng,Alt,Spd,GCrs,VZ,Yaw,U
FMT, 95, 39, GPA, QBCCCCfBIHeHH, TimeUS,I,VDop,HAcc,VAcc,SAcc,YAcc,VV,SMS,Delta,AEl,RTCMFU,RTCMFD
FMT, 99, 22, UBX1, QBHBBHI, TimeUS,Instance,noisePerMS,jamInd,aPower,agcCnt,config
FMT, 100, 16, UBX2, QBbBbB, TimeUS,Instance,ofsI,magI,ofsQ,magQ
FMT, 96, 42, GRAW, QIHBBddfBbB, TimeUS,WkMS,Week,numSV,sv,cpMes,prMes,doMes,mesQI,cno,lli
FMT, 97, 24, GRXH, QdHbBB, TimeUS,rcvTime,week,leapS,numMeas,recStat
FMT, 98, 41, GRXS, QddfBBBHBBBBB, TimeUS,prMes,cpMes,doMes,gnss,sv,freq,lock,cno,prD,cpD,doD,trk
FMT, 101, 23, SBPH, QIII, TimeUS,CrcError,LastInject,IARhyp
FMT, 102, 67, SBRH, QQQQQQQQ, TimeUS,msg_flag,1,2,3,4,5,6
FMT, 103, 123, SBRM, QQQQQQQQQQQQQQQ, TimeUS,msg_flag,1,2,3,4,5,6,7,8,9,10,11,12,13
FMT, 104, 23, SBRE, QHIiBB, TimeUS,GWk,GMS,ns_residual,level,quality
FMT, 59, 75, MSG, QZ, TimeUS,Message
FMT, 60, 39, RCIN, QHHHHHHHHHHHHHH, TimeUS,C1,C2,C3,C4,C5,C6,C7,C8,C9,C10,C11,C12,C13,C14
FMT, 61, 18, RCI2, QHHHB, TimeUS,C15,C16,OMask,Flags
FMT, 62, 39, RCOU, QHHHHHHHHHHHHHH, TimeUS,C1,C2,C3,C4,C5,C6,C7,C8,C9,C10,C11,C12,C13,C14
FMT, 207, 19, RCO2, QHHHH, TimeUS,C15,C16,C17,C18
FMT, 208, 39, RCO3, QHHHHHHHHHHHHHH, TimeUS,C19,C20,C21,C22,C23,C24,C25,C26,C27,C28,C29,C30,C31,C32
FMT, 63, 19, RSSI, Qff, TimeUS,RXRSSI,RXLQ
FMT, 64, 43, BARO, QBfffcfIffB, TimeUS,I,Alt,AltAMSL,Press,Temp,CRt,SMS,Offset,GndTemp,Health
FMT, 65, 24, BARD, QBfff, TimeUS,I,DynPrX,DynPrY,DynPrZ
FMT, 66, 25, CANF, QBIBBBBBBBBB, TimeUS,Bus,Id,DLC,B0,B1,B2,B3,B4,B5,B6,B7
FMT, 67, 81, CAFD, QBIBQQQQQQQQ, TimeUS,Bus,Id,DLC,D0,D1,D2,D3,D4,D5,D6,D7
FMT, 196, 50, PL, QBBfffffffIIB, TimeUS,Heal,TAcq,pX,pY,vX,vY,mX,mY,mZ,LastMeasMS,EKFOutl,Est
FMT, 68, 24, POWR, QffHHB, TimeUS,Vcc,VServo,Flags,AccFlags,Safety
FMT, 69, 27, MCU, Qffff, TimeUS,MTemp,MVolt,MVmin,MVmax
FMT, 93, 46, CMD, QHHHffffLLfB, TimeUS,CTot,CNum,CId,Prm1,Prm2,Prm3,Prm4,Lat,Lng,Alt,Frame
FMT, 92, 46, MISE, QHHHffffLLfB, TimeUS,CTot,CNum,CId,Prm1,Prm2,Prm3,Prm4,Lat,Lng,Alt,Frame
FMT, 78, 48, MAVC, QBBBBBHffffiifBB, TimeUS,TS,TC,SS,SC,Fr,Cmd,P1,P2,P3,P4,X,Y,Z,Res,WL
FMT, 79, 20, RAD, QBBBBBHH, TimeUS,RSSI,RemRSSI,TxBuf,Noise,RemNoise,RxErrors,Fixed
FMT, 81, 46, CAM, QBHIHLLeeeccC, TimeUS,I,Img,GPSTime,GPSWeek,Lat,Lng,Alt,RelAlt,GPSAlt,R,P,Y
FMT, 82, 46, TRIG, QBHIHLLeeeccC, TimeUS,I,Img,GPSTime,GPSWeek,Lat,Lng,Alt,RelAlt,GPSAlt,R,P,Y
FMT, 83, 48, MNT, QBfffffffff, TimeUS,I,DRoll,Roll,DPitch,Pitch,DYawB,YawB,DYawE,YawE,Dist
FMT, 114, 41, ARSP, QBffcffBBffB, TimeUS,I,Airspeed,DiffPress,Temp,RawPress,Offset,U,H,Hp,TR,Pri
FMT, 88, 41, BAT, QBfffffcfBBB, TimeUS,Inst,Volt,VoltR,Curr,CurrTot,EnrgTot,Temp,Res,RemPct,H,SH
FMT, 89, 40, BCL, QBfHHHHHHHHHHHH, TimeUS,Instance,Volt,V1,V2,V3,V4,V5,V6,V7,V8,V9,V10,V11,V12
FMT, 113, 35, MAG, QBhhhhhhhhhBI, TimeUS,I,MagX,MagY,MagZ,OfsX,OfsY,OfsZ,MOX,MOY,MOZ,Health,S
FMT, 122, 14, MODE, QMBB, TimeUS,Mode,ModeNum,Rsn
FMT, 116, 17, RFND, QBCBBb, TimeUS,Instance,Dist,Stat,Orient,Quality
FMT, 117, 36, DMS, QIIIIBBBBBBBBB, TimeUS,N,Dp,RT,RS,Fa,Fmn,Fmx,Pa,Pmn,Pmx,Sa,Smn,Smx
FMT, 174, 41, BCN, QBBfffffff, TimeUS,Health,Cnt,D0,D1,D2,D3,PosX,PosY,PosZ
FMT, 175, 57, PRX, QBBfffffffffff, TimeUS,Layer,He,D0,D45,D90,D135,D180,D225,D270,D315,DUp,CAn,CDis
FMT, 176, 44, PRXR, QBffffffff, TimeUS,Layer,D0,D45,D90,D135,D180,D225,D270,D315
FMT, 179, 61, PM, QHHHIIHHIIIIIIQ, TimeUS,LR,NLon,NL,MaxT,Mem,Load,ErrL,InE,ErC,SPIC,I2CC,I2CI,Ex,R
FMT, 178, 29, SRTL, QBHHBfff, TimeUS,Active,NumPts,MaxPts,Action,N,E,D
FMT, 170, 48, OABR, QBBHHHBfLLiLLi, TimeUS,Type,Act,DYaw,Yaw,DP,RChg,Mar,DLt,DLg,DAlt,OLt,OLg,OAlt
FMT, 171, 31, OADJ, QBBBBLLLL, TimeUS,State,Err,CurrPoint,TotPoints,DLat,DLng,OALat,OALng
FMT, 172, 37, SA, QBffffffB, TimeUS,State,DVelX,DVelY,DVelZ,MVelX,MVelY,MVelZ,Back
FMT, 173, 21, OAVG, QBBLL, TimeUS,version,point_num,Lat,Lon
FMT, 77, 45, SIM, QccCfLLffff, TimeUS,Roll,Pitch,Yaw,Alt,Lat,Lng,Q1,Q2,Q3,Q4
FMT, 84, 38, TERR, QBLLHffHHf, TimeUS,Status,Lat,Lng,Spacing,TerrH,CHeight,Pending,Loaded,ROfs
FMT, 86, 40, ESC, QBffffcfcf, TimeUS,Instance,RPM,RawRPM,Volt,Curr,Temp,CTot,MotTemp,Err
FMT, 87, 15, EDT2, QBBBB, TimeUS,Instance,Stress,MaxStress,Status
FMT, 85, 46, CSRV, QBfffBfffffB, TimeUS,Id,Pos,Force,Speed,Pow,PosCmd,V,A,MotT,PCBT,Err
FMT, 105, 52, PIDR, QffffffffffB, TimeUS,Tar,Act,Err,P,I,D,FF,DFF,Dmod,SRate,Flags
FMT, 106, 52, PIDP, QffffffffffB, TimeUS,Tar,Act,Err,P,I,D,FF,DFF,Dmod,SRate,Flags
FMT, 107, 52, PIDY, QffffffffffB, TimeUS,Tar,Act,Err,P,I,D,FF,DFF,Dmod,SRate,Flags
FMT, 110, 52, PIDN, QffffffffffB, TimeUS,Tar,Act,Err,P,I,D,FF,DFF,Dmod,SRate,Flags
FMT, 111, 52, PIDE, QffffffffffB, TimeUS,Tar,Act,Err,P,I,D,FF,DFF,Dmod,SRate,Flags
FMT, 112, 56, DSTL, QBfLLeccfeffff, TimeUS,Stg,THdg,Lat,Lng,Alt,XT,Travel,L1I,Loiter,Des,P,I,D
FMT, 161, 32, ACC, QBQfff, TimeUS,I,SampleUS,AccX,AccY,AccZ
FMT, 162, 32, GYR, QBQfff, TimeUS,I,SampleUS,GyrX,GyrY,GyrZ
FMT, 166, 28, VIBE, QBfffI, TimeUS,IMU,VibeX,VibeY,VibeZ,Clip
FMT, 164, 31, ISBH, QHBBHHQf, TimeUS,N,type,instance,mul,smp_cnt,SampleUS,smp_rate
FMT, 165, 207, ISBD, QHHaaa, TimeUS,N,seqno,x,y,z
FMT, 129, 15, RFRH, QI, TimeUS,TF
FMT, 130, 5, RFRF, BB, FTypes,Slow
FMT, 138, 38, RFRN, IIIfIfffBBB, HLat,HLon,HAlt,E2T,AM,TX,TY,TZ,VC,EKT,Flags
FMT, 131, 4, REV2, B, Event
FMT, 132, 15, RSO2, III, Lat,Lon,Alt
FMT, 133, 11, RWA2, ff, Airspeed,uncertainty
FMT, 134, 4, REV3, B, Event
FMT, 135, 15, RSO3, III, Lat,Lon,Alt
FMT, 136, 11, RWA3, ff, Airspeed,Uncertainty
FMT, 137, 16, REY3, ffIB, yawangle,yawangleerr,timestamp_ms,type
FMT, 139, 13, RISH, HBBfBB, LR,PG,PA,LD,AC,GC
FMT, 140, 37, RISI, ffffffffBB, DVX,DVY,DVZ,DAX,DAY,DAZ,DVDT,DADT,Flags,I
FMT, 148, 5, RASH, BB, Primary,NumInst
FMT, 149, 14, RASI, fIBBB, pd,UpdateMS,H,Use,I
FMT, 141, 5, RBRH, BB, Primary,NumInst
FMT, 142, 13, RBRI, IfBB, LastUpdate,Alt,H,I
FMT, 143, 8, RRNH, hhB, GCl,MaxD,NumSensors
FMT, 144, 20, RRNI, fffHBBB, PX,PY,PZ,Dist,Orient,Status,I
FMT, 145, 5, RGPH, BB, NumInst,Primary
FMT, 146, 23, RGPI, ffffBBBB, OX,OY,OZ,Lg,Flags,Stat,NSats,I
FMT, 147, 58, RGPJ, IffffffIiiiffHB, TS,VX,VY,VZ,SA,Y,YA,YT,Lat,Lon,Alt,HA,VA,HD,I
FMT, 153, 14, RMGH, fBBBBBBB, Dec,Avail,NumInst,AutoDec,NumEna,LOE,C,FUsable
FMT, 154, 35, RMGI, IffffffBBBB, LU,OX,OY,OZ,FX,FY,FZ,UFY,H,HSF,I
FMT, 150, 33, RBCH, ffffiiiBB, PX,PY,PZ,AE,OLat,OLng,OAlt,Flags,NumInst
FMT, 151, 25, RBCI, IffffBB, LU,PX,PY,PZ,Dist,H,I
FMT, 152, 21, RVOH, fffIBB, OX,OY,OZ,Del,H,Ena
FMT, 155, 40, ROFH, ffffIffffB, FX,FY,GX,GY,Tms,PX,PY,PZ,HgtOvr,Qual
FMT, 156, 49, REPH, fffffffffIIH, PX,PY,PZ,Q1,Q2,Q3,Q4,PEr,AEr,TS,RT,D
FMT, 157, 19, RSLL, IIfI, Lat,Lng,PosAccSD,TS
FMT, 158, 25, REVH, ffffIH, VX,VY,VZ,Er,TS,D
FMT, 159, 31, RWOH, ffIffff, DA,DT,TS,PX,PY,PZ,R
FMT, 160, 53, RBOH, ffffffffIfffH, Q,DPX,DPY,DPZ,DAX,DAY,DAZ,DT,TS,OX,OY,OZ,D
FMT, 43, 37, XKF0, QBBccCCcccccccc, TimeUS,C,ID,rng,innov,SIV,TR,BPN,BPE,BPD,OFH,OFL,OFN,OFE,OFD
FMT, 49, 36, XKFD, QBffffff, TimeUS,C,IX,IY,IZ,IVX,IVY,IVZ
FMT, 50, 29, XKFM, QBBffff, TimeUS,C,OGNM,GLR,ALR,GDR,ADR
FMT, 53, 48, XKT, QBIffffffff, TimeUS,C,Cnt,IMUMin,IMUMax,EKFMin,EKFMax,AngMin,AngMax,VMin,VMax
FMT, 54, 20, XKTV, QBff, TimeUS,C,TVS,TVD
FMT, 55, 60, XKV1, QBffffffffffff, TimeUS,C,V00,V01,V02,V03,V04,V05,V06,V07,V08,V09,V10,V11
FMT, 56, 60, XKV2, QBffffffffffff, TimeUS,C,V12,V13,V14,V15,V16,V17,V18,V19,V20,V21,V22,V23
FMT, 57, 60, XKY0, QBffffffffffff, TimeUS,C,YC,YCS,Y0,Y1,Y2,Y3,Y4,W0,W1,W2,W3,W4
FMT, 58, 52, XKY1, QBffffffffff, TimeUS,C,IVN0,IVN1,IVN2,IVN3,IVN4,IVE0,IVE1,IVE2,IVE3,IVE4
FMT, 41, 60, NKY0, QBffffffffffff, TimeUS,C,YC,YCS,Y0,Y1,Y2,Y3,Y4,W0,W1,W2,W3,W4
FMT, 42, 52, NKY1, QBffffffffff, TimeUS,C,IVN0,IVN1,IVN2,IVN3,IVN4,IVE0,IVE1,IVE2,IVE3,IVE4
FMT, 71, 19, AOA, Qff, TimeUS,AOA,SSA
FMT, 73, 24, ORGN, QBLLe, TimeUS,Type,Lat,Lng,Alt
FMT, 74, 31, POS, QLLfff, TimeUS,Lat,Lng,Alt,RelHomeAlt,RelOriginAlt
FMT, 76, 35, ATSC, Qffffff, TimeUS,AngPScX,AngPScY,AngPScZ,PDScX,PDScY,PDScZ
FMT, 204, 51, VSTB, Qffffffffff, TimeUS,GyrX,GyrY,GyrZ,AccX,AccY,AccZ,Q1,Q2,Q3,Q4
FMT, 90, 38, MON, QIbIHHHHHII, TimeUS,Dly,Tsk,IErr,IErrCnt,IErrLn,MM,MC,SmLn,SPICnt,I2CCnt
FMT, 91, 47, WDOG, QbIHHHHHHHIBIIn, TimeUS,Tsk,IE,IEC,IEL,MvMsg,MvCmd,SmLn,FL,FT,FA,FP,ICSR,LR,TN
FMT, 210, 20, UART, QBff, TimeUS,I,Tx,Rx
FMT, 115, 21, RPM, QBffB, TimeUS,I,RPM,Qual,H
FMT, 209, 27, FNCE, QBBBLLBf, TimeUS,Tot,Seq,Type,Lat,Lng,Count,Radius
FMT, 177, 33, DSF, QIHIIII, TimeUS,Dp,Blk,Bytes,FMn,FMx,FAv
FMT, 121, 24, RALY, QBBLLhB, TimeUS,Tot,Seq,Lat,Lng,Alt,Flags
FMT, 183, 23, MAV, QBHHHBHH, TimeUS,chan,txp,rxp,rxdp,flags,ss,tf
FMT, 167, 43, VISO, Qffffffff, TimeUS,dt,AngDX,AngDY,AngDZ,PosDX,PosDY,PosDZ,conf
FMT, 168, 58, VISP, QQIffffffffBBb, TimeUS,RTimeUS,CTimeMS,PX,PY,PZ,R,P,Y,PErr,AErr,Rst,Ign,Q
FMT, 169, 42, VISV, QQIffffBBb, TimeUS,RTimeUS,CTimeMS,VX,VY,VZ,VErr,Rst,Ign,Q
FMT, 180, 28, OF, QBffff, TimeUS,Qual,flowX,flowY,bodyX,bodyY
FMT, 182, 21, WENC, Qfbfb, TimeUS,Dist0,Qual0,Dist1,Qual1
FMT, 185, 35, ADSB, QIiiiHHhH, TimeUS,ICAO_address,Lat,Lng,Alt,Heading,Hor_vel,Ver_vel,Squark
FMT, 181, 12, EV, QB, TimeUS,Id
FMT, 186, 18, ARM, QBIBB, TimeUS,ArmState,ArmChecks,Forced,Method
FMT, 184, 13, ERR, QBB, TimeUS,Subsys,ECode
FMT, 187, 35, WINC, QBBBBBfffHfb, TimeUS,Heal,ThEnd,Mov,Clut,Mode,DLen,Len,DRate,Tens,Vcc,Temp
FMT, 188, 47, PSCN, Qfffffffff, TimeUS,DPN,TPN,PN,DVN,TVN,VN,DAN,TAN,AN
FMT, 189, 47, PSCE, Qfffffffff, TimeUS,DPE,TPE,PE,DVE,TVE,VE,DAE,TAE,AE
FMT, 190, 47, PSCD, Qfffffffff, TimeUS,DPD,TPD,PD,DVD,TVD,VD,DAD,TAD,AD
ISBH, 12799848, 0, 1, 0, 938, 1024, 12539078, 1982.786
ISBD, 12799853, 0, 0, [-1 2 1 1 0 1 2 1 0 0 2 3 3 2 3 2 3 2 1 1 2 0 0 1 0 1 0 0 0 1 1 1], [-3 -3 -4 -8 -3 -4 -5 -5 -7 -9 -8 -7 -7 -6 -7 -6 -6 -6 -3 -4 -9 -9 -9 -6 -6 -9 -5 -5 -5 -5 -5 -7], [0 0 0 0 0 -1 0 0 0 0 1 0 0 0 0 0 0 0 0 0 0 0 0 0 0 -1 -1 -2 0 0 0 0]
FMT, 251, 43, DCM, Qffffffff, TimeUS,Roll,Pitch,Yaw,ErrRP,ErrYaw,VWN,VWE,VWD
DCM, 12817870, 0.6093008, -1.041271, 359.7968, 0.003470346, 1, 0, 0, 0
FMT, 250, 51, EAHR, QffffffLLfI, TimeUS,Roll,Pitch,Yaw,VN,VE,VD,Lat,Lon,Alt,Flg
EAHR, 12817905, 0, 0, 0, 0, 0, 0, 0, 0, 0, 0
ATT, 12818446, 0, 0.4786727, 0, -1.047609, 0, 359.9192, 3
XKF4, 12817932, 0, 0, 0, 0.03, 0, 0, 0.03301559, 0, 0, 0, 50, 65703, 0, 0
XKF1, 12817932, 0, 0.47, -1.04, 359.91, 0.04861698, -0.01200517, 0.1026434, -0.2727948, 0, 0, 0.00139918, 0.05, -0.15, -0.01, 0
XKF2, 12817932, 0, 0, 0, 0.15, 0, 0, 0, 0, 0, 0, 0, 0, 0, 0, 0
XKF3, 12817932, 0, 0, 0, 0, 0.01, 0, 0.34, 0, 0, 0, 0, 0, 0, 0
XKF5, 12817932, 0, 0, 0, 0, 0, 0.31, 0.31, 0, 0, 0.5, 0.0002466038, 0.003314463, 0.007973445
XKFS, 12817932, 0, 0, 0, 0, 0, 0, 0, 0, 0
XKQ, 12817932, 0, 0.9993118, 0.02374368, -0.02849756, -2.763091E-05
XKF4, 12817932, 1, 0, 0, 0, 0, 0, 0.0320965, 0, 0, 0, 50, 65703, 0, 0
XKF1, 12817932, 1, 2.12, -0.16, 0.01, -0.0009109228, -0.0003591108, -0.1127428, -0.1806978, 0, 0, -0.2760495, 0.05, 0, 0, 0
XKF2, 12817932, 1, 0, 0, 0.01, 0, 0, 0, 0, 0, 0, 0, 0, 0, 0, 0
XKF3, 12817932, 1, 0, 0, 0, 0, 0, 0.07, 0, 0, 0, 0, 0, 0, 0
XKFS, 12817932, 1, 0, 0, 0, 0, 0, 0, 0, 0
XKQ, 12817932, 1, 0.9990559, 0.03813428, -0.0207934, 0.0009114125
AHR2, 12818519, 0.6, -1.04, 359.79, 0.34, 0, 0, 0.9999437, 0.005287549, -0.009102906, -0.001345808
PIDS, 12818531, 0, 0, 0, 0, 0, 0, 0, 0, 0, 0, 0
PIDA, 12818535, 0, 0, 0, 0, 0, 0, 0, 0, 0, 0, 0
IMU, 12818539, 0, 0.0006469165, -0.007156082, -0.0005184477, -0.4988748, -0.4721504, -9.595103, 0, 0, 43.35749, 1, 1, 1982, 1982
IMU, 12818539, 1, 0.001364731, 0.0004099272, 0.0001878185, -0.4139262, -0.7467031, -9.813276, 0, 0, 40.5, 1, 1, 2006, 2016
FMT, 191, 35, PSON, Qffffff, TimeUS,TPON,PON,TVON,VON,TAON,AON
FMT, 192, 35, PSOE, Qffffff, TimeUS,TPOE,POE,TVOE,VOE,TAOE,AOE
FMT, 193, 35, PSOD, Qffffff, TimeUS,TPOD,POD,TVOD,VOD,TAOD,AOD
FMT, 194, 35, PSOT, Qffffff, TimeUS,TPOT,POT,TVOT,VOT,TAOT,AOT
FMT, 75, 63, RATE, Qfffffffffffff, TimeUS,RDes,R,ROut,PDes,P,POut,YDes,Y,YOut,ADes,A,AOut,AOutSlew
FMT, 195, 39, ANG, Qfffffff, TimeUS,DesRoll,Roll,DesPitch,Pitch,DesYaw,Yaw,Dt
FMT, 201, 33, STAK, QBBHHN, TimeUS,Id,Pri,Total,Free,Name
FMT, 202, 88, FILE, NIBZ, FileName,Offset,Length,Data
FMT, 197, 78, AISR, QBBBZ, TimeUS,num,total,ID,payload
FMT, 198, 41, AIS1, QBBIBbHbLLHHBBbI, US,typ,rep,mmsi,nav,rot,sog,pos,lon,lat,cog,hed,sec,man,raim,rad
FMT, 199, 38, AIS4, QBIHBBBBBBLLBBI, US,rep,mmsi,year,mth,day,h,m,s,fix,lon,lat,epfd,raim,rad
FMT, 200, 175, AIS5, QBIBINZBHHBBBBZB, US,rep,mmsi,ver,imo,cal,nam,typ,bow,stn,prt,str,fix,dght,dst,dte
FMT, 203, 39, SCR, QNIii, TimeUS,Name,Runtime,Total_mem,Run_mem
FMT, 206, 90, VER, QBHBBBBIZHBB, TimeUS,BT,BST,Maj,Min,Pat,FWT,GH,FWS,APJ,BU,FV
FMT, 205, 32, MOTB, QfffffB, TimeUS,LiftMax,BatVolt,ThLimit,ThrAvMx,ThrOut,FailFlags
FMT, 0, 29, THR, Qhffff, TimeUS,ThrIn,ThrOut,DesSpeed,Speed,AccX
FMT, 1, 29, NTUN, QfffHf, TimeUS,WpDist,WpBrg,DesYaw,Yaw,XTrack
FMT, 2, 33, STER, Qhfffff, TimeUS,SteerIn,SteerOut,DesLatAcc,LatAcc,DesTurnRate,TurnRate
FMT, 3, 36, GUIP, QBffffff, TimeUS,Type,pX,pY,pZ,vX,vY,vZ
ISBD, 12819706, 0, 1, [0 0 0 0 2 2 1 0 -1 -1 0 0 0 2 2 2 0 0 0 0 0 0 0 1 0 0 0 0 1 0 0 0], [-7 -6 -5 -5 -4 -5 -6 -6 -2 -3 -9 -7 -6 -7 -6 -9 -5 -3 -7 -6 -6 -6 -8 -9 -6 -5 -6 -8 -7 -6 -4 -5], [-1 -1 -1 0 0 -1 0 0 1 0 0 0 -1 -1 -1 -1 0 0 -1 0 -1 0 0 -2 -1 -1 -3 -2 0 0 0 1]
ATT, 12839001, 0, 0.4782426, 0, -1.051687, 0, 359.9185, 3
XKF4, 12837829, 0, 0, 0, 0.03, 0, 0, 0.03318555, 0, 0, 0, 50, 65703, 0, 0
XKF1, 12837829, 0, 0.47, -1.05, 359.91, 0.04965863, -0.01217378, 0.09879462, -0.2622355, 0, 0, -0.005112615, 0.05, -0.15, -0.01, 0
XKF2, 12837829, 0, 0, 0, 0.16, 0, 0, 0, 0, 0, 0, 0, 0, 0, 0, 0
XKF3, 12837829, 0, 0, 0, 0, 0.01, 0, 0.34, 0, 0, 0, 0, 0, 0, 0
XKF5, 12837829, 0, 0, 0, 0, 0, 0.34, 0.31, 0, 0, 0.5, 0.000256816, 0.01274163, 0.02089261
XKFS, 12837829, 0, 0, 0, 0, 0, 0, 0, 0, 0
XKQ, 12837829, 0, 0.9993109, 0.02373973, -0.02853325, -3.216496E-05
XKF4, 12837829, 1, 0, 0, 0, 0, 0, 0.03225978, 0, 0, 0, 50, 65703, 0, 0
XKF1, 12837829, 1, 2.12, -0.16, 0.01, -0.0008548067, -0.0003258307, -0.1148305, -0.1821061, 0, 0, -0.279956, 0.05, 0, 0, 0
XKF2, 12837829, 1, 0, 0, 0.02, 0, 0, 0, 0, 0, 0, 0, 0, 0, 0, 0
XKF3, 12837829, 1, 0, 0, 0, 0, 0, 0.08, 0, 0, 0, 0, 0, 0, 0
XKFS, 12837829, 1, 0, 0, 0, 0, 0, 0, 0, 0
XKQ, 12837829, 1, 0.9990559, 0.03813612, -0.02078716, 0.0009100273
AHR2, 12839073, 0.61, -1.04, 359.79, 0.34, 0, 0, 0.999943, 0.005294667, -0.009164085, -0.001356339
PIDS, 12839080, 0, 0, 0, 0, 0, 0, 0, 0, 0, 0, 0
PIDA, 12839084, 0, 0, 0, 0, 0, 0, 0, 0, 0, 0, 0
IMU, 12839088, 0, 0.0007324311, -0.007086564, -0.0005697157, -0.4965549, -0.4731379, -9.596826, 0, 0, 43.35749, 1, 1, 1982, 1982
IMU, 12839088, 1, 0.001627755, -8.573096E-05, 0.0001708814, -0.4128536, -0.7484542, -9.816499, 0, 0, 40.5, 1, 1, 2006, 2016
BARO, 12839159, 0, 0.1999474, 0.1999474, 101123.9, 26.4, 0.2012851, 12839, 0, 26.28378, 1
MAG, 12839179, 0, -27, -1045, 1513, 0, 0, 0, 0, 0, 0, 1, 12839178
THR, 12839186, 0, 0, 0, 0.04967197, -0.4965549
NTUN, 12839215, 0, 0, 0, 35992, 0
STER, 12839252, 0, 0, 0, -1.690979E-05, 0, -0.01950516
RCIN, 12839270, 1522, 1479, 1631, 1495, 2000, 1000, 1500, 1500, 0, 0, 0, 0, 0, 0
RCI2, 12839274, 0, 0, 0, 1
RCOU, 12839280, 1496, 1500, 1526, 0, 0, 0, 0, 0, 0, 0, 0, 0, 0, 0
RCO2, 12839283, 0, 0, 0, 0
VIBE, 12839287, 0, 0.008669786, 0.009665648, 0.009868466, 0
VIBE, 12839287, 1, 0.06017281, 0.0353653, 0.07468883, 0
POWR, 12839353, 5.118283, 5.860219, 1, 1, 6
MCU, 12839353, 26.40767, 3.366024, 3.350737, 3.375207
BAT, 12839365, 0, 23.9941, 24.92479, 0.2900419, 0.7788113, 0.01869288, 0, 3.208803, 255, 0, 0
ISBD, 12840393, 0, 2, [1 0 -1 1 2 4 0 0 0 1 1 0 0 0 0 0 1 2 3 2 2 2 2 0 2 1 -1 1 0 2 1 0], [-8 -5 -8 -5 -8 -14 -6 -3 -5 -7 -6 -7 -7 -5 -5 -5 -7 -8 -6 -6 -8 -10 -5 -2 -7 -6 -6 -6 -5 -8 -9 -8], [2 2 0 -2 -2 -1 0 1 1 0 0 -2 -2 0 0 0 0 0 -1 0 0 -1 0 0 -1 -1 0 0 0 1 0 -1]
ATT, 12858354, 0, 0.4777228, 0, -1.055463, 0, 359.9177, 3
XKF4, 12857839, 0, 0, 0, 0.03, 0, 0, 0.03330588, 0, 0, 0, 50, 65703, 0, 0
XKF1, 12857839, 0, 0.47, -1.05, 359.91, 0.05057925, -0.01235212, 0.09528155, -0.2748236, 0, 0, -0.01113204, 0.05, -0.15, -0.01, 0
XKF2, 12857839, 0, 0, 0, 0.16, 0, 0, 0, 0, 0, 0, 0, 0, 0, 0, 0
XKF3, 12857839, 0, 0, 0, 0, 0.01, 0, 0.34, 0, 0, 0, 0, 0, 0, 0
XKF5, 12857839, 0, 0, 0, 0, 0, 0.34, 0.31, 0, 0, 0.5, 0.0002307937, 0.008836275, 0.01316003
XKFS, 12857839, 0, 0, 0, 0, 0, 0, 0, 0, 0
XKQ, 12857839, 0, 0.9993101, 0.02373493, -0.02856635, -3.910863E-05
XKF4, 12857839, 1, 0, 0, 0, 0, 0, 0.0323545, 0, 0, 0, 50, 65703, 0, 0
XKF1, 12857839, 1, 2.12, -0.16, 0.01, -0.0009096383, -0.0001916626, -0.1169448, -0.1892784, 0, 0, -0.2838529, 0.05, 0, 0, 0
XKF2, 12857839, 1, 0, 0, 0.02, 0, 0, 0, 0, 0, 0, 0, 0, 0, 0, 0
XKF3, 12857839, 1, 0, 0, 0, 0, 0, 0.08, 0, 0, 0, 0, 0, 0, 0
XKFS, 12857839, 1, 0, 0, 0, 0, 0, 0, 0, 0
XKQ, 12857839, 1, 0.9990553, 0.0381614, -0.02077187, 0.0009038539
AHR2, 12858445, 0.61, -1.05, 359.79, 0.19, 0, 0, 0.9999424, 0.005301635, -0.009222302, -0.001368951
PIDS, 12858463, 0, 0, 0, 0, 0, 0, 0, 0, 0, 0, 0
PIDA, 12858467, 0, 0, 0, 0, 0, 0, 0, 0, 0, 0, 0
IMU, 12858471, 0, 0.0007272054, -0.007029163, -0.0006566828, -0.4961487, -0.474656, -9.599839, 0, 0, 43.35749, 1, 1, 1982, 1982
IMU, 12858471, 1, 0.001985816, -0.0001583313, 0.0001132858, -0.4109575, -0.7477103, -9.809839, 0, 0, 40.5, 1, 1, 2006, 2016
FMT, 252, 28, HEAT, Qfbfff, TimeUS,Temp,Targ,P,I,Out
HEAT, 12877785, 43.35749, 45, 82.12566, 6.593094, 88.71876
ATT, 12878409, 0, 0.4768597, 0, -1.06022, 0, 359.917, 3
XKF4, 12877859, 0, 0, 0, 0.03, 0, 0, 0.03347655, 0, 0, 0, 50, 65703, 0, 0
XKF1, 12877859, 0, 0.47, -1.06, 359.91, 0.05161496, -0.01250995, 0.09197368, -0.2883196, 0, 0, -0.01660076, 0.05, -0.15, -0.01, 0
XKF2, 12877859, 0, 0, 0, 0.16, 0, 0, 0, 0, 0, 0, 0, 0, 0, 0, 0
XKF3, 12877859, 0, 0, 0, 0, 0.01, 0, 0.34, 0, 0, 0, 0, 0, 0, 0
XKF5, 12877859, 0, 0, 0, 0, 0, 0.34, 0.31, 0, 0, 0.5, 0.0002070567, 0.005503756, 0.006214227
XKFS, 12877859, 0, 0, 0, 0, 0, 0, 0, 0, 0
XKQ, 12877859, 0, 0.9993091, 0.02372716, -0.02860799, -4.480457E-05
XKF4, 12877859, 1, 0, 0, 0, 0, 0, 0.03251777, 0, 0, 0, 50, 65703, 0, 0
XKF1, 12877859, 1, 2.12, -0.16, 0.01, -0.0008350296, -0.0001968541, -0.1186689, -0.1951812, 0, 0, -0.2876863, 0.05, 0, 0, 0
XKF2, 12877859, 1, 0, 0, 0.02, 0, 0, 0, 0, 0, 0, 0, 0, 0, 0, 0
XKF3, 12877859, 1, 0, 0, 0, 0, 0, 0.08, 0, 0, 0, 0, 0, 0, 0
XKFS, 12877859, 1, 0, 0, 0, 0, 0, 0, 0, 0
XKQ, 12877859, 1, 0.9990559, 0.0381538, -0.02075533, 0.0009151873
AHR2, 12878481, 0.61, -1.06, 359.79, 0.19, 0, 0, 0.9999418, 0.005305823, -0.009288684, -0.001380393
PIDS, 12878485, 0, 0, 0, 0, 0, 0, 0, 0, 0, 0, 0
PIDA, 12878489, 0, 0, 0, 0, 0, 0, 0, 0, 0, 0, 0
IMU, 12878493, 0, 0.0007292706, -0.007069125, -0.0007094239, -0.4982071, -0.475229, -9.603011, 0, 0, 43.35749, 1, 1, 1982, 1982
IMU, 12878493, 1, 0.002040224, 0.0001479953, -3.305927E-05, -0.4091197, -0.7480351, -9.812149, 0, 0, 40.5, 1, 1, 2006, 2016
ISBD, 12879688, 0, 3, [-1 0 1 0 0 0 1 1 0 0 1 2 2 2 0 3 1 0 2 1 3 0 0 0 0 0 0 0 0 1 2 1], [-6 -8 -8 -8 -8 -7 -6 -8 -7 -7 -6 -7 -10 -7 -6 -7 -7 -8 -4 -5 -10 -9 -9 -8 -7 -6 -6 -5 -3 -4 -6 -5], [0 0 0 -1 -2 -1 0 0 0 0 0 0 -1 -1 0 0 1 0 0 0 0 0 -1 -2 -1 -1 0 -2 -2 -3 -2 0]
ATT, 12898407, 0, 0.4759781, 0, -1.064707, 0, 359.917, 3
XKF4, 12897895, 0, 0, 0, 0.03, 0, 0, 0.03364686, 0, 0, 0, 50, 65703, 0, 0
XKF1, 12897895, 0, 0.47, -1.06, 359.91, 0.05257604, -0.01263781, 0.08906654, -0.2920775, 0, 0, -0.0216369, 0.05, -0.15, -0.01, 0
XKF2, 12897895, 0, 0, 0, 0.16, 0, 0, 0, 0, 0, 0, 0, 0, 0, 0, 0
XKF3, 12897895, 0, 0, 0, 0, 0.01, 0, 0.34, 0, 0, 0, 0, 0, 0, 0
XKF5, 12897895, 0, 0, 0, 0, 0, 0.34, 0.31, 0, 0, 0.5, 0.0001861343, 0.00340896, 0.002945732
XKFS, 12897895, 0, 0, 0, 0, 0, 0, 0, 0, 0
XKQ, 12897895, 0, 0.9993081, 0.02371943, -0.02864712, -4.376542E-05
XKF4, 12897895, 1, 0, 0, 0, 0, 0, 0.03268076, 0, 0, 0, 50, 65703, 0, 0
XKF1, 12897895, 1, 2.12, -0.16, 0.01, -0.001017491, 6.40323E-05, -0.1205974, -0.1991115, 0, 0, -0.2913418, 0.05, 0, 0, 0
XKF2, 12897895, 1, 0, 0, 0.02, 0, 0, 0, 0, 0, 0, 0, 0, 0, 0, 0
XKF3, 12897895, 1, 0, 0, 0, 0, 0, 0.08, 0, 0, 0, 0, 0, 0, 0
XKFS, 12897895, 1, 0, 0, 0, 0, 0, 0, 0, 0
XKQ, 12897895, 1, 0.9990556, 0.03815437, -0.02076679, 0.000901122
AHR2, 12898481, 0.61, -1.06, 359.79, 0.19, 0, 0, 0.9999412, 0.005309699, -0.009351436, -0.001384741
PIDS, 12898486, 0, 0, 0, 0, 0, 0, 0, 0, 0, 0, 0
PIDA, 12898490, 0, 0, 0, 0, 0, 0, 0, 0, 0, 0, 0
IMU, 12898494, 0, 0.0006997217, -0.007170759, -0.0006831485, -0.5012913, -0.4731822, -9.60181, 0, 0, 43.35749, 1, 1, 1982, 1982
IMU, 12898494, 1, 0.001827006, 0.0002600348, -0.0001151529, -0.4161997, -0.7442663, -9.805019, 0, 0, 40.5, 1, 1, 2006, 2016
ISBD, 12899625, 0, 4, [0 0 1 1 0 1 1 0 1 0 1 0 0 1 0 1 1 1 1 0 2 0 0 1 -1 0 0 0 0 0 3 1], [-7 -9 -10 -6 -3 -8 -8 -8 -6 -6 -11 -9 -6 -6 -6 -8 -8 -7 -6 -6 -6 -6 -4 -6 -8 -7 -5 -9 -9 -4 -6 -6], [0 -1 -2 -2 -2 -2 -2 0 0 0 -1 -1 0 0 -1 -1 -1 0 0 0 0 0 -2 -1 0 2 0 -1 0 0 0 -1]
DCM, 12917825, 0.6123897, -1.07732, 359.7909, 0.003470346, 1, 0, 0, 0
EAHR, 12917842, 0, 0, 0, 0, 0, 0, 0, 0, 0, 0
ATT, 12918421, 0, 0.4750772, 0, -1.069688, 0, 359.9163, 3
XKF4, 12917855, 0, 0, 0, 0.03, 0, 0, 0.03381738, 0, 0, 0, 50, 65703, 0, 0
XKF1, 12917855, 0, 0.47, -1.06, 359.91, 0.05366121, -0.0127723, 0.08639896, -0.2897027, 0, 0, -0.02622016, 0.05, -0.15, -0.01, 0
XKF2, 12917855, 0, 0, 0, 0.16, 0, 0, 0, 0, 0, 0, 0, 0, 0, 0, 0
XKF3, 12917855, 0, 0, 0, 0, 0.01, 0, 0.34, 0, 0, 0, 0, 0, 0, 0
XKF5, 12917855, 0, 0, 0, 0, 0, 0.34, 0.31, 0, 0, 0.5, 0.000165267, 0.004033164, 0.007965278
XKFS, 12917855, 0, 0, 0, 0, 0, 0, 0, 0, 0
XKQ, 12917855, 0, 0.9993071, 0.02371133, -0.0286907, -4.90569E-05
XKF4, 12917855, 1, 0, 0, 0, 0, 0, 0.03284353, 0, 0, 0, 50, 65703, 0, 0
XKF1, 12917855, 1, 2.12, -0.16, 0.01, -0.001412031, -7.696985E-05, -0.1222837, -0.2017443, 0, 0, -0.295124, 0.05, 0, 0, 0
XKF2, 12917855, 1, 0, 0, 0.02, 0, 0, 0, 0, 0, 0, 0, 0, 0, 0, 0
XKF3, 12917855, 1, 0, 0, 0, 0, 0, 0.08, 0, 0, 0, 0, 0, 0, 0
XKFS, 12917855, 1, 0, 0, 0, 0, 0, 0, 0, 0
XKQ, 12917855, 1, 0.9990552, 0.03815424, -0.02078648, 0.0009024426
AHR2, 12918515, 0.61, -1.07, 359.79, 0.19, 0, 0, 0.9999406, 0.005313326, -0.00941781, -0.001395319
PIDS, 12918520, 0, 0, 0, 0, 0, 0, 0, 0, 0, 0, 0
PIDA, 12918524, 0, 0, 0, 0, 0, 0, 0, 0, 0, 0, 0
IMU, 12918528, 0, 0.000643006, -0.007255586, -0.000633325, -0.4997755, -0.4725957, -9.599833, 0, 0, 43.35749, 1, 1, 1982, 1982
IMU, 12918528, 1, 0.001534714, -1.145339E-05, -6.48711E-05, -0.4209518, -0.7468624, -9.806202, 0, 0, 40.5, 1, 1, 2006, 2016
ISBD, 12919663, 0, 5, [0 0 1 2 1 0 0 0 1 0 0 1 3 3 3 0 -1 0 0 2 2 0 2 2 3 2 1 1 1 0 1 0], [-8 -8 -8 -7 -7 -8 -8 -7 -7 -7 -6 -6 -7 -7 -7 -6 -8 -4 -1 -7 -6 -4 -6 -5 -7 -9 -7 -6 -7 -6 -7 -7], [-2 0 0 0 0 -1 -1 -1 -1 -1 -2 -3 -4 -3 0 1 0 -1 -1 0 0 -1 -2 -2 -2 -1 0 0 0 -1 0 -1]
ATT, 12938770, 0, 0.4739199, 0, -1.074666, 0, 359.9154, 3
XKF4, 12937841, 0, 0, 0, 0.01, 0, 0, 0.03398757, 0, 0, 0, 50, 65703, 0, 0
XKF1, 12937841, 0, 0.47, -1.07, 359.91, 0.05474178, -0.0130141, 0.08336815, -0.2807755, 0, 0, -0.03170882, 0.05, -0.15, -0.01, 0
XKF2, 12937841, 0, 0, 0, 0.16, 0, 0, 0, 0, 0, 0, 0, 0, 0, 0, 0
XKF3, 12937841, 0, 0, 0, 0, 0.02, 0, 0.17, 0, 0, 0, 0, 0, 0, 0
XKF5, 12937841, 0, 0, 0, 0, 0, 0.35, 0.31, 0, 0, 0.5, 0.0001683883, 0.004783664, 0.004753515
XKFS, 12937841, 0, 0, 0, 0, 0, 0, 0, 0, 0
XKQ, 12937841, 0, 0.9993061, 0.02370096, -0.02873428, -5.591443E-05
XKF4, 12937841, 1, 0, 0, 0, 0, 0, 0.03300637, 0, 0, 0, 50, 65703, 0, 0
XKF1, 12937841, 1, 2.12, -0.16, 0.01, -0.001347686, -0.0001035857, -0.1233472, -0.2014095, 0, 0, -0.298076, 0.05, 0, 0, 0
XKF2, 12937841, 1, 0, 0, 0.01, 0, 0, 0, 0, 0, 0, 0, 0, 0, 0, 0
XKF3, 12937841, 1, 0, 0, 0, 0, 0, -0.08, 0, 0, 0, 0, 0, 0, 0
XKFS, 12937841, 1, 0, 0, 0, 0, 0, 0, 0, 0
XKQ, 12937841, 1, 0.9990564, 0.03813923, -0.02075816, 0.0009035002
AHR2, 12938841, 0.61, -1.08, 359.78, 0.19, 0, 0, 0.9999399, 0.005314859, -0.009483893, -0.001407415
PIDS, 12938846, 0, 0, 0, 0, 0, 0, 0, 0, 0, 0, 0
PIDA, 12938850, 0, 0, 0, 0, 0, 0, 0, 0, 0, 0, 0
IMU, 12938854, 0, 0.0005967809, -0.007364647, -0.0006578177, -0.4998504, -0.4737627, -9.596109, 0, 0, 43.35749, 1, 1, 1982, 1982
IMU, 12938854, 1, 0.001098491, 8.875276E-05, 8.206043E-05, -0.4131432, -0.7534307, -9.796489, 0, 0, 40.5, 1, 1, 2006, 2016
BARO, 12938929, 0, 0.1587811, 0.1587811, 101124.4, 26.41, -0.09704927, 12938, 0, 26.28378, 1
MAG, 12938946, 0, -27, -1046, 1510, 0, 0, 0, 0, 0, 0, 1, 12938945
THR, 12938953, 0, 0, 0, 0.05475679, -0.4998504
NTUN, 12938957, 0, 0, 0, 35992, 0
STER, 12938964, 0, 0, 0, -2.371355E-05, 0, -0.02481311
RCIN, 12938983, 1522, 1479, 1631, 1495, 2000, 1000, 1500, 1500, 0, 0, 0, 0, 0, 0
RCI2, 12938999, 0, 0, 0, 1
RCOU, 12939006, 1496, 1500, 1526, 0, 0, 0, 0, 0, 0, 0, 0, 0, 0, 0
RCO2, 12939009, 0, 0, 0, 0
VIBE, 12939013, 0, 0.00874361, 0.009347487, 0.009066964, 0
VIBE, 12939013, 1, 0.07227392, 0.03660245, 0.07327236, 0
POWR, 12939096, 5.13067, 5.860219, 1, 1, 6
MCU, 12939096, 26.42785, 3.365884, 3.353951, 3.374782
BAT, 12939125, 0, 23.99603, 24.94434, 0.2955352, 0.7870016, 0.01888941, 0, 3.208803, 255, 0, 0
ISBD, 12940152, 0, 6, [1 2 1 1 2 2 1 1 0 3 2 0 1 2 2 1 2 1 0 0 0 0 1 1 1 1 0 -2 2 2 2 2], [-8 -9 -7 -6 -5 -7 -8 -5 -4 -9 -8 -6 -6 -6 -8 -7 -6 -7 -7 -8 -7 -6 -5 -6 -6 -7 -8 -6 -6 -9 -10 -5], [-1 -1 0 0 -1 -2 -1 0 0 0 -1 0 0 0 0 0 -1 -1 0 0 -1 0 0 -1 -2 -3 -2 0 -3 -3 0 0]
ATT, 12958344, 0, 0.4732877, 0, -1.079889, 0, 359.9146, 3
XKF4, 12957830, 0, 0, 0, 0.01, 0, 0, 0.03414355, 0, 0, 0, 50, 65703, 0, 0
XKF1, 12957830, 0, 0.47, -1.07, 359.91, 0.05585787, -0.0130619, 0.08035652, -0.2795357, 0, 0, -0.03673156, 0.05, -0.15, -0.01, 0
XKF2, 12957830, 0, 0, 0, 0.16, 0, 0, 0, 0, 0, 0, 0, 0, 0, 0, 0
XKF3, 12957830, 0, 0, 0, 0, 0.02, 0, 0.17, 0, 0, 0, 0, 0, 0, 0
XKF5, 12957830, 0, 0, 0, 0, 0, 0.35, 0.31, 0, 0, 0.5, 0.0001523242, 0.003549732, 0.004216875
XKFS, 12957830, 0, 0, 0, 0, 0, 0, 0, 0, 0
XKQ, 12957830, 0, 0.9993049, 0.02369519, -0.02878, -6.185555E-05
XKF4, 12957830, 1, 0, 0, 0, 0, 0, 0.03315594, 0, 0, 0, 50, 65703, 0, 0
XKF1, 12957830, 1, 2.12, -0.15, 0.01, -0.001450647, 4.997453E-05, -0.1243272, -0.1935915, 0, 0, -0.3010097, 0.05, 0, 0, 0
XKF2, 12957830, 1, 0, 0, 0.01, 0, 0, 0, 0, 0, 0, 0, 0, 0, 0, 0
XKF3, 12957830, 1, 0, 0, 0, 0, 0, -0.08, 0, 0, 0, 0, 0, 0, 0
XKFS, 12957830, 1, 0, 0, 0, 0, 0, 0, 0, 0
XKQ, 12957830, 1, 0.9990574, 0.03813316, -0.02072195, 0.0009127747
AHR2, 12958418, 0.61, -1.09, 359.78, 0.15, 0, 0, 0.9999393, 0.005321312, -0.009552043, -0.001418422
PIDS, 12958422, 0, 0, 0, 0, 0, 0, 0, 0, 0, 0, 0
PIDA, 12958426, 0, 0, 0, 0, 0, 0, 0, 0, 0, 0, 0
IMU, 12958430, 0, 0.0005042798, -0.00747899, -0.0007041568, -0.4999608, -0.4722585, -9.599477, 0, 0, 43.35749, 1, 1, 1982, 1982
IMU, 12958430, 1, 0.0008291659, 0.0004612101, 8.590409E-05, -0.4141021, -0.7484245, -9.790441, 0, 0, 40.5, 1, 1, 2006, 2016
ATT, 12978392, 0, 0.4723287, 0, -1.084023, 0, 359.9132, 3
XKF4, 12977844, 0, 0, 0, 0.01, 0, 0, 0.03431424, 0, 0, 0, 50, 65703, 0, 0
XKF1, 12977844, 0, 0.47, -1.08, 359.91, 0.05696334, -0.01316387, 0.07768144, -0.2753947, 0, 0, -0.04135127, 0.05, -0.15, -0.01, 0
XKF2, 12977844, 0, 0, 0, 0.16, 0, 0, 0, 0, 0, 0, 0, 0, 0, 0, 0
XKF3, 12977844, 0, 0, 0, 0, 0.02, 0, 0.17, 0, 0, 0, 0, 0, 0, 0
XKF5, 12977844, 0, 0, 0, 0, 0, 0.35, 0.31, 0, 0, 0.5, 0.0001383537, 0.004891254, 0.009656578
XKFS, 12977844, 0, 0, 0, 0, 0, 0, 0, 0, 0
XKQ, 12977844, 0, 0.9993041, 0.02368641, -0.02881634, -7.395654E-05
XKF4, 12977844, 1, 0, 0, 0, 0, 0, 0.03332057, 0, 0, 0, 50, 65703, 0, 0
XKF1, 12977844, 1, 2.12, -0.15, 0.01, -0.001346271, 0.0001177376, -0.1250604, -0.1842524, 0, 0, -0.3039235, 0.05, 0, 0, 0
XKF2, 12977844, 1, 0, 0, 0.01, 0, 0, 0, 0, 0, 0, 0, 0, 0, 0, 0
XKF3, 12977844, 1, 0, 0, 0, 0, 0, -0.08, 0, 0, 0, 0, 0, 0, 0
XKFS, 12977844, 1, 0, 0, 0, 0, 0, 0, 0, 0
XKQ, 12977844, 1, 0.9990573, 0.03814611, -0.02070135, 0.0009104363
AHR2, 12978466, 0.61, -1.09, 359.78, 0.15, 0, 0, 0.9999386, 0.005324587, -0.009609669, -0.001435224
PIDS, 12978470, 0, 0, 0, 0, 0, 0, 0, 0, 0, 0, 0
PIDA, 12978474, 0, 0, 0, 0, 0, 0, 0, 0, 0, 0, 0
IMU, 12978478, 0, 0.0004675574, -0.007481392, -0.0008146435, -0.4998221, -0.4688085, -9.603319, 0, 0, 43.35749, 1, 1, 1982, 1982
IMU, 12978478, 1, 0.0007228287, 0.001153414, -1.64201E-05, -0.4121837, -0.7462807, -9.78628, 0, 0, 40.5, 1, 1, 2006, 2016
ISBD, 12979663, 0, 7, [1 2 0 0 1 2 1 1 1 1 1 0 1 0 0 0 0 0 0 0 0 1 -1 -1 0 -1 0 0 0 0 1 1], [-7 -10 -7 -7 -6 -7 -8 -8 -6 -5 -6 -5 -5 -5 -4 -4 -5 -9 -10 -6 -7 -9 -5 -5 -5 -8 -9 -6 -6 -7 -6 -5], [-1 -1 0 -1 0 0 -1 0 0 -1 -1 -1 0 0 0 1 0 -1 -1 0 0 0 -2 -3 -1 0 0 0 0 0 -2 -3]
ATT, 12998575, 0, 0.4721605, 0, -1.090203, 0, 359.9124, 3
XKF4, 12997893, 0, 0, 0, 0.01, 0, 0, 0.03448482, 0, 0, 0, 50, 65703, 0, 0
XKF1, 12997893, 0, 0.47, -1.09, 359.91, 0.05821799, -0.01334468, 0.07527073, -0.2679084, 0, 0, -0.04551883, 0.05, -0.15, -0.01, 0
XKF2, 12997893, 0, 0, 0, 0.16, 0, 0, 0, 0, 0, 0, 0, 0, 0, 0, 0
XKF3, 12997893, 0, 0, 0, 0, 0.02, 0, 0.17, 0, 0, 0, 0, 0, 0, 0
XKF5, 12997893, 0, 0, 0, 0, 0, 0.35, 0.31, 0, 0, 0.5, 0.0001264243, 0.007206076, 0.01524247
XKFS, 12997893, 0, 0, 0, 0, 0, 0, 0, 0, 0
XKQ, 12997893, 0, 0.9993025, 0.02368466, -0.02887041, -7.96607E-05
XKF4, 12997893, 1, 0, 0, 0, 0, 0, 0.03348363, 0, 0, 0, 50, 65703, 0, 0
XKF1, 12997893, 1, 2.12, -0.15, 0.01, -0.001278261, 5.9795E-05, -0.1265005, -0.1762886, 0, 0, -0.306824, 0.05, 0, 0, 0
XKF2, 12997893, 1, 0, 0, 0.01, 0, 0, 0, 0, 0, 0, 0, 0, 0, 0, 0
XKF3, 12997893, 1, 0, 0, 0, 0, 0, -0.08, 0, 0, 0, 0, 0, 0, 0
XKFS, 12997893, 1, 0, 0, 0, 0, 0, 0, 0, 0
XKQ, 12997893, 1, 0.9990563, 0.03816038, -0.02072477, 0.0008991498
AHR2, 12998683, 0.61, -1.1, 359.78, 0.15, 0, 0, 0.9999378, 0.005334904, -0.009685099, -0.00144583
PIDS, 12998688, 0, 0, 0, 0, 0, 0, 0, 0, 0, 0, 0
PIDA, 12998692, 0, 0, 0, 0, 0, 0, 0, 0, 0, 0, 0
IMU, 12998696, 0, 0.0004906714, -0.007511823, -0.0008922318, -0.4993185, -0.4709074, -9.602405, 0, 0, 43.35749, 1, 1, 1982, 1982
IMU, 12998696, 1, 0.001131952, 0.001184799, -0.000236976, -0.4039992, -0.7478032, -9.792052, 0, 0, 40.5, 1, 1, 2006, 2016
ISBD, 12999935, 0, 8, [0 0 -1 0 0 0 0 0 0 1 0 -2 0 0 1 -1 -4 -1 0 0 0 0 1 1 1 1 1 0 0 2 1 0], [-4 -6 -7 -8 -8 -8 -5 -3 -5 -8 -5 -5 -5 -5 -10 -5 -3 -5 -6 -7 -9 -9 -7 -5 -6 -6 -5 -6 -7 -10 -10 -6], [-3 -3 -2 -1 0 0 0 0 0 -1 -1 -1 -1 -1 -1 0 1 0 0 -1 -1 -1 -1 -1 -1 -3 -3 -1 0 0 -2 0]
DCM, 13017821, 0.6150999, -1.115557, 359.7838, 0.003470346, 1, 0, 0, 0
EAHR, 13017845, 0, 0, 0, 0, 0, 0, 0, 0, 0, 0
ATT, 13018389, 0, 0.4708969, 0, -1.095444, 0, 359.9118, 3
XKF4, 13017886, 0, 0, 0, 0.01, 0, 0, 0.0346173, 0, 0, 0, 50, 65703, 0, 0
XKF1, 13017886, 0, 0.47, -1.09, 359.91, 0.05947633, -0.01359144, 0.07307462, -0.2545886, 0, 0, -0.04929583, 0.05, -0.15, -0.01, 0
XKF2, 13017886, 0, 0, 0, 0.16, 0, 0, 0, 0, 0, 0, 0, 0, 0, 0, 0
XKF3, 13017886, 0, 0, 0, 0, 0.02, 0, 0.17, 0, 0, 0, 0, 0, 0, 0
XKF5, 13017886, 0, 0, 0, 0, 0, 0.35, 0.31, 0, 0, 0.5, 0.0001136105, 0.009689719, 0.02055679
XKFS, 13017886, 0, 0, 0, 0, 0, 0, 0, 0, 0
XKQ, 13017886, 0, 0.9993014, 0.02367343, -0.02891623, -8.405367E-05
XKF4, 13017886, 1, 0, 0, 0, 0, 0, 0.03359134, 0, 0, 0, 50, 65703, 0, 0
XKF1, 13017886, 1, 2.12, -0.15, 0.01, -0.001379448, 0.0002927362, -0.1276787, -0.1689172, 0, 0, -0.3097801, 0.05, 0, 0, 0
XKF2, 13017886, 1, 0, 0, 0.01, 0, 0, 0, 0, 0, 0, 0, 0, 0, 0, 0
XKF3, 13017886, 1, 0, 0, 0, 0, 0, -0.08, 0, 0, 0, 0, 0, 0, 0
XKFS, 13017886, 1, 0, 0, 0, 0, 0, 0, 0, 0
XKQ, 13017886, 1, 0.9990568, 0.03816416, -0.0206936, 0.0008970481
AHR2, 13018487, 0.61, -1.11, 359.78, 0.15, 0, 0, 0.9999371, 0.005335622, -0.00975185, -0.001455034
PIDS, 13018491, 0, 0, 0, 0, 0, 0, 0, 0, 0, 0, 0
PIDA, 13018495, 0, 0, 0, 0, 0, 0, 0, 0, 0, 0, 0
IMU, 13018499, 0, 0.0005522402, -0.007621144, -0.0008791029, -0.4983186, -0.474159, -9.601338, 0, 0, 43.35749, 1, 1, 1982, 1982
IMU, 13018499, 1, 0.001425165, 0.001185262, -0.0004080197, -0.4077776, -0.7459106, -9.805821, 0, 0, 40.5, 1, 1, 2006, 2016
ISBD, 13019671, 0, 9, [0 2 0 1 3 3 3 1 1 0 0 0 2 2 1 2 2 1 0 2 1 1 0 1 0 0 4 2 1 1 0 0], [-4 -7 -8 -10 -6 -6 -9 -7 -8 -7 -7 -8 -7 -6 -6 -6 -5 -4 -4 -8 -10 -6 -3 -7 -6 -4 -7 -7 -8 -8 -6 -6], [0 0 0 0 0 -1 -2 -2 -2 -1 0 0 -1 -1 -1 0 -2 -2 0 0 -1 -2 -2 -2 -1 0 0 -2 -1 -1 0 0]
ATT, 13038754, 0, 0.4692884, 0, -1.100115, 0, 359.9107, 3
XKF4, 13037842, 0, 0, 0, 0.01, 0, 0, 0.03478787, 0, 0, 0, 50, 65703, 0, 0
XKF1, 13037842, 0, 0.46, -1.1, 359.91, 0.06077222, -0.01384696, 0.07063764, -0.2380229, 0, 0, -0.05370657, 0.05, -0.15, -0.01, 0
XKF2, 13037842, 0, 0, 0, 0.16, 0, 0, 0, 0, 0, 0, 0, 0, 0, 0, 0
XKF3, 13037842, 0, 0, 0, 0, 0.02, 0, 0.12, 0, 0, 0, 0, 0, 0, 0
XKF5, 13037842, 0, 0, 0, 0, 0, 0.36, 0.31, 0, 0, 0.5, 0.0001174472, 0.006628544, 0.0136329
XKFS, 13037842, 0, 0, 0, 0, 0, 0, 0, 0, 0
XKQ, 13037842, 0, 0.9993006, 0.02365907, -0.02895718, -9.292919E-05
XKF4, 13037842, 1, 0, 0, 0.01, 0, 0, 0.03375392, 0, 0, 0, 50, 65703, 0, 0
XKF1, 13037842, 1, 2.13, -0.15, 0.01, -0.001610941, 0.0004584955, -0.127717, -0.1621015, 0, 0, -0.311715, 0.05, 0, 0, 0
XKF2, 13037842, 1, 0, 0, 0.01, 0, 0, 0, 0, 0, 0, 0, 0, 0, 0, 0
XKF3, 13037842, 1, 0, 0, 0, 0, 0, -0.12, 0, 0, 0, 0, 0, 0, 0
XKFS, 13037842, 1, 0, 0, 0, 0, 0, 0, 0, 0
XKQ, 13037842, 1, 0.9990553, 0.03819475, -0.02070725, 0.0008839132
AHR2, 13038841, 0.61, -1.12, 359.78, 0.15, 0, 0, 0.9999365, 0.005332946, -0.009812714, -0.0014685
PIDS, 13038846, 0, 0, 0, 0, 0, 0, 0, 0, 0, 0, 0
PIDA, 13038850, 0, 0, 0, 0, 0, 0, 0, 0, 0, 0, 0
IMU, 13038854, 0, 0.0004736386, -0.007647363, -0.0008687702, -0.496681, -0.4760009, -9.599641, 0, 0, 43.35749, 1, 1, 1982, 1982
IMU, 13038854, 1, 0.001813465, 0.0008547116, -0.0003394582, -0.418543, -0.7424156, -9.791736, 0, 0, 40.5, 1, 1, 2006, 2016
BARO, 13038922, 0, 0.2381706, 0.2381706, 101123.4, 26.41, -0.408871, 13038, 0, 26.28378, 1
MAG, 13038939, 0, -26, -1047, 1509, 0, 0, 0, 0, 0, 0, 1, 13038938
THR, 13038946, 0, 0, 0, 0.06078936, -0.496681
NTUN, 13038950, 0, 0, 0, 35992, 0
STER, 13038956, 0, 0, 0, -3.942342E-05, 0, -0.03715774
RCIN, 13038966, 1522, 1479, 1631, 1495, 2000, 1000, 1500, 1500, 0, 0, 0, 0, 0, 0
RCI2, 13038969, 0, 0, 0, 1
RCOU, 13038976, 1496, 1500, 1526, 0, 0, 0, 0, 0, 0, 0, 0, 0, 0, 0
RCO2, 13039010, 0, 0, 0, 0
VIBE, 13039015, 0, 0.007966439, 0.009003279, 0.008898928, 0
VIBE, 13039015, 1, 0.06688256, 0.03589639, 0.07053562, 0
POWR, 13039087, 5.134396, 5.860219, 1, 1, 6
MCU, 13039087, 26.38749, 3.366024, 3.354791, 3.374782
BAT, 13039115, 0, 23.99621, 24.94394, 0.295352, 0.7952057, 0.01908628, 0, 3.208803, 255, 0, 0
ISBD, 13040159, 0, 10, [0 0 2 1 0 0 0 1 1 1 0 0 -1 0 1 2 2 1 3 4 3 4 3 1 0 0 0 0 1 2 2 0], [-6 -6 -6 -5 -6 -6 -5 -6 -8 -10 -10 -7 -7 -7 -7 -10 -5 -4 -9 -10 -7 -5 -7 -9 -9 -7 -6 -8 -9 -7 -8 -10], [0 0 0 -1 -1 0 0 -2 0 0 -1 -2 -1 0 0 -2 -1 0 0 0 0 -1 -2 -1 -1 -1 -1 0 0 -1 -2 -1]
ATT, 13058336, 0, 0.4683345, 0, -1.104949, 0, 359.9102, 3
XKF4, 13057829, 0, 0, 0, 0.01, 0, 0, 0.0349398, 0, 0, 0, 50, 65703, 0, 0
XKF1, 13057829, 0, 0.46, -1.1, 359.91, 0.06199047, -0.0140501, 0.06840349, -0.2302373, 0, 0, -0.05770966, 0.05, -0.15, -0.01, 0
XKF2, 13057829, 0, 0, 0, 0.16, 0, 0, 0, 0, 0, 0, 0, 0, 0, 0, 0
XKF3, 13057829, 0, 0, 0, 0, 0.02, 0, 0.12, 0, 0, 0, 0, 0, 0, 0
XKF5, 13057829, 0, 0, 0, 0, 0, 0.36, 0.31, 0, 0, 0.5, 0.0001074278, 0.009060083, 0.01905641
XKFS, 13057829, 0, 0, 0, 0, 0, 0, 0, 0, 0
XKQ, 13057829, 0, 0.9992996, 0.02365057, -0.02899944, -9.619656E-05
XKV1, 13057829, 0, 2.210885E-07, 0.0001502287, 0.0001502521, 0.003719459, 0.1753599, 0.1751819, 0.1418208, 0.1526827, 0.1526126, 0.4010161, 1.528941E-08, 1.527871E-08
XKV2, 13057829, 0, 2.450321E-07, 1.345149E-05, 1.345149E-05, 3.86785E-06, 0, 0, 0, 0, 0, 0, 0, 0
XKF4, 13057829, 1, 0, 0, 0.01, 0, 0, 0.03389992, 0, 0, 0, 50, 65703, 0, 0
XKF1, 13057829, 1, 2.13, -0.15, 0.01, -0.001559421, 0.0004717505, -0.1283509, -0.1469517, 0, 0, -0.313625, 0.05, 0, 0, 0
XKF2, 13057829, 1, 0, 0, 0.01, 0, 0, 0, 0, 0, 0, 0, 0, 0, 0, 0
XKF3, 13057829, 1, 0, 0, 0, 0, 0, -0.12, 0, 0, 0, 0, 0, 0, 0
XKFS, 13057829, 1, 0, 0, 0, 0, 0, 0, 0, 0
XKQ, 13057829, 1, 0.9990554, 0.03819076, -0.0207081, 0.0009084882
AHR2, 13058418, 0.61, -1.12, 359.78, 0.23, 0, 0, 0.9999359, 0.005336038, -0.009872571, -0.001476237
PIDS, 13058422, 0, 0, 0, 0, 0, 0, 0, 0, 0, 0, 0
PIDA, 13058426, 0, 0, 0, 0, 0, 0, 0, 0, 0, 0, 0
IMU, 13058430, 0, 0.0003855339, -0.007548959, -0.0008484134, -0.4971859, -0.4759109, -9.598701, 0, 0, 43.35749, 1, 1, 1982, 1982
IMU, 13058430, 1, 0.001983051, 0.0004902587, -0.0002592028, -0.413252, -0.7468136, -9.783526, 0, 0, 40.5, 1, 1, 2006, 2016
ATT, 13078452, 0, 0.4674214, 0, -1.110061, 0, 359.9102, 3
XKF4, 13077899, 0, 0, 0, 0.01, 0, 0, 0.03511022, 0, 0, 0, 50, 65703, 0, 0
XKF1, 13077899, 0, 0.46, -1.11, 359.91, 0.06336898, -0.01431708, 0.06634884, -0.2217499, 0, 0, -0.06130075, 0.05, -0.15, -0.01, 0
XKF2, 13077899, 0, 0, 0, 0.16, 0, 0, 0, 0, 0, 0, 0, 0, 0, 0, 0
XKF3, 13077899, 0, 0, 0, 0, 0.02, 0, 0.12, 0, 0, 0, 0, 0, 0, 0
XKF5, 13077899, 0, 0, 0, 0, 0, 0.35, 0.31, 0, 0, 0.5, 9.859794E-05, 0.01142943, 0.02414137
XKFS, 13077899, 0, 0, 0, 0, 0, 0, 0, 0, 0
XKQ, 13077899, 0, 0.9992985, 0.02364253, -0.02904402, -9.5665E-05
XKF4, 13077899, 1, 0, 0, 0.01, 0, 0, 0.03406353, 0, 0, 0, 50, 65703, 0, 0
XKF1, 13077899, 1, 2.13, -0.15, 0.01, -0.001402464, 0.0007171427, -0.1290546, -0.1320064, 0, 0, -0.315576, 0.05, 0, 0, 0
XKF2, 13077899, 1, 0, 0, 0.01, 0, 0, 0, 0, 0, 0, 0, 0, 0, 0, 0
XKF3, 13077899, 1, 0, 0, 0, 0, 0, -0.12, 0, 0, 0, 0, 0, 0, 0
XKFS, 13077899, 1, 0, 0, 0, 0, 0, 0, 0, 0
XKQ, 13077899, 1, 0.9990557, 0.03819752, -0.02068578, 0.000899033
AHR2, 13078526, 0.61, -1.13, 359.78, 0.23, 0, 0, 0.9999352, 0.005339596, -0.009934861, -0.001480242
PIDS, 13078531, 0, 0, 0, 0, 0, 0, 0, 0, 0, 0, 0
PIDA, 13078535, 0, 0, 0, 0, 0, 0, 0, 0, 0, 0, 0
IMU, 13078541, 0, 0.0003617841, -0.007479229, -0.0007452908, -0.4977271, -0.4748892, -9.600299, 0, 0, 43.35749, 1, 1, 1982, 1982
IMU, 13078541, 1, 0.002077107, 0.0005528522, -0.0001814815, -0.4039169, -0.7460307, -9.793226, 0, 0, 40.5, 1, 1, 2006, 2016
ISBD, 13079757, 0, 11, [0 2 0 2 0 -2 1 0 0 0 -2 0 0 1 0 0 0 0 0 0 1 2 0 1 1 0 1 1 3 2 0 0], [-11 -6 -3 -8 -8 -7 -5 -5 -9 -7 -4 -4 -6 -8 -9 -9 -7 -5 -6 -7 -7 -9 -11 -8 -6 -11 -8 -5 -7 -6 -8 -7], [-1 -2 -2 -1 -1 0 0 -1 -1 0 -1 -2 -2 -1 0 0 0 0 0 0 0 0 0 1 0 -1 -1 -1 -2 -1 -2 -2]
ATT, 13098383, 0, 0.4667646, 0, -1.115422, 0, 359.9095, 3
XKF4, 13097839, 0, 0, 0, 0.01, 0, 0, 0.03528075, 0, 0, 0, 50, 65703, 0, 0
XKF1, 13097839, 0, 0.46, -1.11, 359.9, 0.06479368, -0.01446492, 0.06455796, -0.2090681, 0, 0, -0.06453686, 0.05, -0.15, -0.01, 0
XKF2, 13097839, 0, 0, 0, 0.16, 0, 0, 0, 0, 0, 0, 0, 0, 0, 0, 0
XKF3, 13097839, 0, 0, 0, 0, 0.02, 0, 0.12, 0, 0, 0, 0, 0, 0, 0
XKF5, 13097839, 0, 0, 0, 0, 0, 0.35, 0.31, 0, 0, 0.5, 9.097766E-05, 0.01365953, 0.02888173
XKFS, 13097839, 0, 0, 0, 0, 0, 0, 0, 0, 0
XKQ, 13097839, 0, 0.9992973, 0.02363655, -0.02909092, -0.0001010856
XKF4, 13097839, 1, 0, 0, 0.01, 0, 0, 0.03422559, 0, 0, 0, 50, 65703, 0, 0
XKF1, 13097839, 1, 2.13, -0.15, 0.01, -0.001278114, 0.0005940511, -0.1298043, -0.1197794, 0, 0, -0.3175667, 0.05, 0, 0, 0
XKF2, 13097839, 1, 0, 0, 0.01, 0, 0, 0, 0, 0, 0, 0, 0, 0, 0, 0
XKF3, 13097839, 1, 0, 0, 0, 0, 0, -0.12, 0, 0, 0, 0, 0, 0, 0
XKFS, 13097839, 1, 0, 0, 0, 0, 0, 0, 0, 0
XKQ, 13097839, 1, 0.9990551, 0.03820692, -0.02069633, 0.0008916464
AHR2, 13098479, 0.61, -1.14, 359.77, 0.23, 0, 0, 0.9999346, 0.005345183, -0.00999904, -0.001490154
PIDS, 13098484, 0, 0, 0, 0, 0, 0, 0, 0, 0, 0, 0
PIDA, 13098488, 0, 0, 0, 0, 0, 0, 0, 0, 0, 0, 0
IMU, 13098492, 0, 0.0003713882, -0.007425128, -0.0006383694, -0.4948152, -0.4728426, -9.598999, 0, 0, 43.35749, 1, 1, 1982, 1982
IMU, 13098492, 1, 0.001915965, 0.0004586615, -0.0001360281, -0.405059, -0.7492561, -9.805826, 0, 0, 40.5, 1, 1, 2006, 2016
ISBD, 13099647, 0, 12, [0 2 3 1 1 2 1 0 1 2 2 1 1 3 1 1 1 -1 2 2 -1 0 0 0 0 0 2 2 2 0 -1 0], [-7 -7 -7 -6 -5 -6 -7 -7 -8 -9 -9 -9 -10 -6 -4 -10 -7 -1 -4 -6 -9 -7 -6 -7 -8 -8 -7 -5 -7 -6 -4 -5], [-1 -1 -2 -2 -1 0 0 0 0 0 -1 0 0 0 1 0 -1 -1 -2 -2 -1 -1 0 0 0 0 0 0 -1 0 0 0]
DCM, 13117821, 0.616788, -1.151333, 359.7785, 0.00394675, 1, 0, 0, 0
EAHR, 13117838, 0, 0, 0, 0, 0, 0, 0, 0, 0, 0
ATT, 13118366, 0, 0.4659638, 0, -1.120984, 0, 359.9088, 3
XKF4, 13117851, 0, 0, 0, 0.01, 0, 0, 0.03545145, 0, 0, 0, 50, 65703, 0, 0
XKF1, 13117851, 0, 0.46, -1.12, 359.9, 0.06621329, -0.01469474, 0.06304988, -0.1939596, 0, 0, -0.06746235, 0.05, -0.15, -0.01, 0
XKF2, 13117851, 0, 0, 0, 0.16, 0, 0, 0, 0, 0, 0, 0, 0, 0, 0, 0
XKF3, 13117851, 0, 0, 0, 0, 0.02, 0, 0.12, 0, 0, 0, 0, 0, 0, 0
XKF5, 13117851, 0, 0, 0, 0, 0, 0.35, 0.31, 0, 0, 0.5, 8.317958E-05, 0.01576561, 0.03330811
XKFS, 13117851, 0, 0, 0, 0, 0, 0, 0, 0, 0
XKQ, 13117851, 0, 0.999296, 0.02362932, -0.02913957, -0.0001063426
XKF4, 13117851, 1, 0, 0, 0.01, 0, 0, 0.03438782, 0, 0, 0, 50, 65703, 0, 0
XKF1, 13117851, 1, 2.13, -0.15, 0.01, -0.001079361, 0.0004977458, -0.1301087, -0.1095823, 0, 0, -0.3197201, 0.05, 0, 0, 0
XKF2, 13117851, 1, 0, 0, 0.01, 0, 0, 0, 0, 0, 0, 0, 0, 0, 0, 0
XKF3, 13117851, 1, 0, 0, 0, 0, 0, -0.12, 0, 0, 0, 0, 0, 0, 0
XKFS, 13117851, 1, 0, 0, 0, 0, 0, 0, 0, 0
XKQ, 13117851, 1, 0.9990539, 0.03822314, -0.02072353, 0.0008963324
AHR2, 13118437, 0.61, -1.15, 359.77, 0.23, 0, 0, 0.9999338, 0.005349162, -0.01006432, -0.001499838
PIDS, 13118442, 0, 0, 0, 0, 0, 0, 0, 0, 0, 0, 0
PIDA, 13118446, 0, 0, 0, 0, 0, 0, 0, 0, 0, 0, 0
IMU, 13118450, 0, 0.0003921742, -0.007448712, -0.0005629243, -0.4954511, -0.4721867, -9.595996, 0, 0, 43.35749, 1, 1, 1982, 1982
IMU, 13118450, 1, 0.001939927, -6.08966E-05, -0.0001378772, -0.3972952, -0.7549643, -9.791389, 0, 0, 40.5, 1, 1, 2006, 2016
ISBD, 13119633, 0, 13, [0 0 0 0 0 1 0 0 1 1 3 2 0 1 1 0 1 2 1 1 2 1 0 0 1 3 0 0 0 1 2 -1], [-7 -8 -10 -7 -5 -8 -6 -7 -4 -5 -11 -10 -7 -7 -5 -3 -5 -6 -7 -6 -6 -5 -6 -6 -5 -4 -5 -8 -5 -7 -9 -2], [-1 0 0 -2 -2 0 2 1 -1 0 0 0 0 0 -1 -1 -2 0 0 1 0 -1 -2 0 0 0 0 0 0 1 1 1]
ATT, 13138707, 0, 0.4650893, 0, -1.126446, 0, 359.9076, 3
XKF4, 13137841, 0, 0, 0, 0.01, 0, 0, 0.03562176, 0, 0, 0, 50, 65703, 0, 0
XKF1, 13137841, 0, 0.46, -1.12, 359.9, 0.06763139, -0.0149543, 0.06092502, -0.177757, 0, 0, -0.07159198, 0.05, -0.15, -0.01, 0
XKF2, 13137841, 0, 0, 0, 0.16, 0, 0, 0, 0, 0, 0, 0, 0, 0, 0, 0
XKF3, 13137841, 0, 0, 0, 0, 0.03, 0, 0.19, 0, 0, 0, 0, 0, 0, 0
XKF5, 13137841, 0, 0, 0, 0, 0, 0.37, 0.31, 0, 0, 0.5, 9.752108E-05, 0.008658481, 0.01824464
XKFS, 13137841, 0, 0, 0, 0, 0, 0, 0, 0, 0
XKQ, 13137841, 0, 0.9992948, 0.02362131, -0.02918744, -0.0001158018
XKF4, 13137841, 1, 0, 0, 0, 0, 0, 0.03455098, 0, 0, 0, 50, 65703, 0, 0
XKF1, 13137841, 1, 2.13, -0.16, 0.01, -0.0008414704, 0.0008095608, -0.1305247, -0.1036708, 0, 0, -0.3213406, 0.05, 0, 0, 0
XKF2, 13137841, 1, 0, 0, 0.01, 0, 0, 0, 0, 0, 0, 0, 0, 0, 0, 0
XKF3, 13137841, 1, 0, 0, 0, 0, 0, -0.04, 0, 0, 0, 0, 0, 0, 0
XKFS, 13137841, 1, 0, 0, 0, 0, 0, 0, 0, 0
XKQ, 13137841, 1, 0.999054, 0.03822048, -0.02072629, 0.0009058711
AHR2, 13138781, 0.61, -1.15, 359.77, 0.23, 0, 0, 0.9999332, 0.005352524, -0.01012886, -0.00151378
PIDS, 13138810, 0, 0, 0, 0, 0, 0, 0, 0, 0, 0, 0
PIDA, 13138843, 0, 0, 0, 0, 0, 0, 0, 0, 0, 0, 0
IMU, 13138858, 0, 0.0004662447, -0.007535028, -0.0006026086, -0.4958556, -0.4744857, -9.593734, 0, 0, 43.84058, 1, 1, 1982, 1982
IMU, 13138858, 1, 0.001780829, -0.0004619937, 0.0001365503, -0.3966931, -0.7478459, -9.790972, 0, 0, 40.5, 1, 1, 2006, 2016
BARO, 13138934, 0, 0.3646069, 0.3646069, 101121.9, 26.42, -0.3822446, 13138, 0, 26.28378, 1
MAG, 13138946, 0, -9, -1034, 1510, 0, 0, 0, 0, 0, 0, 1, 13138945
THR, 13138953, 0, 0, 0, 0.06765077, -0.4958556
NTUN, 13138957, 0, 0, 0, 35991, 0
STER, 13138963, 0, 0, 0, -2.581595E-05, 0, -0.02186442
RCIN, 13138969, 1522, 1479, 1630, 1495, 2000, 1000, 1500, 1500, 0, 0, 0, 0, 0, 0
RCI2, 13138973, 0, 0, 0, 1
RCOU, 13138979, 1496, 1500, 1526, 0, 0, 0, 0, 0, 0, 0, 0, 0, 0, 0
RCO2, 13138983, 0, 0, 0, 0
VIBE, 13138987, 0, 0.01024397, 0.01299013, 0.01190489, 0
VIBE, 13138987, 1, 0.06271401, 0.03607828, 0.06614658, 0
POWR, 13139038, 5.133893, 5.860219, 1, 1, 6
MCU, 13139038, 26.38749, 3.365884, 3.354931, 3.375349
BAT, 13139054, 0, 24.03622, 25.24423, 0.3764686, 0.8056576, 0.0193375, 0, 3.208803, 255, 0, 0
ISBD, 13140102, 0, 14, [0 2 0 0 2 2 2 0 0 1 2 2 3 2 0 -1 -2 0 1 1 0 0 3 0 0 0 0 2 1 1 0 0], [-5 -7 -5 -5 -6 -7 -7 -7 -7 -8 -8 -7 -7 -6 -5 -9 -11 -7 -6 -9 -7 -6 -7 -8 -10 -9 -7 -7 -6 -6 -8 -8], [0 -3 -1 0 1 0 -1 0 1 0 0 0 -2 -1 0 0 0 0 -1 -1 0 0 0 0 0 -2 -2 -2 0 0 -1 -1]
ATT, 13158585, 0, 0.4643709, 0, -1.131549, 0, 359.9067, 3
XKF4, 13157902, 0, 0, 0, 0.01, 0, 0, 0.03576932, 0, 0, 0, 50, 65703, 0, 0
XKF1, 13157902, 0, 0.46, -1.13, 359.9, 0.0689799, -0.01524627, 0.05879716, -0.1759868, 0, 0, -0.0753646, 0.05, -0.15, -0.01, 0
XKF2, 13157902, 0, 0, 0, 0.16, 0, 0, 0, 0, 0, 0, 0, 0, 0, 0, 0
XKF3, 13157902, 0, 0, 0, 0, 0.03, 0, 0.19, 0, 0, 0, 0, 0, 0, 0
XKF5, 13157902, 0, 0, 0, 0, 0, 0.37, 0.31, 0, 0, 0.5, 9.076536E-05, 0.01099599, 0.02337847
XKFS, 13157902, 0, 0, 0, 0, 0, 0, 0, 0, 0
XKQ, 13157902, 0, 0.9992937, 0.02361477, -0.02923212, -0.0001222992
XKF4, 13157902, 1, 0, 0, 0, 0, 0, 0.03469322, 0, 0, 0, 50, 65703, 0, 0
XKF1, 13157902, 1, 2.13, -0.15, 0.01, -0.0009294139, 0.00104404, -0.1312699, -0.09550933, 0, 0, -0.3231447, 0.05, 0, 0, 0
XKF2, 13157902, 1, 0, 0, 0.01, 0, 0, 0, 0, 0, 0, 0, 0, 0, 0, 0
XKF3, 13157902, 1, 0, 0, 0, 0, 0, -0.04, 0, 0, 0, 0, 0, 0, 0
XKFS, 13157902, 1, 0, 0, 0, 0, 0, 0, 0, 0
XKQ, 13157902, 1, 0.9990548, 0.03820841, -0.02070465, 0.0009257758
AHR2, 13158664, 0.61, -1.16, 359.77, 0.36, 0, 0, 0.9999325, 0.005357374, -0.01019032, -0.001524598
PIDS, 13158669, 0, 0, 0, 0, 0, 0, 0, 0, 0, 0, 0
PIDA, 13158673, 0, 0, 0, 0, 0, 0, 0, 0, 0, 0, 0
IMU, 13158690, 0, 0.0004986385, -0.007550764, -0.0006653077, -0.4979593, -0.474685, -9.595012, 0, 0, 43.84058, 1, 1, 1982, 1982
IMU, 13158690, 1, 0.001588551, -0.0001869596, 0.0003853808, -0.4049366, -0.7411692, -9.799446, 0, 0, 40.5, 1, 1, 2006, 2016
ATT, 13178359, 0, 0.4636362, 0, -1.13647, 0, 359.9062, 3
XKF4, 13177832, 0, 0, 0, 0.01, 0, 0, 0.03590291, 0, 0, 0, 50, 65703, 0, 0
XKF1, 13177832, 0, 0.46, -1.13, 359.9, 0.07046848, -0.01546903, 0.05693267, -0.1755798, 0, 0, -0.07877292, 0.05, -0.15, -0.01, 0
XKF2, 13177832, 0, 0, 0, 0.16, 0, 0, 0, 0, 0, 0, 0, 0, 0, 0, 0
XKF3, 13177832, 0, 0, 0, 0, 0.03, 0, 0.19, 0, 0, 0, 0, 0, 0, 0
XKF5, 13177832, 0, 0, 0, 0, 0, 0.37, 0.31, 0, 0, 0.5, 8.466619E-05, 0.01320708, 0.0281643
XKFS, 13177832, 0, 0, 0, 0, 0, 0, 0, 0, 0
XKQ, 13177832, 0, 0.9992926, 0.02360815, -0.02927515, -0.0001263514
XKF4, 13177832, 1, 0, 0, 0, 0, 0, 0.0348018, 0, 0, 0, 50, 65703, 0, 0
XKF1, 13177832, 1, 2.13, -0.16, 0.01, -0.0010171, 0.00119495, -0.1317471, -0.08890081, 0, 0, -0.3249997, 0.05, 0, 0, 0
XKF2, 13177832, 1, 0, 0, 0.01, 0, 0, 0, 0, 0, 0, 0, 0, 0, 0, 0
XKF3, 13177832, 1, 0, 0, 0, 0, 0, -0.04, 0, 0, 0, 0, 0, 0, 0
XKFS, 13177832, 1, 0, 0, 0, 0, 0, 0, 0, 0
XKQ, 13177832, 1, 0.9990529, 0.03824248, -0.02073629, 0.0009257582
AHR2, 13178477, 0.61, -1.17, 359.77, 0.36, 0, 0, 0.9999319, 0.005361973, -0.01025001, -0.001532927
PIDS, 13178482, 0, 0, 0, 0, 0, 0, 0, 0, 0, 0, 0
PIDA, 13178486, 0, 0, 0, 0, 0, 0, 0, 0, 0, 0, 0
IMU, 13178490, 0, 0.0005042864, -0.007538422, -0.000700902, -0.4974615, -0.475161, -9.598124, 0, 0, 43.84058, 1, 1, 1982, 1982
IMU, 13178490, 1, 0.001457965, -0.000155172, 0.000603231, -0.4095751, -0.7431456, -9.800241, 0, 0, 40.5, 1, 1, 2006, 2016
ISBD, 13179664, 0, 15, [0 1 3 3 3 3 4 0 -1 0 0 1 -1 1 4 2 0 -1 -1 -1 0 0 1 2 1 0 0 -1 -3 0 1 0], [-6 -6 -6 -4 -6 -7 -5 -6 -7 -3 -5 -8 -5 -6 -5 -5 -6 -6 -5 -5 -8 -9 -7 -7 -7 -6 -5 -4 -1 -7 -10 -8], [0 1 0 -1 0 0 0 0 0 0 0 -1 -1 0 0 0 0 0 0 0 0 0 0 1 1 0 -1 -1 -1 -1 0 -1]
ATT, 13198363, 0, 0.4624023, 0, -1.142223, 0, 359.9055, 3
XKF4, 13197847, 0, 0, 0, 0.01, 0, 0, 0.03607304, 0, 0, 0, 50, 65703, 0, 0
XKF1, 13197847, 0, 0.46, -1.14, 359.9, 0.07191001, -0.01570156, 0.05522997, -0.1721275, 0, 0, -0.08181487, 0.05, -0.15, -0.01, 0
XKF2, 13197847, 0, 0, 0, 0.16, 0, 0, 0, 0, 0, 0, 0, 0, 0, 0, 0
XKF3, 13197847, 0, 0, 0, 0, 0.03, 0, 0.19, 0, 0, 0, 0, 0, 0, 0
XKF5, 13197847, 0, 0, 0, 0, 0, 0.36, 0.31, 0, 0, 0.5, 7.920076E-05, 0.01526974, 0.03261205
XKFS, 13197847, 0, 0, 0, 0, 0, 0, 0, 0, 0
XKQ, 13197847, 0, 0.9992914, 0.02359715, -0.02932545, -0.0001309845
XKF4, 13197847, 1, 0, 0, 0, 0, 0, 0.0349661, 0, 0, 0, 50, 65703, 0, 0
XKF1, 13197847, 1, 2.13, -0.16, 0.01, -0.001206068, 0.001314849, -0.1324451, -0.0848732, 0, 0, -0.3268367, 0.05, 0, 0, 0
XKF2, 13197847, 1, 0, 0, 0.01, 0, 0, 0, 0, 0, 0, 0, 0, 0, 0, 0
XKF3, 13197847, 1, 0, 0, 0, 0, 0, -0.04, 0, 0, 0, 0, 0, 0, 0
XKFS, 13197847, 1, 0, 0, 0, 0, 0, 0, 0, 0
XKQ, 13197847, 1, 0.9990524, 0.03824388, -0.02075592, 0.000918008
AHR2, 13198434, 0.61, -1.18, 359.77, 0.36, 0, 0, 0.9999312, 0.005362271, -0.01031718, -0.001542155
PIDS, 13198438, 0, 0, 0, 0, 0, 0, 0, 0, 0, 0, 0
PIDA, 13198459, 0, 0, 0, 0, 0, 0, 0, 0, 0, 0, 0
IMU, 13198475, 0, 0.0005125463, -0.007580455, -0.0007144242, -0.4965031, -0.4733734, -9.599165, 0, 0, 43.84058, 1, 1, 1982, 1982
IMU, 13198475, 1, 0.001622072, -0.0007258038, 0.0005381279, -0.4196292, -0.7432908, -9.808334, 0, 0, 40.5, 1, 1, 2006, 2016
ISBD, 13199659, 0, 16, [1 1 0 1 0 0 0 0 0 0 2 2 2 2 1 1 1 2 2 1 0 2 1 2 3 1 1 0 0 2 2 2], [-6 -4 -8 -6 -2 -4 -8 -9 -10 -9 -8 -7 -6 -7 -6 -6 -8 -9 -9 -4 -4 -7 -8 -10 -5 -5 -9 -9 -7 -5 -4 -4], [-1 0 0 0 0 0 -1 -2 -1 0 -1 -1 0 0 -1 -3 -1 -1 0 -1 -3 -2 0 1 1 0 -1 -2 -2 -3 -2 -2]
DCM, 13217821, 0.6187056, -1.187411, 359.7719, 0.00394675, 1, 0, 0, 0
EAHR, 13217838, 0, 0, 0, 0, 0, 0, 0, 0, 0, 0
ATT, 13218380, 0, 0.4614386, 0, -1.147476, 0, 359.9044, 3
XKF4, 13217850, 0, 0, 0, 0.01, 0, 0, 0.03624335, 0, 0, 0, 50, 65703, 0, 0
XKF1, 13217850, 0, 0.46, -1.14, 359.9, 0.07345175, -0.01600106, 0.05364678, -0.1641021, 0, 0, -0.08456244, 0.05, -0.15, -0.01, 0
XKF2, 13217850, 0, 0, 0, 0.16, 0, 0, 0, 0, 0, 0, 0, 0, 0, 0, 0
XKF3, 13217850, 0, 0, 0, 0, 0.03, 0, 0.19, 0, 0, 0, 0, 0, 0, 0
XKF5, 13217850, 0, 0, 0, 0, 0, 0.36, 0.31, 0, 0, 0.5, 7.350328E-05, 0.0172023, 0.03674867
XKFS, 13217850, 0, 0, 0, 0, 0, 0, 0, 0, 0
XKQ, 13217850, 0, 0.9992902, 0.02358839, -0.02937149, -0.0001398839
XKF4, 13217850, 1, 0, 0, 0, 0, 0, 0.03512898, 0, 0, 0, 50, 65703, 0, 0
XKF1, 13217850, 1, 2.13, -0.16, 0.01, -0.001159588, 0.001403252, -0.1336053, -0.08282759, 0, 0, -0.3287922, 0.05, 0, 0, 0
XKF2, 13217850, 1, 0, 0, 0.01, 0, 0, 0, 0, 0, 0, 0, 0, 0, 0, 0
XKF3, 13217850, 1, 0, 0, 0, 0, 0, -0.04, 0, 0, 0, 0, 0, 0, 0
XKFS, 13217850, 1, 0, 0, 0, 0, 0, 0, 0, 0
XKQ, 13217850, 1, 0.9990531, 0.03824274, -0.02072569, 0.0009115828
AHR2, 13218452, 0.61, -1.18, 359.77, 0.36, 0, 0, 0.9999305, 0.005364553, -0.01037948, -0.001555425
PIDS, 13218457, 0, 0, 0, 0, 0, 0, 0, 0, 0, 0, 0
PIDA, 13218460, 0, 0, 0, 0, 0, 0, 0, 0, 0, 0, 0
IMU, 13218464, 0, 0.0004595657, -0.007624243, -0.0006869211, -0.4971271, -0.4745133, -9.599925, 0, 0, 43.35749, 1, 1, 1982, 1982
IMU, 13218464, 1, 0.001588619, -0.0005415666, 0.0003546111, -0.4115258, -0.7489747, -9.814401, 0, 0, 40.5, 1, 1, 2006, 2016
MAV, 13218559, 2, 222, 0, 0, 4, 0, 0
MAV, 13218588, 3, 64, 0, 0, 4, 0, 426
ISBD, 13219700, 0, 17, [1 1 2 2 1 1 1 0 1 1 0 0 3 6 2 0 -1 0 2 0 0 0 0 1 1 0 1 2 2 1 1 2], [-5 -6 -7 -7 -8 -8 -9 -4 -1 -6 -7 -3 -4 -5 -8 -8 -3 -6 -7 -7 -6 -6 -7 -7 -8 -8 -6 -6 -8 -10 -11 -8], [-2 -1 -2 0 0 -1 0 1 0 -1 -1 -1 -2 -1 -1 -1 -2 -2 -2 0 1 0 -1 -1 -1 0 0 -1 -2 -1 0 -1]
ATT, 13238702, 0, 0.460924, 0, -1.152693, 0, 359.9039, 3
XKF4, 13237836, 0, 0, 0, 0.02, 0, 0, 0.03641386, 0, 0, 0, 50, 65703, 0, 0
XKF1, 13237836, 0, 0.46, -1.15, 359.9, 0.07506908, -0.01619407, 0.05111904, -0.153679, 0, 0, -0.08942452, 0.05, -0.15, -0.01, 0
XKF2, 13237836, 0, 0, 0, 0.17, 0, 0, 0, 0, 0, 0, 0, 0, 0, 0, 0
XKF3, 13237836, 0, 0, 0, 0, 0.04, 0, 0.31, 0, 0, 0, 0, 0, 0, 0
XKF5, 13237836, 0, 0, 0, 0, 0, 0.39, 0.31, 0, 0, 0.5, 0.0001023597, 0.005481719, 0.01072887
XKFS, 13237836, 0, 0, 0, 0, 0, 0, 0, 0, 0
XKQ, 13237836, 0, 0.999289, 0.02358369, -0.02941709, -0.0001438192
XKF4, 13237836, 1, 0, 0, 0, 0, 0, 0.03529174, 0, 0, 0, 50, 65703, 0, 0
XKF1, 13237836, 1, 2.13, -0.15, 0.01, -0.00119118, 0.001628852, -0.1345329, -0.08204058, 0, 0, -0.3312985, 0.05, 0, 0, 0
XKF2, 13237836, 1, 0, 0, 0.01, 0, 0, 0, 0, 0, 0, 0, 0, 0, 0, 0
XKF3, 13237836, 1, 0, 0, 0, 0, 0, 0.07, 0, 0, 0, 0, 0, 0, 0
XKFS, 13237836, 1, 0, 0, 0, 0, 0, 0, 0, 0
XKQ, 13237836, 1, 0.9990534, 0.03825235, -0.02069413, 0.0009230969
AHR2, 13238846, 0.61, -1.19, 359.77, 0.36, 0, 0, 0.9999298, 0.005370872, -0.01044171, -0.001563733
PIDS, 13238851, 0, 0, 0, 0, 0, 0, 0, 0, 0, 0, 0
PIDA, 13238855, 0, 0, 0, 0, 0, 0, 0, 0, 0, 0, 0
IMU, 13238859, 0, 0.0004414911, -0.007599448, -0.000729739, -0.4949476, -0.4729707, -9.59906, 0, 0, 43.84058, 1, 1, 1982, 1982
IMU, 13238859, 1, 0.001525408, 0.0001625681, 0.0002279161, -0.4110355, -0.7476041, -9.810734, 0, 0, 40.5, 1, 1, 2006, 2016
BARO, 13238926, 0, 0.1970062, 0.1970062, 101124, 26.42, 0.04348607, 13238, 0, 26.28378, 1
MAG, 13238944, 0, -25, -1044, 1519, 0, 0, 0, 0, 0, 0, 1, 13238942
THR, 13238951, 0, 0, 0, 0.07509114, -0.4949476
NTUN, 13238955, 0, 0, 0, 35991, 0
STER, 13238961, 0, 0, 0, -3.8263E-05, 0, -0.0291953
RCIN, 13238967, 1522, 1479, 1631, 1495, 2000, 1000, 1500, 1500, 0, 0, 0, 0, 0, 0
RCI2, 13238971, 0, 0, 0, 1
RCOU, 13238977, 1496, 1500, 1526, 0, 0, 0, 0, 0, 0, 0, 0, 0, 0, 0
RCO2, 13238981, 0, 0, 0, 0
VIBE, 13238985, 0, 0.009807174, 0.0114895, 0.01020954, 0
VIBE, 13238985, 1, 0.06273064, 0.03600033, 0.07394832, 0
MAV, 13238997, 0, 47, 0, 0, 4, 0, 617
MAV, 13239003, 1, 222, 0, 0, 4, 0, 0
POWR, 13239043, 5.14628, 5.865055, 1, 1, 6
MCU, 13239043, 26.40767, 3.366165, 3.353672, 3.375491
BAT, 13239056, 0, 24.01178, 25.04117, 0.320804, 0.8145697, 0.0195515, 0, 3.208803, 255, 0, 0
ISBD, 13240090, 0, 18, [0 1 2 0 2 2 2 1 0 0 0 0 -1 -1 0 0 0 1 1 0 -1 0 1 1 0 0 -1 0 0 2 1 -3], [-6 -10 -10 -8 -5 -5 -11 -7 -5 -6 -5 -5 -6 -6 -5 -7 -7 -6 -5 -7 -8 -7 -7 -7 -5 -3 -5 -6 -1 -6 -10 -7], [-1 -1 -1 -2 0 0 0 0 0 0 0 0 0 0 0 -2 -2 -1 0 -1 -3 -1 -1 -2 -2 -2 -1 1 0 -1 0 1]
ATT, 13258433, 0, 0.4597281, 0, -1.15736, 0, 359.903, 3
XKF4, 13257918, 0, 0, 0, 0.02, 0, 0, 0.03655493, 0, 0, 0, 50, 65703, 0, 0
XKF1, 13257918, 0, 0.45, -1.15, 359.9, 0.07667271, -0.0164799, 0.04866164, -0.1658352, 0, 0, -0.09387735, 0.05, -0.15, -0.01, 0
XKF2, 13257918, 0, 0, 0, 0.17, 0, 0, 0, 0, 0, 0, 0, 0, 0, 0, 0
XKF3, 13257918, 0, 0, 0, 0, 0.04, 0, 0.31, 0, 0, 0, 0, 0, 0, 0
XKF5, 13257918, 0, 0, 0, 0, 0, 0.39, 0.31, 0, 0, 0.5, 9.757167E-05, 0.007636275, 0.01619188
XKFS, 13257918, 0, 0, 0, 0, 0, 0, 0, 0, 0
XKQ, 13257918, 0, 0.999288, 0.02357299, -0.02945796, -0.0001505847
XKF4, 13257918, 1, 0, 0, 0, 0, 0, 0.03542778, 0, 0, 0, 50, 65703, 0, 0
XKF1, 13257918, 1, 2.13, -0.15, 0.01, -0.001375501, 0.001797091, -0.1352238, -0.08786745, 0, 0, -0.3338155, 0.05, 0, 0, 0
XKF2, 13257918, 1, 0, 0, 0.01, 0, 0, 0, 0, 0, 0, 0, 0, 0, 0, 0
XKF3, 13257918, 1, 0, 0, 0, 0, 0, 0.07, 0, 0, 0, 0, 0, 0, 0
XKFS, 13257918, 1, 0, 0, 0, 0, 0, 0, 0, 0
XKQ, 13257918, 1, 0.9990531, 0.03824833, -0.02071303, 0.0009202968
AHR2, 13258521, 0.61, -1.2, 359.76, 0.19, 0, 0, 0.9999292, 0.005371831, -0.01050005, -0.001574958
PIDS, 13258526, 0, 0, 0, 0, 0, 0, 0, 0, 0, 0, 0
PIDA, 13258530, 0, 0, 0, 0, 0, 0, 0, 0, 0, 0, 0
IMU, 13258534, 0, 0.0003878199, -0.007450864, -0.0007406955, -0.4943282, -0.4731475, -9.600225, 0, 0, 43.35749, 1, 1, 1982, 1982
IMU, 13258534, 1, 0.001479249, 0.0005035988, 0.0001176304, -0.4141898, -0.7449557, -9.800112, 0, 0, 40.5, 1, 1, 2006, 2016
ATT, 13278366, 0, 0.458778, 0, -1.162262, 0, 359.9023, 3
XKF4, 13277847, 0, 0, 0, 0.02, 0, 0, 0.03672533, 0, 0, 0, 50, 65703, 0, 0
XKF1, 13277847, 0, 0.45, -1.16, 359.9, 0.07819159, -0.01678769, 0.04645315, -0.1776238, 0, 0, -0.09796562, 0.05, -0.15, -0.01, 0
XKF2, 13277847, 0, 0, 0, 0.17, 0, 0, 0, 0, 0, 0, 0, 0, 0, 0, 0
XKF3, 13277847, 0, 0, 0, 0, 0.04, 0, 0.31, 0, 0, 0, 0, 0, 0, 0
XKF5, 13277847, 0, 0, 0, 0, 0, 0.39, 0.31, 0, 0, 0.5, 9.324881E-05, 0.009905216, 0.02137307
XKFS, 13277847, 0, 0, 0, 0, 0, 0, 0, 0, 0
XKQ, 13277847, 0, 0.9992869, 0.02356446, -0.02950085, -0.0001557084
XKF4, 13277847, 1, 0, 0, 0, 0, 0, 0.03559192, 0, 0, 0, 50, 65703, 0, 0
XKF1, 13277847, 1, 2.14, -0.16, 0.01, -0.001352454, 0.001984686, -0.1359785, -0.09528476, 0, 0, -0.3364096, 0.05, 0, 0, 0
XKF2, 13277847, 1, 0, 0, 0.01, 0, 0, 0, 0, 0, 0, 0, 0, 0, 0, 0
XKF3, 13277847, 1, 0, 0, 0, 0, 0, 0.07, 0, 0, 0, 0, 0, 0, 0
XKFS, 13277847, 1, 0, 0, 0, 0, 0, 0, 0, 0
XKQ, 13277847, 1, 0.999052, 0.03825947, -0.02074547, 0.0009330418
AHR2, 13278487, 0.61, -1.2, 359.76, 0.19, 0, 0, 0.9999286, 0.00537463, -0.01055675, -0.001584479
PIDS, 13278491, 0, 0, 0, 0, 0, 0, 0, 0, 0, 0, 0
PIDA, 13278495, 0, 0, 0, 0, 0, 0, 0, 0, 0, 0, 0
IMU, 13278499, 0, 0.0003425964, -0.007395569, -0.0007133069, -0.4960954, -0.4748587, -9.601204, 0, 0, 43.84058, 1, 1, 1982, 1982
IMU, 13278499, 1, 0.001427804, 0.000107457, 4.902441E-05, -0.4108964, -0.7429585, -9.793328, 0, 0, 40.5, 1, 1, 2006, 2016
