TimeUS,AccX,AccY,AccZ,GyrX,GyrY,GyrZ,VN,VE,VD,V_horiz_m_s,V_3D_m_s,KE_horiz_J,KE_3D_J
12798651,-0.4169619,-0.7462734,-9.810602,0.001422175,0.0007891829,0.0002360837,-0.0008188157,-0.0004253652,-0.1110207,0.0009227105201185961,0.11102453433000266,5.087083356026742e-06,0.07365052215858378
12818539,-0.4139262,-0.7467031,-9.813276,0.001364731,0.0004099272,0.0001878185,-0.0009109228,-0.0003591108,-0.1127428,0.00097915316178649,0.11274705181402411,5.728476962562969e-06,0.07595358871420657
12839088,-0.4128536,-0.7484542,-9.816499,0.001627755,-8.573096e-05,0.0001708814,-0.0008548067,-0.0003258307,-0.1148305,0.0009148006009111385,0.11483414383531332,5.000239333078596e-06,0.07879161152757683
12858471,-0.4109575,-0.7477103,-9.809839,0.001985816,-0.0001583313,0.0001132858,-0.0009096383,-0.0001916626,-0.1169448,0.0009296108804578666,0.11694849474631586,5.163453924667259e-06,0.08171977877998866
12878493,-0.4091197,-0.7480351,-9.812149,0.002040224,0.0001479953,-3.305927e-05,-0.0008350296,-0.0001968541,-0.1186689,0.0008579195589115393,0.11867200113413257,4.397755168138747e-06,0.08414618702274787
12898494,-0.4161997,-0.7442663,-9.805019,0.001827006,0.0002600348,-0.0001151529,-0.001017491,6.40323e-05,-0.1205974,0.001019503835463256,0.12060170925335396,6.210343721382631e-06,0.08690501434211237
12918528,-0.4209518,-0.7468624,-9.806202,0.001534714,-1.145339e-05,-6.48711e-05,-0.001412031,-7.696985e-05,-0.1222837,0.0014141272583363996,0.12229187643336237,1.1948541519050883e-05,0.0893579356735168
12938854,-0.4131432,-0.7534307,-9.796489,0.001098491,8.875276e-05,8.206043e-05,-0.001347686,-0.0001035857,-0.1233472,0.001351661034372335,0.12335460565131665,1.091625062224693e-05,0.09091774344396625
12958430,-0.4141021,-0.7484245,-9.790441,0.0008291659,0.0004612101,8.590409e-05,-0.001450647,4.997453e-05,-0.1243272,0.0014515075515675834,0.1243356728136067,1.258857317923988e-05,0.09236967321572323
12978478,-0.4121837,-0.7462807,-9.78628,0.0007228287,0.001153414,-1.64201e-05,-0.001346271,0.0001177376,-0.1250604,0.0013514095411438977,0.12506770148966476,1.0912188793671192e-05,0.09346053148654965
12998696,-0.4039992,-0.7478032,-9.792052,0.001131952,0.001184799,-0.000236976,-0.001278261,5.9795e-05,-0.1265005,0.0012796587928608156,0.1265069722461025,9.784221591222347e-06,0.09562398381058497
13018499,-0.4077776,-0.7459106,-9.805821,0.001425165,0.001185262,-0.0004080197,-0.001379448,0.0002927362,-0.1276787,0.001410167106230478,0.1276864871666438,1.188171332327928e-05,0.09741543805462101
13038854,-0.418543,-0.7424156,-9.791736,0.001813465,0.0008547116,-0.0003394582,-0.001610941,0.0004584955,-0.127717,0.0016749176185715075,0.12772798220448406,1.6761960448282467e-05,0.09747876369222325
13058430,-0.413252,-0.7468136,-9.783526,0.001983051,0.0004902587,-0.0002592028,-0.001559421,0.0004717505,-0.1283509,0.0016292152680021294,0.12836123976185135,1.5859695777210222e-05,0.09844773204236694
13078541,-0.4039169,-0.7460307,-9.793226,0.002077107,0.0005528522,-0.0001814815,-0.001402464,0.0007171427,-0.1290546,0.0015751821873863639,0.1290642126233429,1.4825163567669256e-05,0.09952898660599868
13098492,-0.405059,-0.7492561,-9.805826,0.001915965,0.0004586615,-0.0001360281,-0.001278114,0.0005940511,-0.1298043,0.001409422614550799,0.1298119515707102,1.1869170835783079e-05,0.10068557805431357
13118450,-0.3972952,-0.7549643,-9.791389,0.001939927,-6.08966e-05,-0.0001378772,-0.001079361,0.0004977458,-0.1301087,0.0011886004584125988,0.13011412908189385,8.441307022188374e-06,0.1011548773557699
13138858,-0.3966931,-0.7478459,-9.790972,0.001780829,-0.0004619937,0.0001365503,-0.0008414704,0.0008095608,-0.1305247,0.0011676733802621349,0.13052992289591292,8.146680209762481e-06,0.10180241310799751
13158690,-0.4049366,-0.7411692,-9.799446,0.001588551,-0.0001869596,0.0003853808,-0.0009294139,0.00104404,-0.1312699,0.0013977945911732561,0.1312773418215387,1.167413257170143e-05,0.10297159934248144
13178490,-0.4095751,-0.7431456,-9.800241,0.001457965,-0.000155172,0.000603231,-0.0010171,0.00119495,-0.1317471,0.0015692029545281898,0.1317564448378997,1.47128275271875e-05,0.10372457051902696
13198475,-0.4196292,-0.7432908,-9.808334,0.001622072,-0.0007258038,0.0005381279,-0.001206068,0.001314849,-0.1324451,0.0017842163303324516,0.13245711736982435,1.9020981782714376e-05,0.10483070545299245
13218464,-0.4115258,-0.7489747,-9.814401,0.001588619,-0.0005415666,0.0003546111,-0.001159588,0.001403252,-0.1336053,0.0018203737268066688,0.13361770073083598,1.97997190188568e-05,0.10667579744285659
13238859,-0.4110355,-0.7476041,-9.810734,0.001525408,0.0001625681,0.0002279161,-0.00119118,0.001628852,-0.1345329,0.002017936726040735,0.13454803324850315,2.4330610066066403e-05,0.10816646017496583
13258534,-0.4141898,-0.7449557,-9.800112,0.001479249,0.0005035988,0.0001176304,-0.001375501,0.001797091,-0.1352238,0.0022630817623943682,0.135242735943574,3.0601195903109944e-05,0.1092863208123821
13278499,-0.4108964,-0.7429585,-9.793328,0.001427804,0.000107457,4.902441e-05,-0.001352454,0.001984686,-0.1359785,0.0024016890599559302,0.13599970798715236,3.44644592857542e-05,0.1105131254212295
13298437,-0.4110997,-0.7493409,-9.790748,0.00123185,8.444238e-05,0.0001093701,-0.00138548,0.001927505,-0.1367982,0.0023737797613563477,0.13681879386106072,3.3668111373664364e-05,0.11184830956273266
13318686,-0.4032443,-0.7481983,-9.796941,0.0009960047,7.543102e-05,0.0001215841,-0.001209623,0.002130459,-0.1378102,0.0024499068049234035,0.1378319747641773,3.586220903303974e-05,0.11351097827267202
13338932,-0.4081452,-0.748116,-9.810171,0.001083312,-0.0001378475,0.0001686301,-0.001369759,0.002191783,-0.138575,0.0025845990863516918,0.13859910092578945,3.991391081209075e-05,0.11477802189518709
13358480,-0.4101189,-0.7462097,-9.805954,0.001193517,-0.0002001894,0.0002132859,-0.001194119,0.002448517,-0.1390469,0.0027241798188537406,0.13907358324029567,4.434140522056374e-05,0.11556523279289031
13378468,-0.4051808,-0.7484649,-9.812141,0.001446016,9.955181e-05,0.0002646268,-0.001196613,0.002461855,-0.1400317,0.0027372637273003126,0.1400584507182726,4.476836095894415e-05,0.1172078084651767
13398436,-0.40416,-0.7491959,-9.81079,0.001640671,0.0003294422,0.0001963668,-0.000954767,0.0026775,-0.1407219,0.0028426372041273577,0.1407506082611521,4.828150298887678e-05,0.11836913401215868
13418551,-0.4014842,-0.7465937,-9.805391,0.002029157,0.0003011751,3.514662e-06,-0.001001078,0.002849296,-0.1415197,0.0030200405390822154,0.14155192027290797,5.4495853024757485e-05,0.11972075314436247
13438862,-0.4025069,-0.7447864,-9.80961,0.002043833,0.0004851159,-0.0001293136,-0.0007571869,0.00312379,-0.1419611,0.003214248896030239,0.1419974834607136,6.173009089464887e-05,0.12047562972232442
13458504,-0.4013007,-0.7443392,-9.798105,0.001937928,0.0005629095,-0.0001446347,-0.0006115758,0.003249861,-0.1420717,0.0033069051208745983,0.14211018106514559,6.534033833383817e-05,0.12066693878515156
13478695,-0.3996407,-0.7475888,-9.788349,0.001798632,0.000574295,6.702625e-05,-0.0003170647,0.003343422,-0.1420969,0.003358422351948916,0.14213658216766037,6.739202914706877e-05,0.12071177774206679
13498504,-0.3936389,-0.7500508,-9.782945,0.002052333,0.000495397,0.0002179841,-8.481561e-05,0.003416507,-0.1423889,0.0034175596218279313,0.14242990752288914,6.978628976827331e-05,0.12121051437794805
13518506,-0.3999014,-0.7510746,-9.7974,0.002324917,0.0001564123,3.666775e-05,-6.204322e-05,0.003599489,-0.1430513,0.0036000236696817657,0.143096591860576,7.743701827305708e-05,0.12234789174762077
13538853,-0.3984653,-0.7518236,-9.79626,0.002506881,-0.0002634507,5.580204e-05,0.0003684479,0.003661384,-0.142615,0.0036798759015040728,0.14266246777499142,8.091038273656072e-05,0.12160666377711152
13558466,-0.4008829,-0.7525721,-9.811934,0.002457341,-0.0008754934,7.841944e-05,0.0003605231,0.003794586,-0.1432436,0.0038116741488523924,0.14329430484418085,8.680993740675191e-05,0.12268621535964276
13578545,-0.4045304,-0.7501832,-9.812913,0.002177057,-0.001180382,0.0001576195,0.000510076,0.003936054,-0.1433028,0.00396896694577972,0.1433577524463072,9.412237423473469e-05,0.12279488498907874
13598479,-0.4048,-0.7477704,-9.808434,0.002076857,-0.001667869,0.0001563648,0.0007156602,0.004134972,-0.1433696,0.004196446468459718,0.14343100211294157,0.00010522072370182199,0.12292040289355784
13618460,-0.4107427,-0.7506789,-9.806394,0.001753361,-0.001699476,0.0001697436,0.0004078858,0.004284639,-0.1438566,0.004304010012321374,0.14392097090329178,0.00011068390056232175,0.1237616440478333
13639039,-0.4133926,-0.7497957,-9.80321,0.001569278,-0.001452103,2.180043e-05,0.0006015354,0.004350061,-0.1439609,0.004391454831963339,0.14402786398593564,0.00011522713135851558,0.12394555298599828
13658511,-0.4059665,-0.7518694,-9.804915,0.001506135,-0.0006894278,-0.0001047384,0.0006467061,0.004477782,-0.1444524,0.0045242414192106515,0.14452323213303564,0.00012230084350532472,0.12479961364142135
13678504,-0.4069791,-0.7543391,-9.81187,0.001300749,-5.690182e-06,8.078037e-05,0.000806819,0.00457587,-0.1449039,0.004646454901929104,0.144978376933823,0.00012899752035507446,0.12558691042573483
13698409,-0.4028097,-0.7513966,-9.803175,0.00114813,0.0003408843,0.0002879323,0.000995358,0.004733732,-0.1452009,0.004837246757814615,0.14528145207494997,0.0001398087632710283,0.12611253439411074
13718448,-0.4010721,-0.7523509,-9.809237,0.0009688115,0.0006813184,0.0004455232,0.001045916,0.004769688,-0.1461188,0.004883017908670825,0.14620036791108426,0.00014246708678099,0.12771292177458496
13738849,-0.4070053,-0.754539,-9.809406,0.0007860015,0.0009768035,0.0005166271,0.001148627,0.004920906,-0.1462592,0.005053183139958911,0.1463464664571235,0.00015256959257964087,0.12796829726080367
13758460,-0.4074341,-0.7518091,-9.810231,0.0007921631,0.001020436,0.0005888828,0.00111607,0.004948365,-0.1467181,0.005072664824145688,0.1468057655408265,0.00015374827229829686,0.12877279845626802
13778509,-0.4027498,-0.7540483,-9.814097,0.001400664,0.000923332,0.0004715108,0.001454022,0.005097792,-0.1471669,0.005301100192577764,0.14726234453811246,0.00016790743792919434,0.1295750337601989
13798661,-0.3953548,-0.7506987,-9.810038,0.0016504,0.0008459415,0.0003542338,0.001829036,0.005293384,-0.147572,0.005600472021245352,0.1476782328945629,0.0001874075889929932,0.13030794131339302
13818467,-0.4009998,-0.7491782,-9.807424,0.001518106,0.0008798526,0.0002837269,0.001703269,0.005462095,-0.1479413,0.005721503917274374,0.14805189580942685,0.00019559525227543135,0.13096819902027315
13838853,-0.4033429,-0.750501,-9.80034,0.001751676,0.0002908423,0.0002527473,0.001943824,0.005559163,-0.1480746,0.00588920580414244,0.1481916661292515,0.00020722940139618137,0.13121560021322717
13858497,-0.4067278,-0.755545,-9.798151,0.001872447,-0.0001590774,0.0002428427,0.001956322,0.005571987,-0.1488137,0.005905441126271008,0.1489308280463983,0.00020837355350272166,0.1325278394669505
13878508,-0.4106843,-0.7523239,-9.801793,0.001689832,-0.0006671232,0.0001945603,0.001959532,0.005860892,-0.1492998,0.0061797913148170305,0.14942764168899503,0.0002281841786507608,0.13341350510188973
13898436,-0.4050754,-0.7544303,-9.797709,0.001242483,-0.0004837855,9.910085e-05,0.001976477,0.005714442,-0.1495839,0.0060465948022745,0.14970606015760649,0.00021845381949978565,0.13391112907627953
13918513,-0.408804,-0.7519653,-9.809275,0.0009407336,-9.483415e-05,0.0001729257,0.002061238,0.006025126,-0.1507316,0.006367954570230538,0.15086605345129342,0.00024229130131590693,0.1359943823517119
13938859,-0.4089787,-0.7466893,-9.818667,0.0008741827,-7.979426e-05,0.0001341101,0.002010284,0.006324674,-0.1512269,0.006636470670991623,0.15137244804315259,0.0002631553892274187,0.13690886770879712
13958652,-0.4097494,-0.7485053,-9.819322,0.000973941,2.440288e-05,-6.228837e-05,0.002167615,0.006438013,-0.1515837,0.006793126391904835,0.15173583845573987,0.00027572573290395415,0.13756699391440166
13978468,-0.4012039,-0.7546409,-9.824928,0.001306059,-9.145579e-06,-0.0001881409,0.00249195,0.006446971,-0.1524809,0.006911819577892713,0.15263747283903564,0.0002854451680171125,0.13920673373525685
13998465,-0.3966144,-0.7530091,-9.817163,0.001474157,0.0003622405,-0.0002359057,0.002638576,0.006714992,-0.1528872,0.007214790424387946,0.1530573393363018,0.000311017875185344,0.13997363102012936
14018525,-0.3987616,-0.7501408,-9.812331,0.001507085,0.0006036455,-0.0002029315,0.002775559,0.006866833,-0.1533459,0.007406559472006554,0.1535246630676074,0.00032777131119391073,0.14082968746588367
14038850,-0.3943316,-0.7492515,-9.800783,0.001504799,0.0007885925,-0.0001901202,0.003337411,0.00715984,-0.1528872,0.007899469666282731,0.15309114130101886,0.000372849685525913,0.14003546283046991
14058431,-0.3923942,-0.7500786,-9.807342,0.001397766,0.0008344282,-0.0001599068,0.003679105,0.007274554,-0.1528907,0.008151990523788715,0.15310787404960574,0.0003970683232621475,0.14006607604853985
14078525,-0.399707,-0.7466761,-9.816513,0.001523269,0.0006443937,6.395828e-05,0.00378417,0.007642019,-0.152889,0.008527625518587281,0.15312663621325082,0.00043450437198693447,0.14010040613996189
14098439,-0.3981986,-0.7481766,-9.809284,0.001550534,0.0008627972,0.0002337346,0.003914328,0.007808982,-0.1526679,0.008735110964830841,0.15291759170866479,0.0004559054273182502,0.13971814437751798
14118654,-0.4016921,-0.7481517,-9.808948,0.001460011,0.001402064,0.0004064214,0.00399921,0.008066287,-0.152818,0.00900325866508727,0.15308298334756373,0.0004843255328780523,0.14002053874877807
14138852,-0.4024762,-0.750534,-9.807848,0.001374721,0.001690077,0.0004460693,0.004087932,0.008150361,-0.1525019,0.009118090395852907,0.15277424218786667,0.0004967589454899964,0.1394563152295597
14158474,-0.403217,-0.7521511,-9.804689,0.001586998,0.001382957,0.0003458986,0.004252492,0.008377189,-0.1524052,0.00939473170195855,0.1526944857249003,0.0005273593779169153,0.13931074567548088
14178519,-0.4045319,-0.7535482,-9.811784,0.001871239,0.0009160112,0.0002692122,0.004386926,0.008571559,-0.1524474,0.009628953391722124,0.15275119151803682,0.0005539825419342431,0.13941423589832527
14198430,-0.4015191,-0.7493547,-9.807454,0.001878981,0.0005819361,0.000322623,0.004396814,0.008832401,-0.1523526,0.009866269851134065,0.15267173283727214,0.0005816261026329971,0.13926923159502402
14218442,-0.4058494,-0.7500073,-9.818511,0.001939656,0.0004521721,0.0003445003,0.004612223,0.009030814,-0.1528528,0.01014042417773167,0.15318879420618314,0.0006143985099633419,0.14021416985530735
14238859,-0.4057458,-0.7525354,-9.826385,0.001893746,0.0005008514,0.000311948,0.0046371,0.009193942,-0.1528884,0.01029714843582261,0.15323476798843455,0.00063353681380845,0.14029834236980446
14258499,-0.397484,-0.7526606,-9.823645,0.001878109,0.0004062368,0.0003166721,0.004878332,0.009522969,-0.1526749,0.010699769234763196,0.15304937161480667,0.0006840482435211803,0.13995905815633095
14278658,-0.3968656,-0.7473117,-9.815382,0.00195904,0.0001272017,0.0001309862,0.005198257,0.009848752,-0.1526039,0.011136417368056614,0.1530097058588296,0.0007410182559784291,0.13988652126985815
14298447,-0.4073948,-0.7508037,-9.814348,0.001656325,0.0003440513,-4.550264e-05,0.004911928,0.009997267,-0.1527023,0.011138778395608426,0.1531080168032898,0.0007413324952751763,0.14006633723638293
14318480,-0.4182366,-0.7544696,-9.80771,0.00142189,0.0001966373,-8.720969e-05,0.004714563,0.01014669,-0.152347,0.01118849508365933,0.1527572938724599,0.0007479649728664872,0.13942537521664153
14338917,-0.4129052,-0.7510504,-9.805869,0.001328934,0.0002645613,7.015646e-05,0.004730032,0.01040757,-0.1523613,0.011432004024925987,0.1527895822813713,0.0007808770282548957,0.13948432231095267
14358485,-0.408245,-0.7505698,-9.81151,0.001108095,-7.61005e-05,0.0001518878,0.004946987,0.0106469,-0.1525059,0.011740066438831128,0.15295711390712813,0.0008235292309293097,0.13979037520141904
14378477,-0.4013124,-0.752619,-9.819077,0.0007672788,-0.0004580622,0.0002159381,0.005021374,0.01077926,-0.1528876,0.011891452518320713,0.15334935564506125,0.0008449046918979692,0.14050824863861397
14398450,-0.4022224,-0.751491,-9.829125,0.0005055703,-0.0007175895,0.0003633189,0.005095442,0.01108681,-0.1534061,0.01220167550590754,0.15389058581460224,0.0008895632887799974,0.1415018166041097
14418534,-0.4002556,-0.7557197,-9.82193,0.0005934708,-0.0008414009,0.0003714887,0.005526004,0.01105727,-0.1533642,0.012361227287810705,0.15386155394282522,0.0009129796418639731,0.14144843224566295
14439073,-0.3978307,-0.7525629,-9.815414,0.001040416,-0.001153303,0.0002886839,0.005583024,0.01146943,-0.1533798,0.012756095856862944,0.15390932729873613,0.0009722399395191188,0.14153628415155817
14458424,-0.4060191,-0.7482892,-9.814813,0.001196276,-0.001080782,7.906905e-05,0.00576155,0.01169208,-0.153009,0.013034576829682658,0.15356319309694266,0.0010151536539451777,0.14090038428792018
14478476,-0.4103776,-0.7486308,-9.809166,0.00122959,-0.00100604,-2.634415e-05,0.005653152,0.01192096,-0.1529432,0.013193461064356994,0.153511204285214,0.0010400528037688061,0.1408049968005528
14498494,-0.4096923,-0.7559927,-9.813858,0.001310761,-0.001038818,-5.644499e-05,0.005714566,0.01201642,-0.1530633,0.013306036757230005,0.15364056892980696,0.0010578774197539168,0.1410424109159217
14518521,-0.4072236,-0.7520249,-9.813365,0.001044533,-0.0009590607,-7.815847e-05,0.00583411,0.01233905,-0.1530934,0.013648772633266333,0.15370061196350066,0.001113076741507735,0.14115267175477875
14538851,-0.4061485,-0.7535463,-9.818482,0.0007337079,-0.000902122,-5.65571e-05,0.005990076,0.01241888,-0.1524428,0.013788023460241718,0.15306507394823998,0.0011359048058675514,0.13998777825511152
14558430,-0.3972178,-0.7555618,-9.812868,0.0006844,-0.0006145765,-9.869309e-05,0.006408278,0.0125324,-0.151861,0.014075762028582467,0.15251193526306484,0.0011838092831945718,0.13897784512616954
14578511,-0.4001051,-0.7551663,-9.80794,0.0008510363,-0.0004055883,-2.561272e-05,0.006494309,0.01275005,-0.1511153,0.01430873245224681,0.15179121752749725,0.0012233204507301366,0.13766742796791792
14598621,-0.3983947,-0.7569289,-9.815124,0.001127193,-0.0002415463,-3.80159e-05,0.00688251,0.01281111,-0.1510926,0.014542815522869016,0.15179086684676452,0.001263673562909895,0.13766679186710087
14618458,-0.4029427,-0.7608307,-9.814699,0.001245314,-0.0003139365,-4.088137e-05,0.00687306,0.01283548,-0.1506624,0.014559824881982613,0.15136428665426332,0.00126663129104915,0.13689410496426513
14638865,-0.4021374,-0.7594212,-9.812885,0.001232344,-2.961621e-05,8.495336e-05,0.007154949,0.01295737,-0.1505147,0.014801578716795752,0.15124074070368573,0.0013090432267442683,0.136670725850382
14658471,-0.3992395,-0.7599054,-9.818031,0.0009006328,0.0004104002,0.0001843984,0.007440234,0.01305321,-0.1506791,0.015024758676226917,0.15142633374049858,0.0013488166553411647,0.13700635893678093
14678527,-0.3950887,-0.7595283,-9.819195,0.0007045588,0.001175979,9.02208e-05,0.007837189,0.01310282,-0.1503215,0.015267790389382512,0.1510948668407505,0.001392804904660373,0.13640721124410413
14698492,-0.3911144,-0.7551034,-9.803055,0.0009073165,0.001179079,-3.028073e-05,0.008106334,0.01331843,-0.1503129,0.015591447289602592,0.15111936055646363,0.0014524820407921244,0.13645144028159187
14718453,-0.3954275,-0.750882,-9.826967,0.001403865,0.0006040742,-0.000121005,0.008369257,0.01360814,-0.1511399,0.015975792217966814,0.15198189138513063,0.0015249749735251027,0.13801350947128482
14738843,-0.3985434,-0.7503576,-9.838707,0.001504676,0.000419402,-0.000181174,0.008515739,0.01386305,-0.150989,0.016269663979892792,0.15186303067902546,0.0015815942469612602,0.1377977210199363
14758672,-0.402003,-0.7577081,-9.828888,0.00136686,0.0005590727,-0.0002378564,0.008677933,0.01385777,-0.1505997,0.01635066697493986,0.1514846987342794,0.0015973822553891994,0.13711199335492694
14778518,-0.4011242,-0.7634264,-9.817768,0.001094255,0.0006883288,-0.0001347088,0.008976167,0.0139101,-0.1500408,0.016554831802887308,0.15095133030437954,0.0016375231747307868,0.13614816712095482
14798475,-0.4069467,-0.7633561,-9.81403,0.0009415261,0.0004735802,-0.0001623091,0.008903268,0.01387483,-0.1502174,0.01648572378176718,0.15111931164271733,0.0016238800544371257,0.13645135194942812
14818465,-0.4084605,-0.7652799,-9.825863,0.000674626,0.000201174,-8.063066e-05,0.009180382,0.01398763,-0.1503259,0.016731204579552066,0.1512541219851308,0.0016726009099298732,0.13669491126951966
14838849,-0.3967566,-0.7586363,-9.830095,0.0007006793,0.0004325297,-2.954878e-05,0.009460049,0.01418308,-0.1500311,0.017048527366573366,0.15099663324915163,0.001736647405078586,0.13622989993415835
14858508,-0.3983583,-0.7572008,-9.820007,0.0009019183,0.0004847487,-5.937305e-05,0.009622608,0.01425019,-0.1495778,0.017194839335037824,0.15056287973002433,0.0017665834360526397,0.13544835499677169
14878508,-0.3990299,-0.7629459,-9.825233,0.0008214892,0.0003806751,-0.000265255,0.009765331,0.01424332,-0.1497068,0.017269448577240706,0.15069956808299736,0.001781947278617717,0.1356943999269017
14898464,-0.4073053,-0.7595974,-9.819967,0.0008370991,0.0003817842,-0.0001799701,0.00963778,0.01442902,-0.1492214,0.017351755573681876,0.15022686057908818,0.0017989734433955804,0.13484445509570656
14918733,-0.4057327,-0.7558191,-9.818885,0.0007149266,0.0001941176,-2.580358e-05,0.01010392,0.01457574,-0.1492916,0.01773531493698378,0.15034135567592172,0.00187938484058615,0.13505007627818214
14938838,-0.3985541,-0.7529152,-9.818977,0.0002720985,0.0003987562,0.0001544422,0.01026336,0.01483897,-0.1487775,0.018042493983662568,0.1498675284889976,0.0019450512451742372,0.134200149670018
14958416,-0.4098585,-0.7545192,-9.814287,0.0001909323,0.0005933475,0.0002337487,0.01000461,0.01496859,-0.148252,0.018004191396455437,0.14934124149691605,0.0019368016743451948,0.1332592683107452
14978468,-0.4045867,-0.7584231,-9.814823,0.0004797817,0.0004519571,0.0004738663,0.01034847,0.01492476,-0.1480797,0.018161478254770453,0.14918926517845882,0.0019707897720810373,0.1329881851458188
14998487,-0.4023917,-0.7652964,-9.824638,0.0007544726,0.0004465346,0.0004543083,0.0103235,0.01501107,-0.148196,0.018218311524257673,0.1493116247677819,0.001983143576899527,0.13320641871249952
15018522,-0.4074531,-0.7622992,-9.832197,0.001218265,0.0003129306,0.0003427601,0.01044549,0.01505136,-0.1482875,0.018320799632922685,0.14941497366542517,0.002005518902658457,0.13339088527375217
15038848,-0.4067362,-0.7594678,-9.822409,0.001670929,0.0002355957,0.0005098106,0.01050362,0.01516476,-0.1474309,0.018447113025132144,0.1485805042856296,0.00203326847429795,0.13190509336628767
15058433,-0.4006953,-0.7521511,-9.809306,0.001649767,0.0004177374,0.000585761,0.01076326,0.01561686,-0.1466567,0.018966657114188573,0.14787806374502338,0.0021494111404710197,0.13066083237843876
15078702,-0.4013931,-0.7542409,-9.816355,0.001457172,0.0008838427,0.0004336151,0.01098533,0.01558842,-0.1460765,0.01907029924530027,0.1473160553556716,0.0021729659719991676,0.12966957048919292
15098492,-0.400101,-0.7582088,-9.820416,0.001431385,0.0007636828,0.0001537112,0.01118125,0.01580672,-0.1459627,0.019361630838359147,0.14724123926404212,0.0022398646736073767,0.12953789567656512
15118446,-0.3974572,-0.7603921,-9.836872,0.00114979,0.0006675143,-6.65942e-05,0.01152067,0.0159225,-0.14609,0.019653290907603743,0.14740603767654464,0.002307854764905927,0.1298280261624059
15138843,-0.3912028,-0.7570584,-9.834225,0.0004888454,0.001173555,-6.211728e-05,0.01188646,0.01611994,-0.1458201,0.02002848963190185,0.14718913669474798,0.0023968138716878194,0.1294462357166476
15158497,-0.4011791,-0.7568672,-9.831796,0.0002324907,0.0007581315,-1.621832e-05,0.01194901,0.01612972,-0.1455843,0.020073532505727534,0.14696167906549143,0.002407606575869537,0.1290464673046473
15178514,-0.4002981,-0.7648664,-9.828122,0.0003641851,0.0001784377,9.576303e-05,0.01226229,0.01608321,-0.1455565,0.020224574159872936,0.14695485052286705,0.0024439745646904956,0.12903447535088422
15198434,-0.3961833,-0.7627505,-9.834996,0.0008995106,-0.0006423059,0.0001962608,0.01251196,0.01631602,-0.1460759,0.020561168538825805,0.1475158642739553,0.0025260008687999504,0.1300215580196397
15218454,-0.3994522,-0.7578902,-9.846174,0.001532785,-0.0007362035,0.0002905285,0.01266601,0.01638198,-0.1463121,0.02070741601553656,0.14777018537056283,0.0025620625412919877,0.13047026541459172
15239057,-0.4087838,-0.7579435,-9.835886,0.002422938,-0.0007405442,0.0002598983,0.01256237,0.01654766,-0.1459855,0.020775904107703712,0.14745644916972095,0.002579038194167687,0.12991684130041142
15258496,-0.4076467,-0.7608076,-9.838857,0.002799707,-0.0009386289,0.0001953239,0.01282417,0.01670075,-0.1462349,0.021056457127242464,0.14774308905922268,0.0026491619608396146,0.13042242167944937
15278505,-0.4024117,-0.7623499,-9.829632,0.002635814,-0.0007365097,0.0001991901,0.01293381,0.01667165,-0.1457416,0.021100411248091824,0.14726113311189276,0.002660233445160635,0.12957290191925663
15298434,-0.4011344,-0.7617378,-9.822845,0.002349036,-0.0005531261,0.0001249872,0.0131677,0.01684872,-0.1457089,0.021383818389810554,0.1472696548109569,0.00273217444134719,0.12958789858812697
15318484,-0.4025324,-0.7558683,-9.813103,0.002302513,-0.0006173379,9.36951e-05,0.01327497,0.0171022,-0.1452019,0.021649713008280273,0.14680702243745322,0.0028005426882118777,0.12877500347578158
15338849,-0.4029863,-0.7559808,-9.818376,0.002284485,-0.0005760192,0.0001079143,0.01340507,0.01722696,-0.1448812,0.021828056545338616,0.14651630000101182,0.0028468727139653372,0.1282654813417693
15358450,-0.3958923,-0.7578567,-9.822082,0.002128256,0.0001061761,0.0002708162,0.01367934,0.01735381,-0.1445555,0.02209703745644877,0.14623464584222748,0.0029174674095014076,0.12777281557649514
15378468,-0.3961978,-0.7605345,-9.821739,0.001745439,0.0003147513,0.0004637644,0.01406431,0.01747046,-0.1442161,0.022428147234840868,0.14594966696638162,0.0030055551856165074,0.12727529909339627
15398634,-0.399941,-0.7677127,-9.821392,0.001331335,9.213377e-06,0.0006091695,0.01414659,0.01729538,-0.1440703,0.02234404121846583,0.1457926867852517,0.002983055663385687,0.12700165743237346
15418503,-0.4007699,-0.7717256,-9.827271,0.001295695,-5.608057e-05,0.0004780067,0.01423564,0.01720621,-0.1441707,0.02233175113540584,0.14589001969724902,0.0029797749749228574,0.12717128963740063
15438860,-0.4159836,-0.7639329,-9.828012,0.001271022,9.373145e-05,0.0002215673,0.01396351,0.01744338,-0.144387,0.022343927974832447,0.14610563605263316,0.002983025426133387,0.12754746989590837
15458425,-0.409409,-0.7584205,-9.836527,0.001045558,0.0002271131,0.0002518494,0.01422054,0.01750097,-0.1447849,0.022550115494881617,0.14653045750574348,0.0030383335602741876,0.12829027048663388
15478458,-0.4113172,-0.7588366,-9.838555,0.0008791644,0.000388214,0.0003128109,0.01398476,0.01770493,-0.1453885,0.02256187178765317,0.1471286987328186,0.0030415023999109374,0.1293399525951047
15498462,-0.4160898,-0.7569929,-9.831644,0.0007634631,0.0006035508,0.0004224402,0.01391355,0.01774227,-0.1454263,0.02254717317881335,0.1471637990473384,0.0030375407346735156,0.12940167290652124
15518519,-0.4121593,-0.7556851,-9.816641,0.0006316088,0.0006448899,0.0002442838,0.01398541,0.01789255,-0.1455125,0.022709800491651177,0.14727397154494273,0.003081516854264335,0.12959549560035807
15538837,-0.4047797,-0.7585894,-9.820583,0.0004270102,0.0008111268,0.0001027766,0.01396799,0.01802851,-0.145638,0.022806400800218347,0.14741288600885677,0.003107788206824695,0.1298400897947247
15558666,-0.4135908,-0.7551276,-9.828774,0.0004849939,0.000926883,5.753004e-05,0.01367635,0.01821641,-0.1455028,0.02277894077016313,0.1472750656100706,0.0031003088520983346,0.12959742107894232
15578455,-0.4087302,-0.7511544,-9.82772,0.0005060298,0.0007979918,-2.71099e-06,0.01393972,0.0184985,-0.1454351,0.023162691897281713,0.1472680501939861,0.0032056490181721895,0.12958507468243197
15598489,-0.4017028,-0.760617,-9.830791,0.000570694,0.0005784158,-5.335722e-05,0.01411468,0.01837279,-0.1459702,0.02316859089125836,0.14779743871910128,0.0032072820332218373,0.13051839527926082
15618487,-0.4055675,-0.7673928,-9.833244,0.0008600621,0.000202761,0.0002125361,0.01397044,0.01825466,-0.146178,0.022987079099120008,0.147974367677342,0.0031572246879174692,0.13083107059981747
15638832,-0.4090858,-0.7642711,-9.832675,0.001146754,0.0003171212,0.0002593881,0.01406303,0.01844275,-0.1463038,0.023192754048266886,0.14813070490206748,0.0032139754460518153,0.1311076667653308
15658432,-0.4063863,-0.7643187,-9.829564,0.001359597,0.0002986888,0.0002105018,0.01398515,0.01828478,-0.1465935,0.023019939186950517,0.14838993174208584,0.0031662576610211276,0.13156694175846484
15678574,-0.4097076,-0.7691161,-9.828804,0.001723103,7.991695e-05,0.0001076366,0.01401031,0.01814271,-0.1468988,0.02292262446667484,0.1486765084129978,0.003139544106830195,0.13207560731943419
15698460,-0.4034531,-0.7698106,-9.844391,0.002191195,0.0001231621,0.0001129219,0.01414806,0.01814174,-0.1479248,0.023006310699266844,0.1497031622479338,0.0031625097336474206,0.1339059448025114
15718654,-0.4023673,-0.764505,-9.835934,0.002180091,0.0005898628,0.0001742841,0.01411434,0.01810992,-0.1481078,0.022960483358196098,0.149876963596418,0.0031499231813509497,0.13421704769586998
15738900,-0.4125984,-0.7606066,-9.819407,0.001937835,0.0008725807,2.300588e-05,0.01387843,0.0182323,-0.1479346,0.022913480367567473,0.14969860874341784,0.003137039805765527,0.1338977989217965
15758490,-0.4178266,-0.762243,-9.812049,0.001728301,0.0005095084,-8.558301e-05,0.01368848,0.0180805,-0.1479023,0.022677719571429573,0.14963077661447324,0.003072816815638389,0.13377648162874609
15778511,-0.4138643,-0.7689844,-9.81555,0.00133713,0.0005285196,-0.0002147954,0.01368188,0.01797057,-0.1481995,0.022586173346968275,0.14991073019203563,0.0030480579780943176,0.13427753148458807
15798429,-0.4017914,-0.7702471,-9.825688,0.001078362,0.0009220092,-0.0001728382,0.01398272,0.01777772,-0.1486499,0.022617775907387536,0.150360754710153,0.0030565936273058802,0.13508493042811562
15818510,-0.3920231,-0.7697421,-9.828373,0.001083095,0.0008149789,-8.959661e-05,0.01416435,0.01777427,-0.1489872,0.02272781302623286,0.15071078013465194,0.003086407072608515,0.1357145920115525
15838896,-0.3986754,-0.7633666,-9.835818,0.001199383,0.0002517107,-0.0001790301,0.01423503,0.01788307,-0.1494507,0.022856952371779576,0.15118846517580564,0.0031215806235616547,0.13657626321323937
15858403,-0.3967335,-0.7603493,-9.84219,0.001577354,-0.0004680348,-0.0001966025,0.01463838,0.01787732,-0.1497103,0.0231058594171868,0.15148285271111314,0.003189937417955629,0.13710865162634336
15878678,-0.3976288,-0.7616464,-9.84892,0.001939147,-0.0006757943,-0.0003241144,0.01474989,0.01809407,-0.1501687,0.023344263196275868,0.15197234315449307,0.0032561038794575747,0.13799616867610529
15898440,-0.399043,-0.7587801,-9.838112,0.001973577,-0.0009899436,-0.0002296687,0.01481627,0.01815889,-0.1504728,0.023436449021662815,0.15228700102958556,0.0032818711779013746,0.13856820082844531
15918500,-0.4020919,-0.7614504,-9.835309,0.00190681,-0.0009679486,-8.38151e-05,0.01500219,0.01818503,-0.1510065,0.023574584214721583,0.1528356112401393,0.0033206720998595752,0.13956837627730329
15938844,-0.4039536,-0.7584303,-9.836334,0.001847555,-0.0007435338,-0.0001506356,0.01498241,0.01846674,-0.1510839,0.023780098730570905,0.15294390453642048,0.003378821246423307,0.13976623166070307
15958440,-0.3982433,-0.7590293,-9.832474,0.002250617,-0.0008093028,-0.0001266424,0.01531438,0.0185191,-0.1511375,0.02403096543200876,0.15303604544630786,0.003450486615076539,0.13993468645492033
15978489,-0.3915463,-0.7580861,-9.83668,0.0022763,-0.001246791,8.378192e-05,0.01581059,0.01866786,-0.1513902,0.024463518821455348,0.15335402312677585,0.003575820924938007,0.140516802044777
15998488,-0.3863826,-0.7601762,-9.824335,0.00227846,-0.0009891146,0.0002643942,0.01612931,0.01871177,-0.1515728,0.024703946599865374,0.15357277974123215,0.003646452741213775,0.1409179770977578
16018482,-0.3923414,-0.7575749,-9.831848,0.002128162,-0.0006753352,0.0004253928,0.01631425,0.01897781,-0.1517839,0.025026226752321253,0.15383323543587257,0.003742214352115134,0.14139636933989488
16039060,-0.401664,-0.7614836,-9.830872,0.002089367,-0.0006609469,0.0004893334,0.01623865,0.01893721,-0.1517974,0.024946175586782835,0.1538335539574075,0.0037183122665294345,0.14139695488092047
16058432,-0.4118332,-0.7587833,-9.841047,0.002274534,-0.0005675385,0.0003157068,0.01635659,0.01929357,-0.152159,0.02529387039922914,0.15424701345819633,0.003822684781643675,0.14215804343561866
16078458,-0.4061094,-0.7566639,-9.837394,0.002513895,-0.0004365449,0.0003444656,0.01636461,0.01940144,-0.1524614,0.025381417110273807,0.15455968046190344,0.0038491925987910575,0.14273495157630203
16098475,-0.4059892,-0.7561201,-9.844408,0.002441411,-0.0001183876,0.0002766202,0.01631543,0.01962276,-0.1527872,0.025519521274947537,0.15490375866951228,0.0038911946474624367,0.14337116733840644
16118499,-0.4080695,-0.759261,-9.828302,0.002108861,0.0001903901,0.0002211894,0.01638526,0.0197549,-0.152804,0.02566579083678506,0.15494449081938214,0.003935928595183658,0.14344657653078363
16138852,-0.4079878,-0.7621346,-9.827402,0.001817628,0.0004912119,0.0002002859,0.0163604,0.01978329,-0.1526749,0.025671798756302603,0.15481817187072744,0.003937771477019996,0.14321278138982974
16158437,-0.4023406,-0.7682182,-9.826084,0.001421693,0.0008383667,0.0001815664,0.01646734,0.01963225,-0.1523091,0.025624178557333305,0.15444954020503945,0.003923176197260147,0.14253159630554987
16178537,-0.397112,-0.7743126,-9.828958,0.001165609,0.001126143,-8.486172e-05,0.01671544,0.01942058,-0.1526753,0.02562352165355106,0.15481056841191432,0.00392297505003175,0.14319871474981952
16198646,-0.3933515,-0.7722949,-9.835921,0.001076269,0.001048316,-0.0003758127,0.0171057,0.01951894,-0.1528288,0.02595368935649805,0.15501688972706681,0.00402472409750126,0.1435806607014052
16218433,-0.3897592,-0.766054,-9.843083,0.0009536975,0.0009777849,-0.0004526295,0.01761297,0.01955583,-0.1531342,0.02631819141221144,0.15537931139263617,0.004138567015278555,0.1442528141928775
16238906,-0.3954197,-0.7678673,-9.839248,0.001325978,0.0004443802,-0.0003980468,0.01754432,0.01948758,-0.153102,0.026221535777272847,0.15533123105969,0.004108224407649829,0.1441635532715498
16258516,-0.3949248,-0.7696172,-9.832767,0.001569205,0.0002521143,-0.0002920837,0.01784318,0.01939748,-0.1528818,0.02635604869594075,0.15513699131445988,0.004150481784605231,0.1438032292927642
16278511,-0.3930422,-0.7657074,-9.834548,0.001786798,0.000254869,-0.0003222194,0.01800174,0.01963141,-0.1528499,0.026635594636044826,0.15515330106583522,0.004238993037153807,0.14383346731896357
16298417,-0.4019414,-0.7606512,-9.835899,0.001905767,0.0005434326,-0.0003754532,0.01818487,0.01977866,-0.1529259,0.02686791559299865,0.1552682059506147,0.004313262207667187,0.14404658928025693
16318464,-0.3989789,-0.7624359,-9.829499,0.002006137,0.0008852984,-0.0003192101,0.01828431,0.01974446,-0.1528987,0.026910215399875564,0.15524874284372708,0.004326854164884508,0.14401047862348226
16338909,-0.4029101,-0.7590603,-9.825798,0.002210026,0.001011939,-0.0003445302,0.01832957,0.0200859,-0.1526847,0.027192214238544458,0.15508718235007335,0.004418013678289527,0.1437109039224773
16358649,-0.403703,-0.7553318,-9.838726,0.002382154,0.0007684027,-0.0005455419,0.01820833,0.02031612,-0.1527854,0.027281642422026207,0.15520201824204252,0.0044471208791287175,0.1439238071367597
16378515,-0.4031297,-0.7659183,-9.839424,0.002142054,0.00059824,-0.0005372925,0.01837733,0.02018868,-0.152689,0.027300349046693526,0.15511041157533978,0.004453221621976018,0.143753957679951
16398433,-0.3972111,-0.7705772,-9.832167,0.001839576,-0.0001428403,-0.0005531888,0.01867083,0.02010851,-0.1526713,0.027439972071942785,0.1551176260487473,0.004498888602171274,0.14376733051821905
16418528,-0.3949513,-0.7704886,-9.836528,0.001729597,-0.0007706722,-0.0004882848,0.01871684,0.0201701,-0.1530726,0.027516413894175962,0.15552611968526572,0.00452398937573371,0.1445255340785247
16438853,-0.4024293,-0.7663326,-9.840745,0.001799108,-0.0008722088,-0.0001756815,0.01878648,0.02027438,-0.1526551,0.027640230013058865,0.15513723560507578,0.00456479433316943,0.14380368218032913
16458426,-0.4093727,-0.7668577,-9.828153,0.001850479,-0.0005885362,0.000126919,0.01862556,0.02022114,-0.1521253,0.027491925873121364,0.15458949798839247,0.004515940779573869,0.1427900295076116
16478501,-0.4081563,-0.7688898,-9.828151,0.00178654,3.856726e-05,0.0001028749,0.01860978,0.02022471,-0.1519128,0.027483864470494317,0.15437895455687117,0.004513292767239187,0.14240134812018315
16498518,-0.4105968,-0.766744,-9.839925,0.001917933,0.0003622831,0.0002084326,0.01842419,0.02044975,-0.1520952,0.027525316568907977,0.15456582065663355,0.004526917237006134,0.14274629266867017
16518671,-0.410329,-0.763247,-9.834994,0.002163707,0.0007533124,9.642102e-05,0.01846922,0.02054108,-0.1517874,0.027623324473618305,0.15428046815373228,0.00455921212847443,0.1422197155510654
16538852,-0.393468,-0.7626095,-9.831005,0.001778897,0.001012387,8.836989e-05,0.01900857,0.02060194,-0.1518961,0.028031512003609437,0.15446096872808515,0.004694949849620786,0.14255269039100052
16558425,-0.3931326,-0.765331,-9.836307,0.001518862,0.001196288,0.0001375703,0.01894292,0.02059428,-0.1520427,0.02798139715676828,0.15459605819727357,0.004678177556397679,0.14280214873055538
16578504,-0.3989887,-0.7681692,-9.841754,0.001319839,0.0012525,8.385807e-05,0.0189916,0.02055611,-0.1523006,0.027986327534924978,0.1548505966706364,0.004679826310130297,0.14327277605328131
16598488,-0.3975039,-0.7666552,-9.832773,0.001234628,0.0007795211,-5.796696e-05,0.01914877,0.02060349,-0.1521762,0.02812790771978961,0.15475391768589578,0.004727295676340674,0.1430939308588197
16618460,-0.4022907,-0.7669271,-9.82592,0.001533081,7.454108e-06,-2.654607e-05,0.01920582,0.02051303,-0.152305,0.028100674754412927,0.1548756305770966,0.004718146331878468,0.14331910415625346
16638880,-0.3927062,-0.7658262,-9.820084,0.001778414,-0.0002067054,1.983577e-05,0.01949927,0.0205732,-0.1520288,0.028345689068585013,0.1546487443150215,0.004800781580418076,0.14289949885632205
16658501,-0.3966329,-0.7631518,-9.834165,0.001854732,-0.000128493,-5.656009e-05,0.01943927,0.02073456,-0.1522307,0.028421949203502914,0.15486120630750783,0.004826647999245837,0.1432924094836236
16678781,-0.4004926,-0.7637193,-9.842916,0.001697535,-0.0005638608,-2.842287e-05,0.01966543,0.02083232,-0.152621,0.028648118501348394,0.15528645895462778,0.004903770294662118,0.1440804588996371
16698424,-0.4029219,-0.7625998,-9.840243,0.001664195,-0.0008011659,-9.216607e-06,0.01968849,0.02096775,-0.1526985,0.028762530809068244,0.15538376710838425,0.0049430169917920345,0.14426108760773573
16718463,-0.4038027,-0.7596568,-9.837142,0.001781615,-0.0008474797,0.0001514595,0.01966188,0.02119533,-0.153164,0.028910751269091917,0.15586867047275182,0.004994093445186217,0.1451628785487862
16738894,-0.4023916,-0.7615796,-9.842991,0.002230728,-0.0009675305,0.0002111623,0.01980953,0.02116335,-0.1536107,0.028988012385180877,0.1563219498871908,0.005020821550709314,0.14600839829878703
16758485,-0.3956368,-0.7641504,-9.847398,0.00273302,-0.000711408,0.0002902062,0.01974261,0.02131432,-0.154101,0.029052898077033557,0.15681578073546837,0.005043323547880138,0.14693235479885508
16778544,-0.4006068,-0.7607118,-9.841309,0.002879239,-0.0005179409,0.0003513414,0.01977128,0.02139811,-0.1542994,0.029133874174412506,0.157025754144887,0.005071476180852737,0.1473260976020037
16798435,-0.3994023,-0.7573745,-9.824613,0.002748491,2.133581e-05,0.0001518932,0.01998421,0.021698,-0.154383,0.029498675450333356,0.15717596044664112,0.005199276823611496,0.14760808819038646
16818478,-0.3991149,-0.7592873,-9.827395,0.00230311,0.0001428509,-8.899769e-05,0.01991819,0.02175435,-0.1549091,0.029495525708123933,0.1576921535765448,0.005198166569871634,0.14857922141516136
16839087,-0.4003389,-0.7650204,-9.828157,0.001971782,7.865916e-05,-0.000155735,0.01997836,0.02165698,-0.1546243,0.029464549054923614,0.15740658754162737,0.00518725391478475,0.1480415819639625
16858434,-0.4082934,-0.7642512,-9.8283,0.001731436,9.600316e-06,-0.0001160645,0.0197535,0.02181861,-0.154623,0.029432167853933218,0.15739925232853585,0.005175858714878047,0.14802778468565303
16878499,-0.4034533,-0.7623498,-9.829198,0.001999704,-6.232785e-05,0.000163846,0.01990053,0.0219274,-0.154484,0.0296115174390118,0.15729637065438257,0.005239130741119377,0.1478343356207194
16898493,-0.4007958,-0.7656155,-9.832805,0.002166613,-0.0001561086,0.0002644454,0.01998222,0.02194762,-0.1546172,0.02968142752282646,0.1574403559308502,0.005263898160261979,0.14810510741190597
16918500,-0.3893512,-0.7685482,-9.831747,0.002229408,0.0002856257,0.0003081705,0.0204078,0.02196617,-0.154863,0.029983177371801343,0.1577388338181467,0.005371470778720678,0.1486671996734957
16938842,-0.3913529,-0.7678918,-9.819469,0.002111759,0.0005439488,0.0002754212,0.02028401,0.02194075,-0.1544304,0.029880387752547657,0.15729458355710346,0.0053347044941495355,0.14783097644800555
16958484,-0.4070812,-0.7663446,-9.820476,0.001698582,0.0009215028,0.0003498588,0.01994037,0.0220838,-0.1542512,0.029754202697718182,0.15709470162808453,0.005289742654606977,0.14745550304571098
16978534,-0.4067331,-0.7630151,-9.826708,0.001170974,0.00131235,0.0003363107,0.02006236,0.0222231,-0.154359,0.02993934639199059,0.1572356999646696,0.0053557776627181095,0.14772031542669312
16998636,-0.3909623,-0.7624189,-9.830197,0.001550912,0.001143134,0.0001329998,0.02056806,0.02237873,-0.1544107,0.030394944457532734,0.1573738126978771,0.0055200195752445865,0.14797993861532233
17018467,-0.3973311,-0.7598784,-9.838545,0.002156222,0.0004518475,-0.0001547784,0.02034721,0.02255473,-0.1548784,0.03037638556769057,0.1578291594944261,0.005513280680938075,0.14883751043063403
17038888,-0.4041886,-0.7661117,-9.84374,0.002486762,-0.0001714866,-8.829064e-05,0.02022967,0.02251486,-0.1553203,0.030268109771317074,0.1582420742445526,0.005474046853042788,0.14961731051578053
17058512,-0.3970966,-0.7628298,-9.836036,0.002760998,-0.000770459,7.905869e-05,0.02030496,0.02276259,-0.1553101,0.03050289992950998,0.15827714322074335,0.005559300752055457,0.1496836330450652
17078546,-0.3968853,-0.7567995,-9.831347,0.003179919,-0.001766072,-8.158291e-05,0.02053668,0.02306673,-0.1557688,0.0308841263162049,0.15880097075192992,0.005699129818433918,0.15067604616273791
17098424,-0.4020315,-0.7585741,-9.823446,0.003162461,-0.001735541,-0.0003333861,0.02047023,0.0231093,-0.1557538,0.030871832837440993,0.15878386655193563,0.005694593624888828,0.15064358975616784
17118480,-0.4083827,-0.7587642,-9.835627,0.002824529,-0.001040178,-0.0006004244,0.02020759,0.02351205,-0.1564501,0.031002631965860575,0.15949231009305936,0.0057429500531433345,0.1519908369484531
17138913,-0.4062483,-0.7584116,-9.827551,0.002422958,-0.0004227716,-0.0006624174,0.02025237,0.02366391,-0.1560387,0.031147056475773115,0.159116985343473,0.005796581284452374,0.1512763347731501
17158647,-0.3963718,-0.7639468,-9.818236,0.001970019,0.0001016874,-0.0005692526,0.02031004,0.02360758,-0.1558743,0.031141861830308093,0.15895475129340425,0.005794647960591551,0.1509680124285193
17178523,-0.3966709,-0.7666133,-9.815789,0.001530802,0.0006143471,-0.0004401512,0.02026422,0.02363745,-0.1558882,0.031134669657969714,0.15896697315464903,0.005791971736897626,0.15099122885985664
17198456,-0.4008725,-0.7667639,-9.827347,0.00123562,0.0008879064,-0.0002750248,0.02034026,0.02381199,-0.1562122,0.031316721485936234,0.15932039566065512,0.005859903841650508,0.15166335612896947
17218534,-0.3998503,-0.7654708,-9.83547,0.001395613,0.001045954,-0.0003899962,0.02030512,0.02385447,-0.1565752,0.03132624518188064,0.1596781979239348,0.005863468482241917,0.1523453331811059
17238847,-0.4079151,-0.7612279,-9.830205,0.001719587,0.0009284305,-0.0004618636,0.02002881,0.02406959,-0.1564467,0.03131291095992514,0.15954957954715582,0.005858477896885594,0.15210000829370335
17258424,-0.4027662,-0.7590728,-9.818722,0.001791248,0.0007809192,-0.0003880365,0.01999,0.02421436,-0.1566143,0.03139960716648538,0.15973094344772276,0.0058909635980023585,0.15244599641083015
17278458,-0.4029576,-0.7608678,-9.826365,0.001471412,0.000638304,-0.0002495782,0.01999091,0.02442335,-0.1567406,0.0315616303104038,0.15988668548759963,0.005951915634407333,0.15274341937235833
17298425,-0.3969685,-0.7642832,-9.836173,0.001370155,0.0003229691,-0.0002968213,0.02028272,0.02446051,-0.157448,0.03177586002075318,0.16062247035847288,0.006032989048349539,0.15415247845474953
17318713,-0.3917082,-0.7665343,-9.837298,0.001850058,-0.000137043,-0.0002605473,0.02047067,0.02453783,-0.1578728,0.031955491411615,0.1610744374852751,0.0061013917523628555,0.15502122210690686
17338853,-0.3832232,-0.767642,-9.845288,0.002489994,-0.000300635,-0.0001776148,0.02065242,0.02458062,-0.1587341,0.03210497362467068,0.1619482751814628,0.006158607755358779,0.15670778190964849
17358429,-0.3897187,-0.7657101,-9.842938,0.00250579,-0.0002237842,-8.769658e-05,0.02086251,0.02471543,-0.1592206,0.032343419788034164,0.16247244771943642,0.006250428401420374,0.15772384520097135
17378491,-0.397104,-0.7586806,-9.824861,0.002311134,1.787734e-05,4.420087e-05,0.02060352,0.02503915,-0.1592676,0.03242628669941873,0.16253501923854102,0.006282497812949577,0.15784535406126557
17398502,-0.4037855,-0.7579899,-9.823356,0.001967362,0.0004468517,0.0001603375,0.02041533,0.02516064,-0.1598214,0.032401288619721594,0.16307275493526963,0.006272814937705537,0.15889152232801654
17418505,-0.4065555,-0.764345,-9.828835,0.002055444,0.0003539619,0.0003101423,0.02035234,0.02519243,-0.1604543,0.03238635936286294,0.1636901300056619,0.006267035729863486,0.1600968905010912
17438844,-0.4131165,-0.7661439,-9.831503,0.002292183,0.0005116777,0.0004245075,0.01992241,0.0252711,-0.1604707,0.03217966617940746,0.16366544068283964,0.006187297219623147,0.1600485994316009
17458495,-0.4176525,-0.7666971,-9.831768,0.002421533,1.400587e-05,0.0005158521,0.01952162,0.02541058,-0.1605393,0.03204358318541795,0.163706011092601,0.00613507755958078,0.16012795695540852
17478762,-0.4182034,-0.7645084,-9.827999,0.002419923,-0.0005777187,0.0003537376,0.01915864,0.02558593,-0.1604497,0.031963937501729975,0.1636025657827667,0.006104617471171637,0.1599256521959594
17498493,-0.4110936,-0.7648777,-9.832808,0.002307168,-0.0007285235,0.0001688359,0.01912609,0.02576029,-0.1609558,0.032084261867342374,0.1641224220306665,0.006150664160943895,0.16094361224394288
17518478,-0.4037019,-0.7649988,-9.826404,0.002262459,-0.0007118608,-5.930304e-05,0.01914831,0.02596297,-0.1607308,0.03226040277301261,0.1639363402535173,0.0062183831827850745,0.16057886384290906
17538856,-0.3975411,-0.7639956,-9.827546,0.001862283,-0.0005330063,-0.0001489637,0.0191432,0.02605968,-0.1606557,0.032335259824878476,0.1638774632780005,0.006247274941955839,0.16046354224833362
17558444,-0.3996081,-0.7615708,-9.828361,0.001655259,-0.00019269,-0.0001870365,0.01911972,0.02629112,-0.1606398,0.03250825562426874,0.16389610131962504,0.006314300435303481,0.16050004386594244
17578528,-0.4008501,-0.760062,-9.839016,0.001436981,-0.0002910137,-0.0001623909,0.01911612,0.02654565,-0.1609228,0.032712345953430186,0.16421402235380786,0.0063938330272169785,0.16112331469726102
17598516,-0.4014109,-0.7630663,-9.848125,0.001130321,-6.478118e-05,-0.0002109499,0.01907741,0.02680218,-0.1613705,0.0328983954785108,0.1646898378629067,0.006466768939736485,0.16205838760448021
17618432,-0.4042442,-0.7624475,-9.836671,0.0008963689,0.0007331525,-9.608654e-05,0.01886534,0.02702773,-0.1614058,0.03296057102461212,0.16473685536609134,0.006491235472554287,0.16215093330755326
17639027,-0.4087787,-0.7621474,-9.829585,0.0007810912,0.001036844,0.0001237056,0.0188169,0.02721879,-0.160997,0.03308985123378617,0.16436232008484822,0.006542256071677747,0.16141445927545273
17658484,-0.3990874,-0.7616727,-9.832302,0.0007243845,0.001140476,0.0002342413,0.0188615,0.02747575,-0.1607744,0.033326761323484465,0.16419220662282513,0.006636271296367187,0.1610805072761432
17678535,-0.3899027,-0.7642967,-9.835456,0.0008595031,0.001172242,0.0001608633,0.01901246,0.02758497,-0.1605782,0.03350230149038272,0.16403585742267604,0.006706365125786188,0.1607738810593452
17698438,-0.3990327,-0.7640377,-9.837873,0.001097204,0.001127619,1.207788e-05,0.0188827,0.02794882,-0.1605721,0.033729703507181914,0.16407648276670364,0.00679771506962734,0.16085352587762708
17718454,-0.4006889,-0.7556377,-9.828018,0.001507418,0.0006528303,-0.000203576,0.01892974,0.02831862,-0.1601554,0.034062872679385105,0.1637376909704421,0.006932668788652701,0.16018993787988367
17738922,-0.403749,-0.760139,-9.820569,0.002162093,-1.539058e-05,-0.0002673679,0.01876166,0.02848906,-0.1593542,0.03411196894990379,0.1629643748899716,0.00695266789319422,0.15868039021259323
17758451,-0.4077905,-0.7626636,-9.812181,0.002442345,4.60406e-05,-0.0003996273,0.01848157,0.02872973,-0.1585128,0.034160881363597746,0.16215200763289303,0.006972620747838353,0.15710230963678234
17778492,-0.4093754,-0.7621865,-9.815443,0.002397127,0.0006950114,-0.0006917822,0.01824184,0.02896677,-0.1579818,0.034232126589192495,0.16164803624559904,0.0070017349826405366,0.15612727354179953
17798652,-0.4107048,-0.7623515,-9.822933,0.001897581,0.0008355684,-0.0006106202,0.01816005,0.02915631,-0.1575251,0.03434934975830838,0.16122665709748063,0.007049770027191136,0.15531435887900089
17818486,-0.3977435,-0.7664024,-9.827221,0.001690153,0.0006401213,-0.0005657572,0.01827168,0.02942286,-0.1571498,0.03463464999970405,0.16092115653524866,0.007167364909096949,0.15472632125833596
17838856,-0.4001279,-0.7640643,-9.823737,0.001744153,0.0009256837,-0.0003586446,0.01793618,0.02950799,-0.1567037,0.03453155117906666,0.1604633217296791,0.0071247574603241865,0.15384715378262193
17858447,-0.4030202,-0.7680026,-9.83395,0.001658107,0.00145264,-0.0002266066,0.01796063,0.02956825,-0.1567062,0.034595745953215115,0.1604795898440029,0.007151272187404915,0.15387835007008388
17878490,-0.4035757,-0.7645254,-9.837462,0.001602546,0.001346535,-0.0001284138,0.01769109,0.02991733,-0.1568408,0.03475660080786094,0.16064575264960168,0.007217927265809074,0.1541971706200331
17898439,-0.4018393,-0.7635942,-9.826206,0.001303158,0.00144897,1.525116e-05,0.01779492,0.02998783,-0.1561016,0.03487017530663274,0.15994886260450653,0.007265176527343917,0.15286224092463996
17918529,-0.4028963,-0.762778,-9.817293,0.0008556491,0.001534954,0.0001440261,0.01744595,0.03022454,-0.1561218,0.03489819464691691,0.15997468682530402,0.007276856837944247,0.15291160503850323
17938847,-0.4023888,-0.7632188,-9.825202,0.0009009839,0.001267867,0.0002174629,0.0174047,0.03037888,-0.1560417,0.035011425737099026,0.15992126835113085,0.00732415459456279,0.15280950212443056
17958630,-0.3984263,-0.7676862,-9.838562,0.001374561,0.0005339903,0.0002378148,0.01741172,0.03033899,-0.1560394,0.034980313142945134,0.15991221548067708,0.007311143287781537,0.1527922020431325
17978501,-0.3991084,-0.7623195,-9.833887,0.001510394,0.0002136529,0.0003153393,0.01717284,0.03090519,-0.1557042,0.03535586517965159,0.1596678900099882,0.007468972285545157,0.15232566472394413
17998506,-0.394898,-0.7584621,-9.826047,0.001249974,0.0004156415,0.0004539506,0.01732665,0.0310172,-0.1556484,0.035528572952800964,0.15965182090606578,0.007542119988973439,0.15229500591376946
18018522,-0.3967772,-0.7601786,-9.83362,0.0008877263,0.0005272329,0.0004924115,0.01716204,0.03138361,-0.1559923,0.035769632282058754,0.16004082058301156,0.007644812896722355,0.15303805891098007
18038850,-0.4032742,-0.7582073,-9.828093,0.0006679336,0.0006233412,0.000406611,0.0169351,0.03151037,-0.1551713,0.03577290915688715,0.15924143108260772,0.007646213651542728,0.15151305440509047
18058408,-0.4136381,-0.7564678,-9.832164,0.0005635112,0.0006497378,0.0001995145,0.01629677,0.03202071,-0.1550413,0.03592924409637642,0.15914997733907157,0.007713190723488574,0.1513390738399863
18078526,-0.4138343,-0.7557818,-9.831425,0.0009764683,0.0002860834,0.0002299073,0.0161065,0.0321817,-0.1546396,0.035987236030848496,0.1587718080935655,0.007738109913911501,0.15062071009566744
18098472,-0.4124144,-0.758549,-9.826419,0.001377747,-0.0003114971,0.0002815122,0.01582246,0.03251558,-0.1541813,0.03616093448997136,0.15836504176388802,0.007812988769548302,0.14984993155594603
18118665,-0.4097209,-0.7525713,-9.818328,0.001573962,-0.0008918176,0.000149057,0.01550259,0.03298327,-0.1537785,0.036444840466120856,0.15803813925395035,0.007936152719690977,0.14923191941663475
18138843,-0.3958514,-0.7556425,-9.821035,0.001927518,-0.0009916129,-8.11717e-05,0.01559278,0.03324667,-0.1534342,0.03672159928730365,0.15776732736488028,0.008057143228948365,0.14872091426354736
18158475,-0.3955696,-0.7582729,-9.823251,0.002325899,-0.0007060391,-0.0003853776,0.01560903,0.03348202,-0.1531059,0.036941676746207665,0.15749953681084683,0.008154007697907268,0.14821647197139698
18178546,-0.3962532,-0.7600927,-9.830638,0.002085658,0.0002572661,-0.0003401914,0.01554728,0.03373557,-0.152967,0.03714574805577753,0.1574125461569798,0.008244344426774217,0.1480527903835492
18198503,-0.4054349,-0.7620862,-9.833883,0.001833928,0.0007672942,-0.0002577954,0.01501525,0.03393677,-0.1529647,0.03711013460761629,0.1574019108419126,0.008228543491307515,0.14803278518169527
18218447,-0.4110628,-0.7574245,-9.826156,0.001583729,0.0006931161,-0.0002859873,0.01481824,0.03435328,-0.1526494,0.03741294005362316,0.15716732295173827,0.0083633752986496,0.14759186523780057
18238933,-0.4064148,-0.7584525,-9.818994,0.001556533,0.0002637662,-0.0004282685,0.01470666,0.03447273,-0.1524237,0.037478726792788734,0.1569638152049653,0.008392813398000788,0.1472098947200985
18258408,-0.3988182,-0.7585639,-9.823591,0.001706411,3.156392e-05,-0.0004545956,0.01463942,0.03478038,-0.1521583,0.037735758252363236,0.15676777637566594,0.00850832501901278,0.14684241086588054
18278714,-0.4023088,-0.7612731,-9.82049,0.002013167,-0.0002779953,-0.0004062147,0.01435,0.03490839,-0.1518428,0.03774278993916719,0.156463267587738,0.008511496199542796,0.14627250577278678
18298432,-0.4088254,-0.7583138,-9.827502,0.001931896,-0.000112736,-0.0002324127,0.01384849,0.03530863,-0.1519438,0.037927299241535775,0.15660586957773007,0.008594918165848077,0.14653925535752707
18318497,-0.4188226,-0.7565495,-9.831586,0.002033856,0.0003159846,-0.0001759891,0.01331075,0.03564828,-0.1520059,0.038052278939912386,0.15669642487092966,0.008651656196812374,0.14670877316480213
18338823,-0.4123413,-0.7617087,-9.835422,0.002362709,0.0008378681,-0.0001431464,0.0131728,0.03577266,-0.1522477,0.038120937335217764,0.1569476601246594,0.008682905033310706,0.1471795939111685
18358402,-0.406767,-0.7666032,-9.82726,0.002372968,0.0009397084,-1.815419e-05,0.01284037,0.03572858,-0.1520309,0.03796586006602906,0.15669971628998983,0.008612404020055968,0.14671493648504572
18378465,-0.3998602,-0.769904,-9.817557,0.001965831,0.0007338654,-0.0001368059,0.01258369,0.03574656,-0.1516953,0.03789677830435854,0.1563573786168715,0.008581090689951956,0.14607458834143972
18398503,-0.4028065,-0.766789,-9.816171,0.001894354,0.0004795175,-0.0002689252,0.01246942,0.03599831,-0.1518492,0.03809678146500699,0.15655524359992704,0.008671904429005187,0.14644452718432915
18418507,-0.4059885,-0.7628892,-9.827331,0.00227008,0.0002318783,-0.0003493681,0.01195085,0.03619739,-0.1520878,0.03811920590115434,0.1567921323516413,0.008682116304744233,0.14688804228506325
18439085,-0.4151674,-0.7605104,-9.825723,0.00257844,2.751788e-05,-0.000271781,0.01161356,0.03631606,-0.1517799,0.038127824351740815,0.1564955879052416,0.008686042664038269,0.14633294247699802
18458460,-0.4114464,-0.7597356,-9.820174,0.00257094,-0.0003377562,-0.0001239631,0.01134051,0.0367284,-0.151658,0.03843933575935073,0.15645360813231537,0.008828555638380097,0.14625444569828008
18478537,-0.4089547,-0.7564823,-9.824498,0.00236833,-0.0004995792,-0.000162159,0.01099777,0.03697365,-0.1516568,0.038574625588531634,0.15648573968747248,0.008890810392290012,0.146314525685074
18498502,-0.4121043,-0.7571914,-9.829311,0.002276497,-0.0002443643,-0.0004287728,0.01036473,0.03737472,-0.1517329,0.03878527198630042,0.15661152660472122,0.008988176505231517,0.14654984233613128
18518487,-0.4211963,-0.75368,-9.830737,0.002049194,2.168031e-05,-0.0006472601,0.009697124,0.03778512,-0.1518668,0.039009607884286354,0.15679692104606446,0.00909245330603251,0.1468970148359165
18538845,-0.4118216,-0.7598028,-9.824645,0.00195365,0.0003695261,-0.0007411591,0.009757668,0.03791044,-0.1517835,0.03914605402581241,0.15675026130135103,0.009156170936106147,0.1468096003977999
18558482,-0.4035352,-0.7632161,-9.820557,0.001827466,0.00107884,-0.0008325794,0.009477182,0.03812427,-0.1517261,0.039284563656658125,0.15672934110403203,0.009221079726621796,0.14677041601835153
18578511,-0.4013596,-0.7600358,-9.81549,0.001661884,0.001515869,-0.0008734983,0.009119129,0.03844112,-0.1513459,0.039507951358847264,0.15641758106869905,0.009326247367923922,0.14618709651261366
18598651,-0.4022437,-0.7624431,-9.831675,0.001850279,0.001247183,-0.0009724367,0.009112011,0.03851497,-0.1520536,0.0395781714909244,0.1571201098889796,0.009359429159926,0.147503205365862
18618464,-0.3985981,-0.7615284,-9.833636,0.002093425,0.001340887,-0.0008349958,0.008886469,0.03889422,-0.1522325,0.03989648707212655,0.1573736437175754,0.009510584842160755,0.14797962082825447
18638928,-0.3993109,-0.761139,-9.833023,0.002001344,0.001528818,-0.0006182792,0.008548507,0.03904196,-0.1523921,0.03996688144665091,0.15754587825449654,0.009544175885109626,0.14830370493600933
18658461,-0.404824,-0.7647753,-9.828506,0.001690769,0.001340534,-0.0004006354,0.008281169,0.0391681,-0.1523705,0.0400339583056255,0.157542016896657,0.009576238960258951,0.1482964353500027
18678488,-0.3992786,-0.7655223,-9.812669,0.001515462,0.001249148,-0.0002131296,0.008046084,0.03931282,-0.1519494,0.04012776201194699,0.15715870145953567,0.00962116777242255,0.14757567323057355
18698435,-0.4092664,-0.7647921,-9.819378,0.001266329,0.001008545,-0.0001575204,0.007474047,0.03950757,-0.1524344,0.040208325827657994,0.15764820255627118,0.009659839058532075,0.14849641072110806
18718530,-0.409872,-0.7623562,-9.830489,0.0008576754,0.0007739501,-6.042145e-05,0.007317352,0.03972957,-0.1526101,0.04039780158222479,0.15786647837551454,0.009751094676743904,0.14890790434325363
18738873,-0.4019348,-0.7632268,-9.819519,0.000802986,0.0001388563,-0.0001477102,0.00715297,0.03993681,-0.1523376,0.040572327672897944,0.15764789293408585,0.009835529792462076,0.14849582742567802
18758633,-0.3967088,-0.7589139,-9.818372,0.001027864,0.0001983069,-0.0003315601,0.006990935,0.04020968,-0.1522245,0.040812884459158545,0.15760072949744436,0.009952506938812835,0.1484069898803066
18778468,-0.3945828,-0.7594023,-9.820615,0.001267679,0.0003506617,-0.0003129549,0.006956755,0.04040051,-0.1521185,0.04099509297940578,0.15754566223999988,0.010041570949130997,0.14830329825157473
18798511,-0.3956334,-0.7616577,-9.822742,0.001390607,0.0002627565,-0.0002088936,0.006794015,0.04060142,-0.1523186,0.041165931859203975,0.1577833636724627,0.010125437826373831,0.14875114936448483
18818531,-0.3985973,-0.7599364,-9.825271,0.001350217,0.0004938513,-3.057106e-05,0.006548109,0.04092533,-0.1524791,0.04144587273884797,0.1580115068717933,0.010263618193331568,0.1491816269157713
18838852,-0.3995158,-0.760859,-9.837614,0.001304072,0.0005717911,0.0001121145,0.006369763,0.04116451,-0.1525584,0.04165442070436545,0.1581428347247395,0.010367167316192208,0.14942970814428821
18858403,-0.4044175,-0.7614039,-9.836963,0.00120451,0.000101232,8.973143e-05,0.005931252,0.04130456,-0.1521954,0.041728244955678444,0.1578121865010466,0.010403947401809593,0.14880550009424062
18878468,-0.412971,-0.7608602,-9.831109,0.00122613,3.565182e-05,0.000203312,0.005431059,0.04160409,-0.1520711,0.041957081721559014,0.15775302267088126,0.010518370321872748,0.14869394656675247
18898465,-0.4182589,-0.7663339,-9.821608,0.001358331,-0.0001462426,0.0001013752,0.005003389,0.04172623,-0.1517882,0.04202513737631587,0.15749847564576056,0.010552520224701871,0.14821447473866092
