TimeUS,Roll,Pitch,Yaw,VN,VE,VD
12797832,2.12,-0.16,0.01,-0.0008188157,-0.0004253652,-0.1110207
12817932,2.12,-0.16,0.01,-0.0009109228,-0.0003591108,-0.1127428
12837829,2.12,-0.16,0.01,-0.0008548067,-0.0003258307,-0.1148305
12857839,2.12,-0.16,0.01,-0.0009096383,-0.0001916626,-0.1169448
12877859,2.12,-0.16,0.01,-0.0008350296,-0.0001968541,-0.1186689
12897895,2.12,-0.16,0.01,-0.001017491,6.40323e-05,-0.1205974
12917855,2.12,-0.16,0.01,-0.001412031,-7.696985e-05,-0.1222837
12937841,2.12,-0.16,0.01,-0.001347686,-0.0001035857,-0.1233472
12957830,2.12,-0.15,0.01,-0.001450647,4.997453e-05,-0.1243272
12977844,2.12,-0.15,0.01,-0.001346271,0.0001177376,-0.1250604
12997893,2.12,-0.15,0.01,-0.001278261,5.9795e-05,-0.1265005
13017886,2.12,-0.15,0.01,-0.001379448,0.0002927362,-0.1276787
13037842,2.13,-0.15,0.01,-0.001610941,0.0004584955,-0.127717
13057829,2.13,-0.15,0.01,-0.001559421,0.0004717505,-0.1283509
13077899,2.13,-0.15,0.01,-0.001402464,0.0007171427,-0.1290546
13097839,2.13,-0.15,0.01,-0.001278114,0.0005940511,-0.1298043
13117851,2.13,-0.15,0.01,-0.001079361,0.0004977458,-0.1301087
13137841,2.13,-0.16,0.01,-0.0008414704,0.0008095608,-0.1305247
13157902,2.13,-0.15,0.01,-0.0009294139,0.00104404,-0.1312699
13177832,2.13,-0.16,0.01,-0.0010171,0.00119495,-0.1317471
13197847,2.13,-0.16,0.01,-0.001206068,0.001314849,-0.1324451
13217850,2.13,-0.16,0.01,-0.001159588,0.001403252,-0.1336053
13237836,2.13,-0.15,0.01,-0.00119118,0.001628852,-0.1345329
13257918,2.13,-0.15,0.01,-0.001375501,0.001797091,-0.1352238
13277847,2.14,-0.16,0.01,-0.001352454,0.001984686,-0.1359785
13297840,2.13,-0.15,0.01,-0.00138548,0.001927505,-0.1367982
13317839,2.13,-0.16,0.01,-0.001209623,0.002130459,-0.1378102
13337892,2.14,-0.15,0.01,-0.001369759,0.002191783,-0.138575
13357829,2.14,-0.15,0.01,-0.001194119,0.002448517,-0.1390469
13377851,2.14,-0.15,0.01,-0.001196613,0.002461855,-0.1400317
13397828,2.14,-0.15,0.01,-0.000954767,0.0026775,-0.1407219
13417920,2.14,-0.15,0.01,-0.001001078,0.002849296,-0.1415197
13437836,2.14,-0.15,0.01,-0.0007571869,0.00312379,-0.1419611
13457836,2.14,-0.15,0.01,-0.0006115758,0.003249861,-0.1420717
13477850,2.14,-0.15,0.01,-0.0003170647,0.003343422,-0.1420969
13497891,2.15,-0.15,0.01,-8.481561e-05,0.003416507,-0.1423889
13517832,2.15,-0.15,0.01,-6.204322e-05,0.003599489,-0.1430513
13537830,2.15,-0.15,0.01,0.0003684479,0.003661384,-0.142615
13557832,2.15,-0.16,0.01,0.0003605231,0.003794586,-0.1432436
13577894,2.15,-0.16,0.01,0.000510076,0.003936054,-0.1433028
13597829,2.15,-0.16,0.01,0.0007156602,0.004134972,-0.1433696
13617855,2.15,-0.16,0.01,0.0004078858,0.004284639,-0.1438566
13637823,2.15,-0.16,0.01,0.0006015354,0.004350061,-0.1439609
13657896,2.15,-0.16,0.01,0.0006467061,0.004477782,-0.1444524
13677875,2.15,-0.16,0.01,0.000806819,0.00457587,-0.1449039
13697814,2.15,-0.16,0.01,0.000995358,0.004733732,-0.1452009
13717850,2.15,-0.16,0.01,0.001045916,0.004769688,-0.1461188
13737836,2.15,-0.16,0.01,0.001148627,0.004920906,-0.1462592
13757876,2.15,-0.16,0.02,0.00111607,0.004948365,-0.1467181
13777847,2.16,-0.16,0.01,0.001454022,0.005097792,-0.1471669
13797840,2.16,-0.15,0.01,0.001829036,0.005293384,-0.147572
13817832,2.16,-0.15,0.02,0.001703269,0.005462095,-0.1479413
13837838,2.16,-0.16,0.02,0.001943824,0.005559163,-0.1480746
13857834,2.16,-0.16,0.02,0.001956322,0.005571987,-0.1488137
13877847,2.16,-0.16,0.01,0.001959532,0.005860892,-0.1492998
13897832,2.16,-0.16,0.02,0.001976477,0.005714442,-0.1495839
13917914,2.16,-0.16,0.02,0.002061238,0.006025126,-0.1507316
13937814,2.16,-0.16,0.02,0.002010284,0.006324674,-0.1512269
13957840,2.16,-0.16,0.01,0.002167615,0.006438013,-0.1515837
13977849,2.16,-0.16,0.01,0.00249195,0.006446971,-0.1524809
13997851,2.16,-0.16,0.01,0.002638576,0.006714992,-0.1528872
14017915,2.16,-0.15,0.01,0.002775559,0.006866833,-0.1533459
14037814,2.16,-0.15,0.02,0.003337411,0.00715984,-0.1528872
14057831,2.16,-0.15,0.01,0.003679105,0.007274554,-0.1528907
14077917,2.16,-0.15,0.02,0.00378417,0.007642019,-0.152889
14097814,2.16,-0.15,0.02,0.003914328,0.007808982,-0.1526679
14117848,2.16,-0.15,0.02,0.00399921,0.008066287,-0.152818
14137838,2.17,-0.15,0.02,0.004087932,0.008150361,-0.1525019
14157874,2.17,-0.15,0.02,0.004252492,0.008377189,-0.1524052
14177873,2.17,-0.15,0.02,0.004386926,0.008571559,-0.1524474
14197831,2.17,-0.15,0.02,0.004396814,0.008832401,-0.1523526
14217847,2.17,-0.15,0.02,0.004612223,0.009030814,-0.1528528
14237825,2.17,-0.14,0.02,0.0046371,0.009193942,-0.1528884
14257908,2.17,-0.15,0.02,0.004878332,0.009522969,-0.1526749
14277848,2.17,-0.15,0.02,0.005198257,0.009848752,-0.1526039
14297835,2.17,-0.14,0.02,0.004911928,0.009997267,-0.1527023
14317874,2.18,-0.14,0.02,0.004714563,0.01014669,-0.152347
14337839,2.17,-0.14,0.02,0.004730032,0.01040757,-0.1523613
14357832,2.17,-0.15,0.02,0.004946987,0.0106469,-0.1525059
14377851,2.17,-0.15,0.02,0.005021374,0.01077926,-0.1528876
14397829,2.17,-0.15,0.02,0.005095442,0.01108681,-0.1534061
14417933,2.17,-0.15,0.02,0.005526004,0.01105727,-0.1533642
14437831,2.17,-0.15,0.02,0.005583024,0.01146943,-0.1533798
14457834,2.17,-0.15,0.02,0.00576155,0.01169208,-0.153009
14477872,2.18,-0.15,0.02,0.005653152,0.01192096,-0.1529432
14497905,2.17,-0.16,0.02,0.005714566,0.01201642,-0.1530633
14517884,2.17,-0.16,0.02,0.00583411,0.01233905,-0.1530934
14537814,2.17,-0.16,0.02,0.005990076,0.01241888,-0.1524428
14557832,2.17,-0.16,0.02,0.006408278,0.0125324,-0.151861
14577897,2.18,-0.16,0.02,0.006494309,0.01275005,-0.1511153
14597846,2.17,-0.16,0.02,0.00688251,0.01281111,-0.1510926
14617850,2.18,-0.16,0.02,0.00687306,0.01283548,-0.1506624
14637821,2.18,-0.16,0.02,0.007154949,0.01295737,-0.1505147
14657893,2.17,-0.15,0.02,0.007440234,0.01305321,-0.1506791
14677935,2.17,-0.15,0.02,0.007837189,0.01310282,-0.1503215
14697830,2.18,-0.15,0.02,0.008106334,0.01331843,-0.1503129
14717854,2.18,-0.15,0.02,0.008369257,0.01360814,-0.1511399
14737816,2.18,-0.15,0.02,0.008515739,0.01386305,-0.150989
14757874,2.18,-0.15,0.02,0.008677933,0.01385777,-0.1505997
14777925,2.18,-0.15,0.02,0.008976167,0.0139101,-0.1500408
14797853,2.18,-0.15,0.02,0.008903268,0.01387483,-0.1502174
14817876,2.18,-0.15,0.02,0.009180382,0.01398763,-0.1503259
14837815,2.18,-0.15,0.02,0.009460049,0.01418308,-0.1500311
14857908,2.18,-0.15,0.02,0.009622608,0.01425019,-0.1495778
14877861,2.18,-0.15,0.02,0.009765331,0.01424332,-0.1497068
14897856,2.18,-0.15,0.02,0.00963778,0.01442902,-0.1492214
14917906,2.18,-0.15,0.02,0.01010392,0.01457574,-0.1492916
14937820,2.17,-0.15,0.02,0.01026336,0.01483897,-0.1487775
14957829,2.18,-0.15,0.02,0.01000461,0.01496859,-0.148252
14977849,2.17,-0.15,0.02,0.01034847,0.01492476,-0.1480797
14997891,2.18,-0.15,0.02,0.0103235,0.01501107,-0.148196
15017927,2.18,-0.15,0.02,0.01044549,0.01505136,-0.1482875
15037814,2.18,-0.15,0.02,0.01050362,0.01516476,-0.1474309
15057835,2.18,-0.14,0.02,0.01076326,0.01561686,-0.1466567
15077862,2.18,-0.14,0.02,0.01098533,0.01558842,-0.1460765
15097896,2.18,-0.14,0.02,0.01118125,0.01580672,-0.1459627
15117854,2.18,-0.14,0.02,0.01152067,0.0159225,-0.14609
15137814,2.17,-0.14,0.02,0.01188646,0.01611994,-0.1458201
15157899,2.17,-0.14,0.02,0.01194901,0.01612972,-0.1455843
15177847,2.18,-0.15,0.02,0.01226229,0.01608321,-0.1455565
15197837,2.18,-0.15,0.02,0.01251196,0.01631602,-0.1460759
15217853,2.18,-0.15,0.02,0.01266601,0.01638198,-0.1463121
15237895,2.19,-0.15,0.02,0.01256237,0.01654766,-0.1459855
15257902,2.18,-0.15,0.02,0.01282417,0.01670075,-0.1462349
15277853,2.18,-0.15,0.02,0.01293381,0.01667165,-0.1457416
15297836,2.19,-0.15,0.02,0.0131677,0.01684872,-0.1457089
15317883,2.19,-0.15,0.03,0.01327497,0.0171022,-0.1452019
15337814,2.19,-0.15,0.03,0.01340507,0.01722696,-0.1448812
15357829,2.19,-0.15,0.03,0.01367934,0.01735381,-0.1445555
15377855,2.19,-0.15,0.03,0.01406431,0.01747046,-0.1442161
15397841,2.19,-0.15,0.03,0.01414659,0.01729538,-0.1440703
15417912,2.19,-0.15,0.03,0.01423564,0.01720621,-0.1441707
15437820,2.19,-0.15,0.03,0.01396351,0.01744338,-0.144387
15457835,2.19,-0.15,0.03,0.01422054,0.01750097,-0.1447849
15477847,2.19,-0.15,0.03,0.01398476,0.01770493,-0.1453885
15497843,2.19,-0.15,0.03,0.01391355,0.01774227,-0.1454263
15517913,2.19,-0.15,0.03,0.01398541,0.01789255,-0.1455125
15537814,2.19,-0.14,0.03,0.01396799,0.01802851,-0.145638
15557831,2.19,-0.14,0.03,0.01367635,0.01821641,-0.1455028
15577847,2.19,-0.14,0.03,0.01393972,0.0184985,-0.1454351
15597899,2.19,-0.14,0.03,0.01411468,0.01837279,-0.1459702
15617882,2.19,-0.14,0.03,0.01397044,0.01825466,-0.146178
15637817,2.19,-0.14,0.03,0.01406303,0.01844275,-0.1463038
15657831,2.19,-0.14,0.03,0.01398515,0.01828478,-0.1465935
15677898,2.19,-0.14,0.03,0.01401031,0.01814271,-0.1468988
15697830,2.19,-0.14,0.03,0.01414806,0.01814174,-0.1479248
15717833,2.19,-0.14,0.03,0.01411434,0.01810992,-0.1481078
15737887,2.19,-0.14,0.03,0.01387843,0.0182323,-0.1479346
15757830,2.19,-0.14,0.03,0.01368848,0.0180805,-0.1479023
15777847,2.19,-0.14,0.03,0.01368188,0.01797057,-0.1481995
15797817,2.19,-0.14,0.03,0.01398272,0.01777772,-0.1486499
15817903,2.19,-0.14,0.03,0.01416435,0.01777427,-0.1489872
15837832,2.19,-0.14,0.03,0.01423503,0.01788307,-0.1494507
15857817,2.2,-0.14,0.03,0.01463838,0.01787732,-0.1497103
15877856,2.2,-0.14,0.03,0.01474989,0.01809407,-0.1501687
15897835,2.2,-0.14,0.03,0.01481627,0.01815889,-0.1504728
15917910,2.2,-0.14,0.03,0.01500219,0.01818503,-0.1510065
15937832,2.2,-0.14,0.03,0.01498241,0.01846674,-0.1510839
15957834,2.2,-0.15,0.03,0.01531438,0.0185191,-0.1511375
15977834,2.2,-0.15,0.03,0.01581059,0.01866786,-0.1513902
15997888,2.2,-0.14,0.03,0.01612931,0.01871177,-0.1515728
16017921,2.2,-0.15,0.03,0.01631425,0.01897781,-0.1517839
16037827,2.21,-0.15,0.03,0.01623865,0.01893721,-0.1517974
16057841,2.21,-0.15,0.03,0.01635659,0.01929357,-0.152159
16077853,2.21,-0.15,0.03,0.01636461,0.01940144,-0.1524614
16097832,2.21,-0.14,0.03,0.01631543,0.01962276,-0.1527872
16117849,2.21,-0.15,0.03,0.01638526,0.0197549,-0.152804
16137831,2.21,-0.14,0.03,0.0163604,0.01978329,-0.1526749
16157830,2.21,-0.14,0.03,0.01646734,0.01963225,-0.1523091
16177872,2.21,-0.14,0.03,0.01671544,0.01942058,-0.1526753
16197829,2.21,-0.14,0.03,0.0171057,0.01951894,-0.1528288
16217833,2.21,-0.14,0.03,0.01761297,0.01955583,-0.1531342
16237889,2.21,-0.14,0.03,0.01754432,0.01948758,-0.153102
16257902,2.21,-0.14,0.03,0.01784318,0.01939748,-0.1528818
16277850,2.21,-0.14,0.03,0.01800174,0.01963141,-0.1528499
16297821,2.21,-0.14,0.03,0.01818487,0.01977866,-0.1529259
16317858,2.21,-0.13,0.03,0.01828431,0.01974446,-0.1528987
16337896,2.22,-0.13,0.03,0.01832957,0.0200859,-0.1526847
16357830,2.22,-0.13,0.02,0.01820833,0.02031612,-0.1527854
16377850,2.22,-0.14,0.03,0.01837733,0.02018868,-0.152689
16397814,2.22,-0.14,0.02,0.01867083,0.02010851,-0.1526713
16417916,2.22,-0.14,0.02,0.01871684,0.0201701,-0.1530726
16437832,2.22,-0.14,0.03,0.01878648,0.02027438,-0.1526551
16457829,2.22,-0.14,0.03,0.01862556,0.02022114,-0.1521253
16477874,2.22,-0.13,0.02,0.01860978,0.02022471,-0.1519128
16497887,2.22,-0.13,0.03,0.01842419,0.02044975,-0.1520952
16517912,2.22,-0.13,0.02,0.01846922,0.02054108,-0.1517874
16537829,2.22,-0.13,0.03,0.01900857,0.02060194,-0.1518961
16557832,2.22,-0.13,0.03,0.01894292,0.02059428,-0.1520427
16577885,2.22,-0.13,0.03,0.0189916,0.02055611,-0.1523006
16597814,2.22,-0.13,0.03,0.01914877,0.02060349,-0.1521762
16617854,2.23,-0.13,0.03,0.01920582,0.02051303,-0.152305
16637864,2.23,-0.13,0.03,0.01949927,0.0205732,-0.1520288
16657916,2.23,-0.13,0.03,0.01943927,0.02073456,-0.1522307
16677853,2.22,-0.13,0.03,0.01966543,0.02083232,-0.152621
16697825,2.23,-0.13,0.03,0.01968849,0.02096775,-0.1526985
16717857,2.23,-0.13,0.03,0.01966188,0.02119533,-0.153164
16737896,2.23,-0.13,0.03,0.01980953,0.02116335,-0.1536107
16757830,2.23,-0.13,0.03,0.01974261,0.02131432,-0.154101
16777849,2.24,-0.13,0.03,0.01977128,0.02139811,-0.1542994
16797817,2.23,-0.13,0.03,0.01998421,0.021698,-0.154383
16817881,2.23,-0.13,0.03,0.01991819,0.02175435,-0.1549091
16837829,2.23,-0.13,0.03,0.01997836,0.02165698,-0.1546243
16857847,2.23,-0.13,0.03,0.0197535,0.02181861,-0.154623
16877886,2.24,-0.13,0.03,0.01990053,0.0219274,-0.154484
16897819,2.24,-0.13,0.03,0.01998222,0.02194762,-0.1546172
16917858,2.24,-0.13,0.03,0.0204078,0.02196617,-0.154863
16937829,2.24,-0.13,0.03,0.02028401,0.02194075,-0.1544304
16957885,2.24,-0.12,0.03,0.01994037,0.0220838,-0.1542512
16977909,2.24,-0.12,0.03,0.02006236,0.0222231,-0.154359
16997814,2.24,-0.13,0.03,0.02056806,0.02237873,-0.1544107
17017856,2.24,-0.13,0.03,0.02034721,0.02255473,-0.1548784
17037844,2.24,-0.13,0.03,0.02022967,0.02251486,-0.1553203
17057902,2.25,-0.13,0.03,0.02030496,0.02276259,-0.1553101
17077850,2.25,-0.14,0.03,0.02053668,0.02306673,-0.1557688
17097815,2.25,-0.13,0.03,0.02047023,0.0231093,-0.1557538
17117877,2.25,-0.13,0.03,0.02020759,0.02351205,-0.1564501
17137902,2.25,-0.13,0.02,0.02025237,0.02366391,-0.1560387
17157829,2.25,-0.13,0.02,0.02031004,0.02360758,-0.1558743
17177855,2.25,-0.13,0.03,0.02026422,0.02363745,-0.1558882
17197843,2.25,-0.12,0.02,0.02034026,0.02381199,-0.1562122
17217929,2.25,-0.12,0.02,0.02030512,0.02385447,-0.1565752
17237830,2.25,-0.12,0.02,0.02002881,0.02406959,-0.1564467
17257830,2.25,-0.12,0.02,0.01999,0.02421436,-0.1566143
17277851,2.25,-0.12,0.02,0.01999091,0.02442335,-0.1567406
17297828,2.25,-0.12,0.02,0.02028272,0.02446051,-0.157448
17317925,2.26,-0.12,0.02,0.02047067,0.02453783,-0.1578728
17337836,2.26,-0.12,0.02,0.02065242,0.02458062,-0.1587341
17357836,2.26,-0.12,0.02,0.02086251,0.02471543,-0.1592206
17377876,2.26,-0.12,0.02,0.02060352,0.02503915,-0.1592676
17397897,2.26,-0.12,0.02,0.02041533,0.02516064,-0.1598214
17417849,2.26,-0.12,0.02,0.02035234,0.02519243,-0.1604543
17437831,2.26,-0.12,0.03,0.01992241,0.0252711,-0.1604707
17457896,2.26,-0.12,0.02,0.01952162,0.02541058,-0.1605393
17477832,2.26,-0.12,0.03,0.01915864,0.02558593,-0.1604497
17497838,2.26,-0.12,0.02,0.01912609,0.02576029,-0.1609558
17517852,2.27,-0.12,0.02,0.01914831,0.02596297,-0.1607308
17537829,2.26,-0.12,0.02,0.0191432,0.02605968,-0.1606557
17557842,2.26,-0.12,0.02,0.01911972,0.02629112,-0.1606398
17577903,2.26,-0.12,0.02,0.01911612,0.02654565,-0.1609228
17597858,2.26,-0.12,0.02,0.01907741,0.02680218,-0.1613705
17617835,2.26,-0.12,0.02,0.01886534,0.02702773,-0.1614058
17637843,2.26,-0.11,0.03,0.0188169,0.02721879,-0.160997
17657878,2.26,-0.11,0.03,0.0188615,0.02747575,-0.1607744
17677834,2.26,-0.11,0.03,0.01901246,0.02758497,-0.1605782
17697836,2.26,-0.11,0.02,0.0188827,0.02794882,-0.1605721
17717853,2.26,-0.11,0.02,0.01892974,0.02831862,-0.1601554
17737894,2.27,-0.11,0.02,0.01876166,0.02848906,-0.1593542
17757814,2.27,-0.11,0.02,0.01848157,0.02872973,-0.1585128
17777848,2.26,-0.11,0.02,0.01824184,0.02896677,-0.1579818
17797838,2.26,-0.11,0.02,0.01816005,0.02915631,-0.1575251
17817870,2.26,-0.11,0.02,0.01827168,0.02942286,-0.1571498
17837854,2.26,-0.1,0.02,0.01793618,0.02950799,-0.1567037
17857816,2.27,-0.1,0.02,0.01796063,0.02956825,-0.1567062
17877856,2.26,-0.1,0.02,0.01769109,0.02991733,-0.1568408
17897830,2.26,-0.09,0.02,0.01779492,0.02998783,-0.1561016
17917902,2.26,-0.1,0.02,0.01744595,0.03022454,-0.1561218
17937830,2.26,-0.1,0.02,0.0174047,0.03037888,-0.1560417
17957814,2.27,-0.1,0.02,0.01741172,0.03033899,-0.1560394
17977894,2.26,-0.09,0.03,0.01717284,0.03090519,-0.1557042
17997892,2.26,-0.09,0.03,0.01732665,0.0310172,-0.1556484
18017863,2.26,-0.09,0.03,0.01716204,0.03138361,-0.1559923
18037833,2.26,-0.09,0.03,0.0169351,0.03151037,-0.1551713
18057816,2.26,-0.09,0.03,0.01629677,0.03202071,-0.1550413
18077916,2.26,-0.09,0.03,0.0161065,0.0321817,-0.1546396
18097829,2.26,-0.1,0.03,0.01582246,0.03251558,-0.1541813
18117857,2.26,-0.09,0.02,0.01550259,0.03298327,-0.1537785
18137830,2.26,-0.09,0.02,0.01559278,0.03324667,-0.1534342
18157875,2.26,-0.09,0.02,0.01560903,0.03348202,-0.1531059
18177907,2.26,-0.09,0.03,0.01554728,0.03373557,-0.152967
18197829,2.26,-0.09,0.02,0.01501525,0.03393677,-0.1529647
18217856,2.26,-0.09,0.02,0.01481824,0.03435328,-0.1526494
18237900,2.26,-0.09,0.02,0.01470666,0.03447273,-0.1524237
18257815,2.26,-0.09,0.02,0.01463942,0.03478038,-0.1521583
18277848,2.26,-0.09,0.02,0.01435,0.03490839,-0.1518428
18297829,2.26,-0.09,0.02,0.01384849,0.03530863,-0.1519438
18317897,2.27,-0.08,0.02,0.01331075,0.03564828,-0.1520059
18337846,2.27,-0.08,0.02,0.0131728,0.03577266,-0.1522477
18357814,2.27,-0.08,0.02,0.01284037,0.03572858,-0.1520309
18377851,2.27,-0.08,0.02,0.01258369,0.03574656,-0.1516953
18397900,2.27,-0.08,0.02,0.01246942,0.03599831,-0.1518492
18417853,2.27,-0.08,0.02,0.01195085,0.03619739,-0.1520878
18437833,2.27,-0.08,0.02,0.01161356,0.03631606,-0.1517799
18457826,2.27,-0.08,0.02,0.01134051,0.0367284,-0.151658
18477906,2.27,-0.08,0.02,0.01099777,0.03697365,-0.1516568
18497832,2.27,-0.08,0.02,0.01036473,0.03737472,-0.1517329
18517849,2.27,-0.08,0.02,0.009697124,0.03778512,-0.1518668
18537829,2.27,-0.08,0.02,0.009757668,0.03791044,-0.1517835
18557886,2.27,-0.07,0.02,0.009477182,0.03812427,-0.1517261
18577909,2.27,-0.07,0.01,0.009119129,0.03844112,-0.1513459
18597829,2.28,-0.07,0.01,0.009112011,0.03851497,-0.1520536
18617850,2.28,-0.07,0.01,0.008886469,0.03889422,-0.1522325
18637883,2.27,-0.07,0.01,0.008548507,0.03904196,-0.1523921
18657814,2.27,-0.06,0.01,0.008281169,0.0391681,-0.1523705
18677857,2.27,-0.06,0.01,0.008046084,0.03931282,-0.1519494
18697830,2.27,-0.06,0.01,0.007474047,0.03950757,-0.1524344
18717916,2.27,-0.06,0.01,0.007317352,0.03972957,-0.1526101
18737838,2.27,-0.06,0.01,0.00715297,0.03993681,-0.1523376
18757816,2.27,-0.06,0.01,0.006990935,0.04020968,-0.1522245
18777852,2.27,-0.06,0.01,0.006956755,0.04040051,-0.1521185
18797922,2.27,-0.06,0.01,0.006794015,0.04060142,-0.1523186
18817915,2.27,-0.06,0.02,0.006548109,0.04092533,-0.1524791
18837830,2.27,-0.06,0.01,0.006369763,0.04116451,-0.1525584
18857816,2.27,-0.06,0.01,0.005931252,0.04130456,-0.1521954
18877862,2.27,-0.06,0.01,0.005431059,0.04160409,-0.1520711
18897854,2.27,-0.06,0.01,0.005003389,0.04172623,-0.1517882
18917915,2.27,-0.06,0.01,0.004822538,0.0421201,-0.1517955
18937829,2.27,-0.06,0.01,0.004126526,0.04258829,-0.1519927
18957816,2.27,-0.05,0.01,0.004100113,0.04291507,-0.1520554
18977921,2.27,-0.05,0.01,0.003838646,0.04312603,-0.1521412
18997829,2.27,-0.05,0.01,0.00357494,0.04340255,-0.1521681
19017853,2.27,-0.05,0.01,0.003273834,0.04371025,-0.1521806
19037829,2.27,-0.05,0.01,0.00288696,0.04380633,-0.1517608
19057827,2.27,-0.05,0.01,0.002816748,0.04387975,-0.1512176
19077915,2.27,-0.05,0.01,0.002803754,0.04433751,-0.1510974
19097829,2.27,-0.05,0.01,0.002387074,0.04467545,-0.1510684
19117859,2.27,-0.06,0.01,0.002208932,0.04497997,-0.1509098
19137829,2.27,-0.06,0.01,0.001836312,0.04511151,-0.1501232
19157836,2.27,-0.05,0.01,0.001373016,0.04533497,-0.1498239
19177922,2.27,-0.05,0.01,0.0009786234,0.04565681,-0.1492227
19197832,2.28,-0.05,0.01,0.0006670792,0.04594883,-0.1491764
19217853,2.28,-0.05,0.01,0.00037947,0.04645982,-0.1486687
19237830,2.28,-0.05,0.01,3.663523e-05,0.04673746,-0.1482895
19257877,2.27,-0.05,0.01,-0.0002676621,0.04727403,-0.1481806
19277848,2.28,-0.05,0.01,-0.000717726,0.04768269,-0.1482792
19297830,2.28,-0.05,0.01,-0.0008344859,0.04793731,-0.1480255
19317851,2.28,-0.05,0.01,-0.001343548,0.04839145,-0.1481897
19337828,2.28,-0.05,0.01,-0.001549826,0.04861243,-0.1480244
19357873,2.28,-0.04,0.01,-0.00201139,0.04893298,-0.1481511
19377926,2.28,-0.04,0.01,-0.002474001,0.04928262,-0.1482083
19397829,2.28,-0.04,0.01,-0.002466456,0.04967628,-0.1481804
19417832,2.28,-0.04,0.01,-0.002825451,0.05013141,-0.1481581
19437895,2.28,-0.04,0.01,-0.003045606,0.05053368,-0.1480586
19457856,2.27,-0.04,0.01,-0.003346073,0.0509753,-0.1478434
19477832,2.28,-0.04,0.01,-0.003708338,0.05132242,-0.147391
19497861,2.28,-0.04,0.01,-0.004237693,0.05175672,-0.1472998
19517923,2.28,-0.04,0.01,-0.004643191,0.05229504,-0.1474166
19537814,2.28,-0.04,0.01,-0.004935188,0.0524185,-0.1470551
19557838,2.28,-0.04,0.01,-0.00533638,0.05256893,-0.1465922
19577848,2.28,-0.04,0.01,-0.005666007,0.05279303,-0.1469325
19597835,2.28,-0.03,0.02,-0.006397616,0.05302129,-0.1467817
19617915,2.28,-0.03,0.01,-0.007009844,0.05338762,-0.1467074
19637834,2.28,-0.03,0.01,-0.00764941,0.05364181,-0.1469254
19657834,2.28,-0.03,0.02,-0.00814513,0.05410697,-0.1469257
19677834,2.28,-0.03,0.02,-0.008456749,0.05445799,-0.1467754
19697865,2.28,-0.03,0.01,-0.00912895,0.05473683,-0.1467478
19717878,2.28,-0.03,0.01,-0.009384423,0.05502174,-0.1468195
19737817,2.28,-0.03,0.01,-0.009726529,0.05519612,-0.1468755
19757835,2.28,-0.03,0.02,-0.01004572,0.05544318,-0.1470407
19777941,2.28,-0.03,0.01,-0.01041072,0.05571531,-0.1468861
19797839,2.28,-0.03,0.01,-0.01111682,0.05603064,-0.1466935
19817833,2.28,-0.03,0.01,-0.01170187,0.05633346,-0.1465322
19837835,2.28,-0.03,0.01,-0.01193623,0.05666579,-0.1463121
19857903,2.28,-0.02,0.01,-0.01271956,0.05705442,-0.1462114
19877855,2.28,-0.02,0.01,-0.01299907,0.05738361,-0.1459263
19897832,2.28,-0.02,0.01,-0.01291672,0.05774369,-0.146062
19917835,2.28,-0.02,0.01,-0.01329115,0.05810165,-0.1460517
19937914,2.28,-0.02,0.01,-0.01367015,0.05833884,-0.1460878
19957832,2.28,-0.02,0.01,-0.01365306,0.05858548,-0.1461117
19977851,2.28,-0.02,0.01,-0.01411774,0.05894483,-0.1459768
19997912,2.28,-0.02,0.01,-0.01441271,0.05916778,-0.145986
20017833,2.28,-0.02,0.01,-0.01470965,0.05941215,-0.1462933
20037830,2.29,-0.02,0.01,-0.01507363,0.05977038,-0.1459384
20057829,2.28,-0.01,0.01,-0.01512024,0.06026084,-0.1458705
20077874,2.28,-0.01,0.01,-0.01556965,0.06036117,-0.1458774
20097901,2.28,-0.02,0.01,-0.01588855,0.06074849,-0.1460298
20117834,2.29,-0.02,0.01,-0.01610871,0.0614115,-0.1456772
20137829,2.28,-0.02,0.01,-0.01633437,0.06145555,-0.1451163
20157829,2.28,-0.02,0.01,-0.01643263,0.06171942,-0.1450828
20177918,2.28,-0.02,0.01,-0.01687847,0.06212296,-0.1447405
20197831,2.28,-0.02,0.01,-0.01739998,0.06265348,-0.1444996
20217844,2.28,-0.02,0.01,-0.01784254,0.06298303,-0.1443275
20237889,2.29,-0.02,0.01,-0.01775992,0.0630217,-0.1441562
20257916,2.3,-0.02,0.0,-0.01736192,0.06502043,-0.1424008
20277852,2.29,0.0,0.05,-0.01171417,0.06421225,-0.14477
20297818,2.41,0.0,0.25,0.005633975,0.06431883,-0.1418336
20317850,2.37,0.0,0.49,0.02706728,0.07262442,-0.1415984
20337888,2.38,0.02,0.67,0.03585452,0.06933552,-0.1359565
20357858,2.47,-0.05,0.69,0.05179093,0.09418369,-0.1611159
20377848,2.33,0.04,0.65,0.05904292,0.07826339,-0.1211916
20397815,2.45,-0.02,0.63,0.1056952,0.06358931,-0.1658728
20417921,2.1,-0.26,0.76,0.1105241,0.07927329,-0.09858161
20437871,2.29,-0.16,0.98,0.2024248,0.07209684,-0.1493306
20457815,2.21,-0.16,0.94,0.2338028,0.09686229,-0.1417668
20477853,2.25,-0.18,0.75,0.2849114,0.09399496,-0.1407535
20497875,2.28,-0.13,0.59,0.3381058,0.08778897,-0.1486808
20517863,2.2,-0.19,0.51,0.4017558,0.0787698,-0.1455947
20537815,2.28,-0.2,0.54,0.4790375,0.06721739,-0.1757932
20557856,2.2,-0.21,0.58,0.5415246,0.07482613,-0.1748324
20577941,2.23,-0.27,0.65,0.6063811,0.06395157,-0.160804
20597827,2.26,-0.15,0.79,0.6803438,0.05485163,-0.1604637
20617850,2.26,-0.28,0.97,0.7583233,0.04373671,-0.1481993
20637881,2.2,-0.27,1.21,0.8139105,0.06203966,-0.1265075
20657829,2.29,-0.47,1.5,0.88577,0.04229149,-0.2271422
20677834,2.21,-0.29,1.89,0.9520845,0.08264021,-0.1145886
20697828,2.21,-0.46,2.08,1.01062,0.07570284,-0.1877877
20717922,2.06,-0.29,2.11,1.072406,0.09891957,-0.1785117
20737834,2.11,-0.34,1.94,1.135001,0.08947708,-0.1495267
20757829,1.93,-0.42,1.76,1.186055,0.1195261,-0.2568996
20777840,2.26,-0.35,1.65,1.287136,0.09687639,-0.167697
20797884,1.96,-0.38,1.51,1.320228,0.09004169,-0.1460587
20817854,2.01,-0.41,1.42,1.39698,0.09796418,-0.1905017
20837832,2.05,-0.34,1.35,1.447929,0.08808389,-0.1392505
20857838,2.01,-0.57,1.22,1.521124,0.0762164,-0.1846568
20877841,1.98,-0.46,1.14,1.595789,0.09480324,-0.1702395
20897847,1.99,-0.61,1.04,1.628123,0.08158063,-0.1516982
20917924,2.11,-0.58,1.03,1.690827,0.08052633,-0.1977576
20937836,2.12,-0.53,1.21,1.708152,0.08717213,-0.1756639
20957833,2.07,-0.82,1.55,1.734506,0.06325684,-0.2053821
20977848,2.02,-0.53,2.1,1.782188,0.06345683,-0.1789753
20997897,2.36,-0.6,2.4,1.876344,0.09787603,-0.2055112
21017860,1.92,-0.35,2.5,1.900896,0.08730722,-0.147846
21037831,2.27,-0.47,2.55,2.001671,0.1058977,-0.2278503
21057863,2.14,-0.21,2.55,1.994403,0.0916473,-0.1377461
21077891,2.07,-0.33,2.42,2.079664,0.1336999,-0.1694027
21097830,2.0,-0.2,2.32,2.056692,0.09757503,-0.1794246
21117847,2.0,0.18,2.22,2.104658,0.1424946,-0.179064
21137861,2.24,-0.06,2.15,2.121969,0.09917571,-0.2063058
21157829,2.0,-0.12,2.2,2.173819,0.1290584,-0.2310254
21177833,1.78,-0.18,2.13,2.189314,0.1024331,-0.2092912
21197865,2.04,-0.28,1.83,2.276695,0.1263497,-0.2019687
21217902,1.91,-0.24,1.52,2.308256,0.1226402,-0.3077613
21237836,1.92,-0.6,1.24,2.285474,0.1086549,-0.2601336
21257835,1.9,-0.32,1.07,2.325139,0.130673,-0.2356125
21277908,1.93,-0.62,0.74,2.340891,0.1361976,-0.2496463
21297833,1.75,-0.15,0.33,2.391563,0.08236317,-0.2554171
21317850,1.87,-0.19,359.84,2.409404,0.05479155,-0.2377907
21337831,2.1,0.05,359.55,2.46016,0.07626899,-0.2562289
21357836,2.23,-0.04,359.19,2.473625,0.06389804,-0.2228526
21377895,1.83,-0.09,358.96,2.479802,0.06066341,-0.3212597
21397829,1.96,0.36,358.72,2.513932,-0.001768398,-0.2923234
21417848,1.72,0.18,358.61,2.573206,-0.00404745,-0.2285261
21437835,1.85,0.03,358.58,2.606059,-0.04398308,-0.2149495
21457901,2.02,-0.44,358.39,2.575598,-0.01349293,-0.3087159
21477927,1.71,-0.57,358.21,2.570936,-0.0326799,-0.2276629
21497838,1.97,-0.31,357.82,2.637634,0.01377287,-0.3416647
21517852,1.99,-0.65,357.44,2.629215,-0.05194349,-0.3089855
21537871,2.12,-0.3,357.14,2.628464,-0.03695236,-0.2850592
21557833,2.15,-0.09,356.73,2.670634,-0.05461114,-0.2395484
21577832,1.9,0.05,356.47,2.688737,-0.05664342,-0.2419237
21597829,1.92,0.18,356.33,2.714788,-0.1007264,-0.2226511
21617850,2.12,-0.23,356.2,2.711509,-0.1474993,-0.3169133
21637902,1.72,-0.24,356.04,2.747713,-0.1241766,-0.3130076
21657815,1.52,-0.18,355.86,2.746846,-0.1244557,-0.2655567
21677852,1.75,-0.44,355.54,2.746132,-0.1651822,-0.2944413
21697828,1.72,-0.13,355.3,2.739786,-0.1418322,-0.2137295
21717929,1.99,-0.21,355.04,2.774146,-0.1337321,-0.2829592
21737818,1.87,-0.03,354.95,2.752463,-0.1762327,-0.2658877
21757845,1.72,-0.06,354.93,2.753095,-0.1793844,-0.2803414
21777866,2.0,0.03,354.94,2.756564,-0.1678744,-0.3185377
21797821,1.91,-0.06,354.97,2.747267,-0.1753646,-0.3171018
21817847,1.76,-0.1,354.94,2.742715,-0.200261,-0.3411887
21837834,1.7,-0.06,354.99,2.733418,-0.1683561,-0.2621893
21857883,2.22,0.04,354.9,2.692075,-0.1851844,-0.3491388
21877919,1.74,0.06,354.96,2.709521,-0.1433217,-0.4207867
21897829,1.95,0.15,354.96,2.687877,-0.1537204,-0.324798
21917904,1.55,0.16,355.0,2.682901,-0.1847093,-0.278431
21937814,1.92,0.17,355.02,2.695625,-0.1512391,-0.3798343
21957829,1.77,0.25,355.1,2.663879,-0.1819587,-0.3214319
21977850,1.88,0.02,355.18,2.676102,-0.1406578,-0.3544231
21997898,1.75,-0.1,355.32,2.666948,-0.1601273,-0.2708696
22017848,1.71,-0.06,355.46,2.691025,-0.1394045,-0.3225849
22037815,1.7,-0.33,355.6,2.661883,-0.1498262,-0.3537924
22057828,1.71,-0.17,355.66,2.675254,-0.1281928,-0.3538516
22077941,2.16,-0.23,355.63,2.685031,-0.1336997,-0.3350749
22097815,1.77,0.12,355.63,2.675277,-0.1351191,-0.3561692
22117848,2.1,0.04,355.64,2.695155,-0.1494191,-0.3562717
22137835,2.11,0.17,355.61,2.699559,-0.1515414,-0.3640476
22157816,1.87,0.17,355.54,2.693114,-0.1780548,-0.3473842
22177891,1.8,0.09,355.48,2.687494,-0.1402262,-0.3669243
22197833,1.77,0.01,355.39,2.687584,-0.1690956,-0.3827783
22217847,1.84,0.21,355.26,2.689649,-0.1610515,-0.368961
22237819,2.02,0.0,355.1,2.677847,-0.1767224,-0.3804444
22257901,1.73,0.3,354.9,2.705074,-0.1511679,-0.3503809
22277851,2.15,0.31,354.54,2.676767,-0.1853392,-0.3561817
22297829,2.15,0.16,354.15,2.702723,-0.1880681,-0.4088676
22317851,1.65,0.21,353.84,2.680571,-0.1906171,-0.3147192
22337891,1.81,0.36,353.44,2.689824,-0.2245783,-0.3540016
22357833,1.84,0.6,353.1,2.678425,-0.2322399,-0.2967266
22377851,2.04,0.42,352.87,2.665047,-0.282826,-0.3994671
22397834,2.44,0.43,352.67,2.664004,-0.301344,-0.3975993
22417859,2.07,0.22,352.48,2.665961,-0.2999671,-0.3983137
22437892,1.88,0.64,352.41,2.663463,-0.3194123,-0.3262426
22457846,2.27,0.53,352.22,2.651842,-0.3347051,-0.404489
22477847,2.12,0.36,352.07,2.628723,-0.3559542,-0.3436219
22497872,2.36,0.06,351.79,2.663679,-0.3011097,-0.3231796
22517931,2.28,-0.09,351.47,2.644969,-0.3651924,-0.365209
22537817,2.21,-0.27,351.24,2.619877,-0.4044283,-0.4586923
22557856,1.93,-0.39,351.17,2.582166,-0.4024937,-0.2996711
22577909,1.91,0.21,351.04,2.587543,-0.3900956,-0.4347172
22597898,1.72,0.31,351.0,2.601849,-0.3533905,-0.3428448
22617853,2.03,0.66,350.84,2.608998,-0.3830781,-0.328147
22637819,2.12,0.75,350.61,2.594172,-0.4110883,-0.3441863
22657858,1.92,0.37,350.29,2.570832,-0.4023315,-0.4799469
22677926,2.05,0.71,349.89,2.575089,-0.4246407,-0.3593336
22697834,1.75,0.7,349.45,2.540718,-0.4802193,-0.4546438
22717850,1.61,1.07,349.12,2.554451,-0.4563524,-0.3767663
22737817,1.59,0.64,348.89,2.539169,-0.5087143,-0.4379303
22757831,1.66,0.63,348.71,2.516651,-0.4884354,-0.3968618
22777854,1.92,0.6,348.48,2.517534,-0.5342152,-0.4298891
22797836,1.6,0.39,348.31,2.529756,-0.5322667,-0.4676094
22817890,1.35,0.38,348.18,2.502522,-0.5398418,-0.4191394
22837881,1.7,0.7,347.98,2.487087,-0.5676474,-0.4582236
22857832,1.56,0.75,347.72,2.496948,-0.5874341,-0.4386859
22877857,1.57,1.03,347.52,2.484207,-0.57916,-0.4193749
22897829,1.44,0.57,347.35,2.462106,-0.6004348,-0.4179698
22917904,0.75,1.03,347.13,2.439634,-0.5884351,-0.3804606
22937873,1.91,1.0,346.72,2.427413,-0.6273643,-0.4017103
22957829,1.67,1.15,346.34,2.386641,-0.6512422,-0.4668115
22977848,1.61,1.5,345.97,2.422103,-0.624774,-0.408114
22997874,1.79,1.39,345.63,2.375794,-0.6897515,-0.4382489
23017920,1.05,1.25,345.37,2.367965,-0.6689787,-0.4654229
23037815,1.43,1.22,344.97,2.355345,-0.7087919,-0.5117298
23057830,1.33,0.65,344.61,2.328494,-0.7051158,-0.4406725
23077860,1.31,0.78,344.26,2.332746,-0.7354492,-0.4265174
23097893,1.59,0.23,343.98,2.280744,-0.761403,-0.4315322
23117850,1.32,0.78,343.7,2.279291,-0.7842297,-0.3890834
23137815,1.63,0.63,343.4,2.277524,-0.7771423,-0.4258287
23157829,1.53,0.82,343.1,2.25354,-0.8455064,-0.4183136
23177859,1.37,0.54,342.81,2.240478,-0.8056341,-0.4090469
23197903,1.53,0.38,342.5,2.219316,-0.8473666,-0.42771
23217858,1.32,0.67,342.19,2.207532,-0.8423783,-0.3723056
23237816,1.46,0.33,341.88,2.19442,-0.8486035,-0.4031775
23257871,1.2,0.58,341.65,2.1331,-0.8922959,-0.4588199
23277928,1.56,0.62,341.5,2.121672,-0.9156342,-0.4024976
23297829,1.58,0.79,341.42,2.141308,-0.9220711,-0.3592061
23317861,1.64,0.6,341.32,2.087272,-0.9435892,-0.4594061
23337842,1.43,0.87,341.14,2.086056,-0.9348397,-0.3832332
23357839,2.09,0.67,340.76,2.041787,-0.9758801,-0.4403003
23377850,1.51,1.13,340.42,2.063971,-0.9265705,-0.3678702
23397834,1.66,0.81,340.04,2.055277,-0.9725099,-0.4963922
23417884,1.51,1.45,339.69,2.02435,-0.9521982,-0.4718249
23437824,1.32,1.43,339.38,1.979303,-1.007956,-0.5132536
23457829,1.31,1.72,339.02,1.962829,-1.011572,-0.4599583
23477847,1.57,1.44,338.7,1.930723,-1.044977,-0.5067692
23497905,1.15,1.46,338.47,1.932527,-1.062455,-0.556671
23517864,0.91,0.62,338.28,1.916387,-1.111043,-0.5044196
23537815,0.33,1.3,338.17,1.865332,-1.053732,-0.4818331
23557832,0.86,0.98,337.93,1.815791,-1.108558,-0.5448287
23577872,0.5,1.15,337.81,1.805889,-1.09591,-0.444247
23597829,0.71,1.28,337.62,1.800074,-1.113864,-0.4613698
23617835,1.36,1.12,337.39,1.742928,-1.147728,-0.5232947
23637835,1.2,1.17,337.31,1.724635,-1.148949,-0.3938453
23657909,1.67,0.64,337.26,1.679759,-1.150316,-0.5234361
23677912,1.06,1.02,337.29,1.689479,-1.171682,-0.5340899
23697839,1.57,0.99,337.04,1.69482,-1.129797,-0.5095372
23717848,1.72,1.08,336.62,1.667808,-1.162854,-0.4260314
23737832,1.52,1.22,336.26,1.654219,-1.149248,-0.5146723
23757889,1.05,1.14,335.99,1.623143,-1.170632,-0.4839626
23777847,0.97,1.23,335.64,1.584756,-1.166958,-0.4522659
23797818,0.83,1.03,335.37,1.548993,-1.159032,-0.4770458
23817885,0.89,1.18,335.12,1.508356,-1.175811,-0.4980696
23837830,1.12,1.25,334.92,1.490881,-1.169536,-0.4426456
23857821,1.37,0.94,334.71,1.45887,-1.184786,-0.4967328
23877864,1.07,1.19,334.49,1.423574,-1.190941,-0.4492331
23897830,1.2,0.77,334.36,1.248082,-1.15552,-0.4760225
23917835,1.29,1.02,335.44,0.7234237,-0.9197835,-0.5352383
23937830,2.08,0.56,337.58,0.4130318,-0.8132126,-0.476691
23957881,2.66,0.55,340.17,0.109065,-0.7845361,-0.4812273
23977847,2.21,0.5,343.31,-0.194615,-0.6901928,-0.5346742
23997815,2.59,0.31,346.76,-0.4933758,-0.5816648,-0.4462469
24017866,2.72,0.22,350.59,-0.5908051,-0.4055832,-0.4540629
24037915,2.08,0.52,354.71,-0.7273383,-0.3634112,-0.3376283
24057818,1.85,1.02,359.23,-0.7726594,-0.07321261,-0.6410704
24077848,2.35,0.75,3.85,-0.9891376,-0.1935508,-0.3008492
24097850,3.02,0.34,8.58,-1.091278,-0.01836114,-0.5092814
24117926,2.98,0.3,13.36,-1.230775,-0.07774321,-0.4110335
24137829,3.38,-0.02,18.51,-1.312504,-0.0612485,-0.4048737
24157832,3.37,-0.13,23.62,-1.447987,0.2123692,-0.5629405
24177847,4.17,-0.39,28.61,-1.479221,0.01936338,-0.462675
24197837,3.89,-0.35,33.75,-1.468977,0.03716065,-0.3928601
24217911,3.46,-0.61,38.53,-1.579696,0.4170188,-0.6600786
24237829,4.41,-0.73,42.42,-1.509277,0.2659068,-0.5409128
24257818,5.03,-0.84,46.36,-1.518711,0.2857071,-0.406353
24277892,4.83,-1.22,50.07,-1.494719,0.2787102,-0.4750381
24297898,3.0,-0.91,53.65,-1.51963,0.2682054,-0.370429
24317848,4.29,-1.73,56.62,-1.697623,0.5718163,-0.6454422
24337830,3.32,-2.25,59.01,-1.640558,0.5168046,-0.4150049
24357893,2.89,-2.29,61.45,-1.691574,0.5425892,-0.3243726
24377835,3.04,-1.4,64.15,-1.718747,0.5557826,-0.4080631
24397829,3.38,-1.4,66.7,-1.8151,0.6702381,-0.3957691
24417858,3.61,-1.64,68.99,-1.843361,0.713696,-0.2224351
24437815,3.32,-1.43,71.18,-1.818746,0.7419161,-0.3136153
24457891,3.5,-1.74,73.13,-1.865721,0.8045772,-0.3459378
24477875,3.21,-1.55,75.05,-1.919847,0.84277,-0.2495334
24497817,3.68,-1.79,76.82,-2.003215,0.896818,-0.3021308
24517887,3.84,-2.07,78.34,-2.018343,0.9504951,-0.3410566
24537836,3.2,-1.83,79.8,-2.062277,0.9894598,-0.3399178
24557832,3.43,-2.02,81.45,-2.167935,1.028213,-0.339894
24577848,3.44,-2.19,83.08,-2.125575,1.009121,-0.2898649
24597815,3.28,-2.13,84.71,-2.179403,1.09564,-0.3933966
24617924,3.72,-2.5,86.31,-2.262453,1.125658,-0.362231
24637849,3.19,-2.33,87.91,-2.282623,1.146351,-0.2609699
24657834,3.22,-2.54,89.55,-2.390824,1.209087,-0.3698119
24677852,3.39,-2.66,91.0,-2.351092,1.182164,-0.2803737
24697825,3.63,-2.78,92.48,-2.44773,1.245475,-0.3083721
24717933,3.68,-2.84,93.74,-2.455338,1.279442,-0.3263467
24737836,3.46,-2.71,95.07,-2.494067,1.309377,-0.3021555
24757835,3.52,-2.73,96.59,-2.564129,1.377805,-0.3685017
24777848,3.52,-2.89,98.31,-2.597223,1.386553,-0.3201282
24797872,3.49,-2.98,100.1,-2.636219,1.418872,-0.3418092
24817847,3.46,-3.0,101.93,-2.701827,1.455039,-0.328776
24837830,3.6,-3.12,103.52,-2.732048,1.491019,-0.3692195
24857838,3.16,-3.06,104.99,-2.744546,1.502183,-0.2694589
24877918,3.33,-3.25,106.3,-2.783392,1.515173,-0.325589
24897819,3.06,-3.17,107.44,-2.795869,1.524799,-0.2941173
24917850,3.08,-3.39,108.37,-2.804549,1.544023,-0.3288465
24937830,2.88,-3.43,109.01,-2.843041,1.550196,-0.2815123
24957841,3.01,-3.43,109.43,-2.813009,1.552851,-0.296819
24977901,2.89,-3.39,109.7,-2.831731,1.579188,-0.3241098
24997817,2.88,-3.46,109.88,-2.814143,1.594521,-0.3258394
25017854,2.84,-3.44,109.98,-2.799929,1.59381,-0.3486166
25037830,3.11,-3.31,109.94,-2.808881,1.590895,-0.2776757
25057896,2.81,-3.42,109.83,-2.820708,1.610248,-0.3650961
25077848,2.9,-3.43,109.66,-2.836385,1.602901,-0.3292734
25097817,2.94,-3.32,109.56,-2.839211,1.5908,-0.3239624
25117895,3.01,-3.33,109.49,-2.83589,1.60155,-0.345298
25137828,3.03,-3.25,109.41,-2.857046,1.594918,-0.327864
25157829,3.08,-3.25,109.34,-2.858911,1.594679,-0.3462828
25177865,2.96,-3.25,109.26,-2.872239,1.598201,-0.3049009
25197873,3.07,-3.29,109.17,-2.86962,1.587247,-0.3311364
25217875,3.06,-3.3,109.12,-2.87324,1.58518,-0.3269294
25237831,3.01,-3.18,109.04,-2.890326,1.592215,-0.3503105
25257831,3.03,-3.28,108.97,-2.900625,1.581758,-0.3053699
25277899,2.99,-3.3,108.84,-2.903079,1.576191,-0.338602
25297817,2.99,-3.29,108.74,-2.893507,1.575636,-0.3305007
25317857,3.0,-3.34,108.61,-2.911913,1.576591,-0.3159842
25337835,3.07,-3.28,108.45,-2.930438,1.574299,-0.3175966
25357904,2.96,-3.32,108.38,-2.917242,1.570059,-0.3316565
25377850,3.04,-3.22,108.24,-2.938743,1.566302,-0.3097804
25397834,3.03,-3.29,108.16,-2.943197,1.559122,-0.3008074
25417848,2.99,-3.35,108.03,-2.941856,1.569768,-0.3543898
25437903,3.04,-3.26,107.96,-2.958187,1.559093,-0.2978818
25457837,3.15,-3.39,107.95,-2.925517,1.5438,-0.3692509
25477854,3.02,-3.33,107.93,-2.939256,1.551033,-0.3316953
25497841,3.04,-3.27,107.89,-2.948061,1.529658,-0.2962163
25517910,3.02,-3.31,107.88,-2.962645,1.525158,-0.2958706
25537830,3.01,-3.3,107.79,-2.999154,1.528288,-0.2973696
25557832,3.04,-3.39,107.72,-2.961558,1.528287,-0.3806993
25577888,2.97,-3.31,107.58,-3.000533,1.529238,-0.3841961
25597815,2.98,-3.37,107.48,-2.986691,1.51765,-0.3391316
25617859,2.88,-3.36,107.39,-2.967285,1.507621,-0.3643037
25637841,2.93,-3.38,107.38,-2.973909,1.496777,-0.3336632
25657836,2.92,-3.36,107.37,-2.985153,1.496057,-0.3319567
25677909,2.94,-3.36,107.38,-2.986835,1.485332,-0.3344555
25697815,2.97,-3.37,107.38,-2.989922,1.481914,-0.3288785
25717850,2.9,-3.34,107.41,-2.974096,1.472377,-0.3068569
25737836,2.92,-3.34,107.43,-2.983824,1.467144,-0.3195478
25757895,2.87,-3.32,107.42,-3.003849,1.464643,-0.3443795
25777850,2.97,-3.32,107.38,-3.016407,1.454642,-0.3096683
25797817,2.99,-3.24,107.3,-3.040469,1.460534,-0.3205386
25817853,3.02,-3.26,107.18,-3.035347,1.454095,-0.3298518
25837865,2.98,-3.24,106.98,-3.048846,1.448339,-0.3261564
25857845,2.96,-3.19,106.8,-3.054116,1.438099,-0.2980137
25877841,3.11,-3.2,106.6,-3.049812,1.441984,-0.3224436
25897874,2.96,-3.13,106.49,-3.037972,1.427855,-0.3189141
25917919,3.03,-3.12,106.48,-3.015927,1.417199,-0.3157215
25937832,3.07,-3.11,106.52,-3.019597,1.413266,-0.3521508
25957830,3.13,-3.04,106.59,-3.046761,1.399312,-0.2882491
25977815,3.18,-3.03,106.63,-3.040474,1.400525,-0.3281203
25997854,3.18,-3.03,106.62,-3.045362,1.395329,-0.3174586
26017929,3.06,-3.03,106.55,-3.058424,1.399027,-0.3164034
26037832,3.18,-2.93,106.43,-3.062486,1.391943,-0.327363
26057836,3.05,-2.9,106.29,-3.055436,1.386628,-0.3069599
26077903,3.12,-2.97,106.15,-3.062283,1.371306,-0.3151644
26097829,3.08,-2.93,106.07,-3.059996,1.366107,-0.3103285
26117849,3.07,-2.9,106.06,-3.049486,1.359501,-0.3048884
26137819,3.13,-2.87,106.07,-3.045685,1.343334,-0.3101909
26157871,3.15,-2.84,106.12,-3.042954,1.337414,-0.3026223
26177911,3.16,-2.8,106.18,-3.049222,1.33249,-0.3061009
26197815,3.21,-2.81,106.22,-3.048621,1.330471,-0.3041972
26217848,3.19,-2.79,106.22,-3.069194,1.324532,-0.3002468
26237833,3.17,-2.77,106.22,-3.052343,1.324649,-0.3205993
26257878,3.17,-2.75,106.17,-3.06385,1.321203,-0.2970108
26277947,3.11,-2.74,106.12,-3.065681,1.322168,-0.3039638
26297830,3.12,-2.73,106.01,-3.074672,1.316898,-0.3076449
26317836,3.01,-2.72,105.93,-3.065355,1.31285,-0.2998457
26337838,3.08,-2.75,105.84,-3.06044,1.299088,-0.300613
26357894,3.03,-2.69,105.83,-3.058346,1.291597,-0.292907
26377849,3.02,-2.68,105.85,-3.055828,1.28583,-0.2858006
26397831,3.08,-2.71,105.85,-3.060218,1.280209,-0.295089
26417859,3.05,-2.69,105.84,-3.055497,1.280734,-0.2906327
26437902,3.04,-2.69,105.82,-3.064156,1.267075,-0.2796909
26457817,3.05,-2.69,105.79,-3.06108,1.267792,-0.2933173
26477857,3.02,-2.66,105.75,-3.062513,1.262937,-0.2809335
26497844,2.98,-2.66,105.71,-3.059849,1.257691,-0.2816738
26517838,2.99,-2.68,105.66,-3.06278,1.253276,-0.2831189
26537899,2.96,-2.66,105.62,-3.053377,1.244755,-0.2792497
26557860,2.97,-2.65,105.61,-3.055425,1.234694,-0.2765916
26577833,2.99,-2.65,105.63,-3.045563,1.226799,-0.2768419
26597879,2.99,-2.65,105.63,-3.049616,1.221007,-0.2806935
26617906,2.97,-2.64,105.6,-3.05408,1.215627,-0.2704325
26637832,2.97,-2.62,105.54,-3.053084,1.210398,-0.262526
26657821,3.02,-2.58,105.48,-3.051065,1.205696,-0.2724057
26677891,2.97,-2.57,105.45,-3.044379,1.19773,-0.2648282
26697903,2.97,-2.53,105.46,-3.038056,1.192775,-0.263955
26717881,2.96,-2.54,105.48,-3.03027,1.187515,-0.2628396
26737832,2.99,-2.55,105.51,-3.030768,1.177975,-0.26421
26757815,2.97,-2.54,105.53,-3.031978,1.173555,-0.2609968
26777860,2.96,-2.53,105.5,-3.033953,1.167497,-0.2608159
26797874,2.93,-2.52,105.47,-3.027579,1.160489,-0.2600177
26817854,2.92,-2.52,105.44,-3.030115,1.154056,-0.2542505
26837830,2.88,-2.49,105.43,-3.023131,1.146512,-0.2537577
26857893,2.9,-2.5,105.45,-3.013771,1.140911,-0.2547064
26877943,2.9,-2.49,105.46,-3.015543,1.132702,-0.2503367
26897829,2.86,-2.47,105.45,-3.012036,1.131843,-0.2485779
26917855,2.86,-2.48,105.44,-3.012995,1.128116,-0.2502551
26937840,2.84,-2.47,105.42,-3.004804,1.114951,-0.2459304
26957815,2.83,-2.46,105.39,-2.998487,1.111258,-0.2449154
26977867,2.82,-2.46,105.38,-2.995707,1.102308,-0.2428848
26997838,2.81,-2.45,105.39,-2.986516,1.094646,-0.2408139
27017865,2.81,-2.44,105.42,-2.982419,1.085883,-0.241444
27037830,2.83,-2.44,105.44,-2.975143,1.079932,-0.2395161
27057816,2.81,-2.42,105.45,-2.972168,1.07545,-0.2369288
27077853,2.79,-2.42,105.43,-2.967865,1.074566,-0.2364868
27097856,2.78,-2.41,105.4,-2.96417,1.076761,-0.2348894
27117867,2.77,-2.4,105.38,-2.960943,1.079366,-0.2327143
27137836,2.76,-2.39,105.39,-2.953643,1.080818,-0.230721
27157828,2.76,-2.38,105.41,-2.9478,1.083579,-0.2296989
27177916,2.76,-2.37,105.44,-2.943325,1.08747,-0.2273274
27197870,2.76,-2.36,105.45,-2.940015,1.091984,-0.2260201
27217854,2.75,-2.35,105.46,-2.937493,1.096343,-0.2254581
27237832,2.75,-2.35,105.44,-2.930034,1.097632,-0.2235998
27257838,2.73,-2.34,105.42,-2.923163,1.095937,-0.2229058
27277914,2.71,-2.33,105.4,-2.91662,1.094133,-0.2213109
27297829,2.69,-2.33,105.39,-2.909718,1.093271,-0.2191253
27317859,2.68,-2.31,105.4,-2.904161,1.093834,-0.2173932
27337840,2.68,-2.3,105.41,-2.895119,1.0939,-0.2160006
27357885,2.68,-2.29,105.43,-2.887941,1.09535,-0.2146442
27377850,2.66,-2.28,105.43,-2.881699,1.098626,-0.2134054
27397830,2.65,-2.28,105.42,-2.876416,1.102745,-0.21235
27417848,2.63,-2.27,105.41,-2.871092,1.106941,-0.2108345
27437891,2.63,-2.27,105.41,-2.860618,1.107101,-0.209591
27457815,2.61,-2.25,105.42,-2.851868,1.108827,-0.2080055
27477857,2.61,-2.25,105.42,-2.844347,1.110581,-0.2065255
27497833,2.6,-2.24,105.42,-2.837137,1.111077,-0.2052177
27517880,2.58,-2.23,105.42,-2.830355,1.111131,-0.2040577
27537902,2.57,-2.22,105.42,-2.818666,1.108449,-0.2027629
27557817,2.56,-2.21,105.42,-2.808563,1.107831,-0.2011506
27577854,2.55,-2.21,105.42,-2.799846,1.108452,-0.2001539
27597830,2.53,-2.2,105.42,-2.792189,1.110653,-0.1992615
27617920,2.52,-2.19,105.42,-2.785143,1.113639,-0.1979087
27637831,2.51,-2.19,105.42,-2.773791,1.114248,-0.1970594
27657815,2.49,-2.17,105.42,-2.763287,1.115029,-0.1956401
27677859,2.48,-2.17,105.42,-2.75329,1.115046,-0.1945811
27697855,2.47,-2.16,105.42,-2.744447,1.115067,-0.1934472
27717851,2.46,-2.16,105.42,-2.736363,1.115662,-0.1924496
27737833,2.45,-2.15,105.42,-2.723963,1.114019,-0.1913212
27757815,2.44,-2.14,105.42,-2.713055,1.113965,-0.1899858
27777848,2.42,-2.14,105.42,-2.703163,1.11519,-0.1886772
27797896,2.41,-2.13,105.42,-2.694014,1.117033,-0.1875992
27817856,2.4,-2.13,105.42,-2.686334,1.118695,-0.1864497
27837814,2.39,-2.12,105.42,-2.673207,1.116629,-0.186111
27857834,2.37,-2.11,105.42,-2.660805,1.115967,-0.184333
27877863,2.33,-2.09,105.42,-2.649664,1.114852,-0.1828601
27897898,2.29,-2.07,105.42,-2.639327,1.1147,-0.1816291
27917854,2.26,-2.05,105.41,-2.63002,1.115186,-0.1804661
27937816,2.25,-2.05,105.41,-2.614991,1.113163,-0.1792885
27957871,2.23,-2.04,105.42,-2.601947,1.112479,-0.1781634
27977923,2.21,-2.03,105.42,-2.590554,1.113377,-0.1773649
27997830,2.2,-2.02,105.43,-2.580114,1.116216,-0.1763628
28017842,2.19,-2.01,105.43,-2.570959,1.119165,-0.1747542
28037830,2.17,-2.0,105.43,-2.557729,1.121248,-0.1739117
28057857,2.16,-2.0,105.43,-2.544991,1.122998,-0.1731604
28077848,2.14,-2.0,105.43,-2.533657,1.124546,-0.1722169
28097830,2.13,-1.99,105.43,-2.522517,1.124852,-0.171267
28117911,2.11,-1.99,105.43,-2.513301,1.125102,-0.1706772
28137830,2.1,-1.98,105.44,-2.498175,1.12089,-0.1704377
28157830,2.08,-1.97,105.44,-2.484763,1.118059,-0.1683557
28177848,2.06,-1.97,105.44,-2.472813,1.114144,-0.1670534
28197895,2.04,-1.96,105.43,-2.46071,1.113401,-0.165361
28217862,2.03,-1.95,105.44,-2.450877,1.114555,-0.1647633
28237836,2.01,-1.95,105.44,-2.435826,1.114699,-0.1639168
28257839,2.0,-1.94,105.44,-2.421245,1.116507,-0.1625643
28277849,1.98,-1.94,105.44,-2.408215,1.120281,-0.1620484
28297899,1.97,-1.93,105.44,-2.395769,1.12383,-0.1610528
28317841,1.95,-1.93,105.44,-2.384412,1.126004,-0.1600281
28337830,1.94,-1.92,105.44,-2.367513,1.123923,-0.1592293
28357869,1.92,-1.92,105.44,-2.351392,1.120701,-0.1586421
28377926,1.9,-1.91,105.44,-2.336451,1.118476,-0.1572091
28397830,1.88,-1.9,105.44,-2.322688,1.117853,-0.1567282
28417837,1.87,-1.9,105.44,-2.310495,1.118033,-0.1563336
28437908,1.86,-1.9,105.45,-2.293772,1.117764,-0.155034
28457839,1.84,-1.9,105.45,-2.279004,1.119447,-0.1541036
28477851,1.82,-1.89,105.44,-2.265216,1.121753,-0.1529722
28497832,1.81,-1.89,105.44,-2.251688,1.122899,-0.1517838
28517835,1.79,-1.88,105.45,-2.239461,1.123976,-0.1512428
28537870,1.78,-1.88,105.45,-2.221896,1.122185,-0.1502132
28557857,1.76,-1.88,105.45,-2.20561,1.120671,-0.1493542
28577835,1.75,-1.87,105.44,-2.190123,1.119919,-0.1483354
28597834,1.73,-1.87,105.44,-2.176067,1.11985,-0.1472486
28617908,1.78,-1.9,105.45,-2.164271,1.120026,-0.1464245
28637820,1.76,-1.89,105.45,-2.147489,1.119638,-0.1444871
28657834,1.76,-1.89,105.45,-2.132441,1.119766,-0.1432053
28677896,1.86,-1.95,105.45,-2.119226,1.120192,-0.1413602
28697815,1.8,-1.93,105.45,-2.106038,1.121425,-0.1395521
28717862,1.78,-1.92,105.45,-2.091784,1.121127,-0.1410692
28737832,1.78,-1.92,105.45,-2.075028,1.118909,-0.139815
28757833,1.77,-1.92,105.45,-2.058533,1.120073,-0.1366464
28777901,1.64,-1.86,105.45,-2.045568,1.118981,-0.1380233
28797833,1.55,-1.82,105.46,-2.032991,1.120623,-0.1370457
28817849,1.63,-1.87,105.45,-2.02111,1.121688,-0.1342312
28837834,1.6,-1.86,105.45,-2.002738,1.118912,-0.1344607
28857903,1.6,-1.86,105.45,-1.986704,1.117935,-0.1321904
28877842,1.7,-1.92,105.44,-1.973514,1.117543,-0.1285761
28897836,1.82,-1.98,105.43,-1.958851,1.117538,-0.1299018
28917861,1.91,-2.04,105.43,-1.946903,1.119251,-0.1286094
28937914,1.94,-2.06,105.42,-1.930118,1.118584,-0.1289916
28957832,1.89,-2.04,105.42,-1.913462,1.117873,-0.1305594
28977835,1.78,-1.98,105.43,-1.897884,1.11601,-0.1292429
28997833,1.62,-1.9,105.44,-1.883087,1.113157,-0.1282194
29017918,1.61,-1.9,105.44,-1.871549,1.114047,-0.1250826
29037856,1.75,-1.99,105.44,-1.855122,1.114103,-0.1227931
29057832,1.7,-1.96,105.44,-1.838378,1.114261,-0.123936
29077834,1.68,-1.95,105.44,-1.823731,1.114691,-0.1246171
29097858,1.59,-1.91,105.45,-1.809408,1.11581,-0.1231303
29117908,1.55,-1.88,105.45,-1.798655,1.116816,-0.1214222
29137830,1.52,-1.88,105.45,-1.78183,1.116012,-0.1192741
29157839,1.56,-1.92,105.45,-1.764612,1.115401,-0.1241968
29177895,1.5,-1.9,105.45,-1.751293,1.11688,-0.1175694
29197892,1.48,-1.91,105.46,-1.737545,1.117386,-0.1138592
29217851,1.55,-1.97,105.47,-1.725348,1.117286,-0.1117804
29237866,1.71,-2.09,105.47,-1.709771,1.114941,-0.1089394
29257904,1.84,-2.19,105.46,-1.694476,1.114346,-0.1100249
29277859,1.91,-2.23,105.46,-1.679929,1.115058,-0.1121007
29297833,1.85,-2.18,105.46,-1.667091,1.116501,-0.1118578
29317867,1.72,-2.09,105.47,-1.654575,1.117374,-0.1110721
29337890,1.63,-2.03,105.47,-1.637766,1.115384,-0.1076757
29357831,1.66,-2.05,105.47,-1.622387,1.113904,-0.1043783
29377837,1.73,-2.09,105.46,-1.608537,1.113279,-0.1033427
29397853,1.74,-2.1,105.46,-1.594373,1.113961,-0.1033559
29417929,1.72,-2.09,105.46,-1.582578,1.115854,-0.1031117
29437832,1.66,-2.06,105.46,-1.56565,1.115964,-0.1009793
29457831,1.63,-2.05,105.46,-1.550621,1.115281,-0.09900068
29477881,1.68,-2.08,105.46,-1.53657,1.11499,-0.09738833
29497904,1.76,-2.13,105.45,-1.523495,1.115895,-0.09680247
29517901,1.81,-2.15,105.44,-1.511567,1.117733,-0.09632149
29537830,1.82,-2.16,105.44,-1.495104,1.116811,-0.09497625
29557839,1.81,-2.17,105.43,-1.479907,1.115597,-0.0937784
29577833,1.83,-2.18,105.43,-1.465713,1.114272,-0.09239732
29597899,1.87,-2.21,105.42,-1.452853,1.113636,-0.09060243
29617851,1.99,-2.28,105.42,-1.441801,1.114641,-0.08865011
29637847,2.12,-2.35,105.41,-1.426092,1.113453,-0.08651048
29657847,2.18,-2.38,105.4,-1.411519,1.11169,-0.08712599
29677902,2.18,-2.38,105.4,-1.39806,1.111175,-0.08679404
29697833,2.14,-2.37,105.4,-1.385305,1.111308,-0.08630993
29717849,1.99,-2.3,105.4,-1.379421,1.112042,-0.08602784
29737843,2.0,-2.3,105.4,-1.360646,1.110755,-0.08128028
29757911,2.05,-2.33,105.4,-1.345992,1.108415,-0.08053367
29777839,2.03,-2.33,105.4,-1.331603,1.108216,-0.08024882
29797836,1.88,-2.26,105.4,-1.318918,1.107909,-0.08092251
29817848,1.63,-2.13,105.42,-1.308347,1.108317,-0.08134578
29837868,1.37,-2.0,105.45,-1.292951,1.107087,-0.07687362
29857823,1.25,-1.95,105.46,-1.279188,1.107231,-0.07337145
29877857,1.27,-1.95,105.47,-1.260991,1.106772,-0.07635448
29897836,1.17,-1.9,105.47,-1.252507,1.108959,-0.07096915
29917834,1.28,-1.96,105.47,-1.240132,1.111251,-0.07030782
29937906,1.35,-1.99,105.46,-1.22424,1.109118,-0.06961022
29957830,1.3,-1.96,105.46,-1.208697,1.108116,-0.06819949
29977834,1.3,-1.97,105.46,-1.194384,1.108197,-0.06737021
29997832,1.28,-1.97,105.46,-1.18134,1.109855,-0.06580691
30017911,1.27,-1.97,105.46,-1.169583,1.111895,-0.06494666
30037815,1.26,-1.97,105.46,-1.153443,1.110763,-0.06356476
30057830,1.25,-1.97,105.46,-1.138378,1.11027,-0.06224133
30077857,1.23,-1.97,105.46,-1.124533,1.111058,-0.06103984
30097828,1.23,-1.97,105.46,-1.112068,1.112911,-0.05961821
30117921,1.22,-1.96,105.46,-1.100276,1.114773,-0.05874581
30137829,1.2,-1.96,105.47,-1.084288,1.113505,-0.0573605
